~Version Information
 VERS.             2.0 : CWLS log ASCII standard - Version 2.0
 WRAP.             NO  : One line per depth step
 #
 ~Well Information Block
 #MNEM.UNIT                   Data Type:Information
 #__________________________________________________________
 STRT  .M           1050.03600  :START INDEX                  
   2281.M           2281.5804 : STOP INDEX                    
 STEP  .M              0.15240  :STEP                         
 NULL  .              -999.25000  :NULL VALUE                 
   COMP.           StatoilHydro : COMPANY                       
   WELL.            15/9-F-14 : WELL                          
    FLD.                Volve : FIELD                         
    LOC.           Norwegian North Sea : LOCATION                      
   PROV.                      : PROVINCE                      
   CNTY.                      : COUNTY                        
   STAT.                      : STATE                         
   CTRY.               Norway : COUNTRY                       
   SRVC.           Schlumberger : SERVICE COMPANY               
   DATE.            14-May-08 : LOG DATE                      
    UWI.                      : UNIQUE WELL ID                
    API.                      : API NUMBER                    
 #
 STOP  .M      2281.58040     :STOP Depth
 ~Curve Information Block
 #MNEM.UNIT                     : Curve Description
 #---------                     --------------------
 DEPT        .M                 :Bit Depth 2hz                                                    
 ROP5        .M/HR              : 5ft ROP 2hz                                                     
 ARC_GR_UNC_RT.GAPI              : ARC Raw Gamma Ray, Real-Time                                    
 SWOB        .KKGF              : Surface Weight on Bit 2hz                                       
 TQA         .KMN               : SRF STOR 2hz                                                    
 RPM         .RPM               : SRF SRPM 2hz                                                    
 Stick_RT    .RPM               : MWD PKtoPK RPM 2hz                                              
 CRPM_RT     .RPM               : MWD CRPM 2hz                                                    
 TFLO        .LPM               : HSPM Total Pump Flow 2hz                                        
 TRPM_RT     .RPM               : MWD TUR_RPM 2hz                                                 
 SPPA        .BAR               : SRF PUMPRS 2hz                                                  
 SHKRSK_RT   .----              : MWD SHKRSK 2hz                                                  
 SHK2_RT     .----              : ARC Shock Level, Real-Time                                      
 SHK_ISONIC_RT.----              : Isonic Shock, Real-Time                                         
 PDSHKRSK    .----              : PowerDrive Shock Risk 2hz                                       
 SHKPK_RT    .G                 : MWD SHK_PK 2hz                                                  
 ECD_ARC     .SG                : Equivalent Circulating Density                                  
 APRS_ARC    .BAR               : ARC Annular Pressure                                            
 ATMP        .DEGC              : ARC Annular Temperature                                         
 #
 ~Parameter Information Block
 #MNEM.UNIT                       Value:Description
 #__________________________________________________________
 #
 ~Other Information Block
 
 #
 ~A    DEPT       ROP5 ARC_GR_UNC_RT       SWOB        TQA        RPM   Stick_RT    CRPM_RT       TFLO    TRPM_RT       SPPA  SHKRSK_RT    SHK2_RT SHK_ISONIC_RT   PDSHKRSK   SHKPK_RT    ECD_ARC   APRS_ARC       ATMP
# ...
 2115.6168     23.706       126.563      1.726     11.810    119.771    -999.25    117.000   4449.792    -999.25    199.734      0.000    -999.25         0.000    -999.25      0.000      1.321    273.791     55.000
 2115.7692     23.778       118.266      1.986     11.088    119.625     39.000    -999.25   4449.792   3398.438    199.524    -999.25      0.000       -999.25      0.000    -999.25      1.321    273.722     55.000
 2115.9216     27.079       123.766      2.151     10.778    119.000    -999.25    -999.25   4449.792    -999.25    199.666    -999.25    -999.25       -999.25    -999.25    -999.25      1.321    273.722     55.000
 2116.0740     27.300       121.000      2.003     10.808    119.742    -999.25    118.000   4367.067    -999.25    199.526      0.000    -999.25       -999.25    -999.25      0.000      1.320    273.653     55.000
 2116.2264     27.224       123.766      2.413     11.247    120.000      6.000    -999.25   4336.941   3164.063    175.313    -999.25      0.000         0.000      0.000    -999.25      1.321    273.722     55.000
 2116.3788     26.857       115.563      2.737     12.859    120.000    -999.25    -999.25   4293.693    -999.25    185.915    -999.25    -999.25       -999.25    -999.25    -999.25      1.321    273.722     55.000
 2116.5312     26.777       115.563      2.205     13.234    120.000    -999.25    119.000   4284.772    -999.25    187.852      0.000    -999.25       -999.25    -999.25      0.000      1.321    273.722     55.000
 2116.6836     30.565       107.641      2.360     13.031    120.000     12.000    -999.25   4271.392   3085.938    183.530    -999.25      0.000       -999.25      0.000    -999.25      1.320    273.722     55.000
 2116.8360     12.287       105.063      2.129     10.272    119.655      6.000    119.000   4287.320   3296.875    188.545      0.000      0.000         0.000      0.000      0.000      1.320    273.722     55.000
 2116.9884     10.474       118.266      4.575     10.229    119.268      9.000    119.000   4449.792   3398.438    199.505      0.000      0.000       -999.25      0.000      0.000      1.320    273.722     55.000
 2117.1408      9.892       112.891      0.747     12.297    119.546      9.000    121.000   4449.792   3398.438    199.161      0.000      0.000       -999.25      0.000      0.000      1.320    273.653     55.000
 2117.2932      9.744       121.000      0.966      9.015    119.857      9.000    -999.25   4449.792   3398.438    199.054    -999.25      0.000         0.000      0.000    -999.25      1.319    273.584     55.000
 2117.4456      9.708       123.766      1.654      8.978    119.306    -999.25    116.000   4449.792    -999.25    199.747      0.000    -999.25       -999.25    -999.25      0.000      1.319    273.584     56.000
 2117.5980      9.670       118.266      2.024     11.827    119.000     57.000    -999.25   4449.792   3398.438    198.927    -999.25      0.000         0.000      0.000    -999.25      1.319    273.515     56.000
 2117.7504      9.650       118.266      2.207     12.829    119.000    -999.25    -999.25   4449.792    -999.25    198.609    -999.25    -999.25       -999.25    -999.25    -999.25      1.318    273.446     56.000
 2117.9028      9.659       115.563      2.294     13.256    119.618    -999.25    118.000   4449.792    -999.25    199.379      0.000    -999.25       -999.25    -999.25      0.000      1.319    273.515     55.000
 2118.0552      9.664       121.000      2.313     12.503    120.000      6.000    -999.25   4449.792   3398.438    199.532    -999.25      0.000         0.000      0.000    -999.25      1.318    273.446     56.000
 2118.2076      9.655       107.641      2.283     10.560    119.794    -999.25    -999.25   4449.792    -999.25    199.615    -999.25    -999.25       -999.25    -999.25    -999.25      1.318    273.446     56.000
 2118.3600     18.864       112.891      2.154     10.357    119.364    -999.25    118.000   4449.792    -999.25    199.287      0.000    -999.25       -999.25    -999.25      0.000      1.318    273.446     56.000
 2118.5124     26.037       129.391      2.296     10.507    120.000     12.000    -999.25   4449.792   3398.438    199.402    -999.25      0.000         0.000      0.000    -999.25      1.318    273.515     55.000
 2118.6648     30.432       112.891      2.113     11.561    119.278    -999.25    -999.25   4449.792    -999.25    198.623    -999.25    -999.25       -999.25    -999.25    -999.25      1.318    273.446     56.000
 2118.8172     31.404       112.891      2.012     12.432    120.000    -999.25    117.000   4449.792    -999.25    198.916      0.000    -999.25       -999.25    -999.25      0.000      1.318    273.515     56.000
 2118.9696     31.217       129.391      2.137     12.403    119.342     12.000    -999.25   4449.792   3398.438    198.907    -999.25      0.000         0.000      0.000    -999.25      1.318    273.515     56.000
 2119.1220     31.054       129.391      2.063     12.552    119.216    -999.25    118.000   4449.792    -999.25    199.412      0.000    -999.25       -999.25    -999.25      0.000      1.318    273.515     55.000
 2119.2744     30.934       123.766      2.300     11.196    120.000    -999.25    -999.25   4449.792    -999.25    199.110    -999.25    -999.25       -999.25    -999.25    -999.25      1.317    273.446     56.000
 2119.4268     30.755       118.266      2.289     10.229    119.229     12.000    -999.25   4449.792   3398.438    198.921    -999.25      0.000       -999.25      0.000    -999.25      1.317    273.446     56.000
 2119.5792     30.584       123.766      2.385     10.307    119.000    -999.25    117.000   4449.792    -999.25    199.641      0.000    -999.25         0.000    -999.25      0.000      1.318    273.515     56.000
 2119.7316     30.546       129.391      2.218     11.596    119.000    -999.25    -999.25   4449.792   3398.438    199.360    -999.25      0.000       -999.25      0.000    -999.25      1.318    273.515     56.000
 2119.8840     30.403       115.563      2.440     12.058    119.657      6.000    -999.25   4449.792    -999.25    199.204    -999.25    -999.25       -999.25    -999.25    -999.25      1.317    273.515     56.000
 2120.0364     30.351       121.000      2.423     12.958    120.000    -999.25    118.000   4449.792    -999.25    198.689      0.000    -999.25         0.000    -999.25      0.000      1.317    273.515     56.000
 2120.1888     30.438       132.250      2.452     13.031    119.657      9.000    -999.25   4449.792   3398.438    198.614    -999.25      0.000       -999.25      0.000    -999.25      1.317    273.446     56.000
 2120.3412     30.690       110.250      2.459     12.025    119.000    -999.25    -999.25   4449.792    -999.25    198.950    -999.25    -999.25       -999.25    -999.25    -999.25      1.317    273.446     56.000
 2120.4936     30.969       123.766      2.299     11.008    119.771    -999.25    117.000   4449.792    -999.25    198.664      0.000    -999.25       -999.25    -999.25      0.000      1.317    273.446     56.000
 2120.6460     31.390       123.766      2.473     10.391    120.212      9.000    -999.25   4449.792   3398.438    199.244    -999.25      0.000         0.000      0.000    -999.25      1.317    273.446     56.000
 2120.7984     31.670       107.641      2.472     11.139    120.576    -999.25    -999.25   4449.792    -999.25    198.794    -999.25    -999.25       -999.25    -999.25    -999.25      1.316    273.377     56.000
 2120.9508     31.944       121.000      2.627     11.986    119.424    -999.25    118.000   4449.792    -999.25    198.863      0.000    -999.25       -999.25    -999.25      0.000      1.316    273.446     56.000
 2121.1032     32.146       123.766      2.458     12.686    119.788     12.000    -999.25   4449.792   3398.438    198.502    -999.25      0.000       -999.25      0.000    -999.25      1.316    273.446     56.000
 2121.2556     32.264       112.891      2.515     13.988    120.000    -999.25    -999.25   4449.792    -999.25    199.015    -999.25    -999.25         0.000    -999.25    -999.25      1.316    273.446     56.000
