~Version Information
 VERS.             2.0 : CWLS log ASCII standard - Version 2.0
 WRAP.             NO  : One line per depth step
 #
 ~Well Information Block
 #MNEM.UNIT                   Data Type:Information
 #__________________________________________________________
 STRT  .M           1050.03600  :START INDEX                  
   2281.M           2281.5804 : STOP INDEX                    
 STEP  .M              0.15240  :STEP                         
 NULL  .              -999.25000  :NULL VALUE                 
   COMP.           StatoilHydro : COMPANY                       
   WELL.            15/9-F-14 : WELL                          
    FLD.                Volve : FIELD                         
    LOC.           Norwegian North Sea : LOCATION                      
   PROV.                      : PROVINCE                      
   CNTY.                      : COUNTY                        
   STAT.                      : STATE                         
   CTRY.               Norway : COUNTRY                       
   SRVC.           Schlumberger : SERVICE COMPANY               
   DATE.            14-May-08 : LOG DATE                      
    UWI.                      : UNIQUE WELL ID                
    API.                      : API NUMBER                    
 #
 STOP  .M      2281.58040     :STOP Depth
 ~Curve Information Block
 #MNEM.UNIT                     : Curve Description
 #---------                     --------------------
 DEPT        .M                 :Bit Depth 2hz                                                    
 ROP5        .M/HR              : 5ft ROP 2hz                                                     
 ARC_GR_UNC_RT.GAPI              : ARC Raw Gamma Ray, Real-Time                                    
 SWOB        .KKGF              : Surface Weight on Bit 2hz                                       
 TQA         .KMN               : SRF STOR 2hz                                                    
 RPM         .RPM               : SRF SRPM 2hz                                                    
 Stick_RT    .RPM               : MWD PKtoPK RPM 2hz                                              
 CRPM_RT     .RPM               : MWD CRPM 2hz                                                    
 TFLO        .LPM               : HSPM Total Pump Flow 2hz                                        
 TRPM_RT     .RPM               : MWD TUR_RPM 2hz                                                 
 SPPA        .BAR               : SRF PUMPRS 2hz                                                  
 SHKRSK_RT   .----              : MWD SHKRSK 2hz                                                  
 SHK2_RT     .----              : ARC Shock Level, Real-Time                                      
 SHK_ISONIC_RT.----              : Isonic Shock, Real-Time                                         
 PDSHKRSK    .----              : PowerDrive Shock Risk 2hz                                       
 SHKPK_RT    .G                 : MWD SHK_PK 2hz                                                  
 ECD_ARC     .SG                : Equivalent Circulating Density                                  
 APRS_ARC    .BAR               : ARC Annular Pressure                                            
 ATMP        .DEGC              : ARC Annular Temperature                                         
 #
 ~Parameter Information Block
 #MNEM.UNIT                       Value:Description
 #__________________________________________________________
 #
 ~Other Information Block
 
 #
 ~A    DEPT       ROP5 ARC_GR_UNC_RT       SWOB        TQA        RPM   Stick_RT    CRPM_RT       TFLO    TRPM_RT       SPPA  SHKRSK_RT    SHK2_RT SHK_ISONIC_RT   PDSHKRSK   SHKPK_RT    ECD_ARC   APRS_ARC       ATMP
# ...
 1212.1896     34.538       121.000     -0.493      9.628     79.387    -999.25    -999.25   4138.493    -999.25    141.182    -999.25    -999.25       -999.25    -999.25    -999.25      1.245    147.686     34.000
 1212.3420     34.544       107.641     -0.437      9.073     80.000    -999.25     80.000   4138.493    -999.25    140.825      0.000    -999.25       -999.25    -999.25      0.000      1.245    147.686     35.000
 1212.4944     34.539       -999.25     -0.385      8.735     79.281     30.000    -999.25   4138.493   3085.938    140.874    -999.25      0.000         0.000      0.000    -999.25      1.245    147.755     34.000
 1212.6468     34.540       105.063     -0.482      8.274     79.000    -999.25    -999.25   4138.493    -999.25    140.883    -999.25    -999.25       -999.25    -999.25    -999.25      1.245    147.755     35.000
 1212.7992     34.548       -999.25     -0.368      9.012     79.188    -999.25     81.000   4138.493    -999.25    141.251      0.000    -999.25       -999.25    -999.25      0.000      1.245    147.755     35.000
 1212.9516     34.540       110.250     -0.399      7.947     80.000     15.000    -999.25   4138.493   3085.938    141.115    -999.25      0.000         0.000      0.000    -999.25      1.245    147.824     35.000
 1213.1040     34.544       115.563     -0.418      7.690     80.000    -999.25    -999.25   4138.493    -999.25    140.907    -999.25    -999.25       -999.25    -999.25    -999.25      1.245    147.824     35.000
 1213.2564     34.539       -999.25     -0.444      7.831     80.000    -999.25     79.000   4138.493    -999.25    141.103      0.000    -999.25       -999.25    -999.25      0.000      1.246    147.893     35.000
 1213.4088     34.543       115.563     -0.311      7.428     79.250     24.000    -999.25   4138.493   3085.938    140.933    -999.25      0.000         0.000      0.000    -999.25      1.246    147.893     35.000
 1213.5612     34.543       115.563     -0.321      7.923     79.065    -999.25    -999.25   4138.493    -999.25    140.895    -999.25    -999.25       -999.25    -999.25    -999.25      1.245    147.893     35.000
 1213.7136     34.542       -999.25     -0.401      8.139     79.813    -999.25     79.000   4138.493    -999.25    141.388      0.000    -999.25       -999.25    -999.25      0.000      1.245    147.893     35.000
 1213.8660     34.543       110.250     -0.498      9.451     79.375    -999.25    -999.25   4138.493   3085.938    141.297    -999.25    -999.25         0.000      0.000    -999.25      1.246    147.962     35.000
 1214.0184     34.539       121.000     -0.425      8.670     79.469     30.000    -999.25   4138.493    -999.25    141.273    -999.25      0.000       -999.25    -999.25    -999.25      1.246    147.962     35.000
 1214.1708     34.543       -999.25     -0.505      8.290     79.710    -999.25     79.000   4138.493    -999.25    141.485      0.000    -999.25       -999.25    -999.25      0.000      1.247    148.099     35.000
 1214.3232     34.541       110.250     -0.654      8.145     80.000    -999.25    -999.25   4138.493    -999.25    141.267    -999.25    -999.25       -999.25    -999.25    -999.25      1.246    148.030     35.000
 1214.4756     34.545       -999.25     -0.445      7.817     79.031     21.000    -999.25   4138.493   3085.938    141.361    -999.25      0.000         0.000      0.000    -999.25      1.246    148.099     35.000
 1214.6280     34.544       112.891     -0.380      7.006     79.281    -999.25     79.000   4138.493    -999.25    141.385    -999.25    -999.25       -999.25    -999.25    -999.25      1.247    148.237     35.000
 1214.7804     34.537       115.563     -0.353      7.304     79.562    -999.25    -999.25   4138.493    -999.25    141.482      0.000    -999.25       -999.25    -999.25      0.000      1.246    148.168     35.000
 1214.9328     34.545       -999.25     -0.279      7.349     79.613     18.000    -999.25   4138.493   3085.938    141.356    -999.25      0.000         0.000      0.000    -999.25      1.247    148.237     35.000
 1215.0852     34.537       110.250     -0.311      7.336     80.000    -999.25    -999.25   4138.493    -999.25    141.470    -999.25    -999.25       -999.25    -999.25    -999.25      1.247    148.306     35.000
 1215.2376     34.541       -999.25     -0.403      7.537     80.000    -999.25     77.000   4138.493    -999.25    141.585      0.000    -999.25       -999.25    -999.25      0.000      1.247    148.306     35.000
 1215.3900     34.545       118.266     -0.542      7.470     80.000     27.000    -999.25   4138.493   3085.938    141.391    -999.25      0.000         0.000      0.000    -999.25      1.248    148.375     35.000
 1215.5424     34.540       115.563     -0.572      7.936     79.710    -999.25    -999.25   4138.493    -999.25    141.764    -999.25    -999.25       -999.25    -999.25    -999.25      1.248    148.444     35.000
 1215.6948     34.543       -999.25     -0.600      8.015     79.500    -999.25     79.000   4138.493    -999.25    141.629      0.000    -999.25       -999.25    -999.25      0.000      1.248    148.444     35.000
 1215.8472     34.542       121.000     -0.487      8.460     80.000     42.000    -999.25   4138.493   3085.938    141.583    -999.25      0.000         0.000      0.000    -999.25      1.248    148.513     35.000
 1215.9996     34.537       115.563     -0.350      7.833     79.250    -999.25    -999.25   4138.493    -999.25    141.464    -999.25    -999.25       -999.25    -999.25    -999.25      1.248    148.513     35.000
 1216.1520     34.550       -999.25     -0.583      7.915     79.000    -999.25     80.000   4138.493    -999.25    141.619      0.000    -999.25       -999.25    -999.25      0.000      1.249    148.582     35.000
 1216.3044     34.544       118.266     -0.551      8.137     79.000     15.000    -999.25   4138.493   3085.938    141.432    -999.25      0.000         0.000      0.000    -999.25      1.248    148.582     35.000
 1216.4568     34.548       123.766     -0.497      6.847     79.000    -999.25    -999.25   4138.493    -999.25    141.688    -999.25    -999.25       -999.25    -999.25    -999.25      1.249    148.720     34.000
 1216.6092     34.539       -999.25     -0.371      6.808     79.000    -999.25     78.000   4138.493    -999.25    141.401      0.000    -999.25       -999.25    -999.25      0.000      1.249    148.720     34.000
 1216.7616     34.541       110.250     -0.274      7.985     79.645    -999.25    -999.25   4138.493   3085.938    141.466    -999.25      0.000         0.000      0.000    -999.25      1.249    148.720     35.000
 1216.9140     34.539       -999.25     -0.632      7.442     79.250     27.000    -999.25   4138.493    -999.25    141.645    -999.25    -999.25       -999.25    -999.25    -999.25      1.249    148.720     35.000
 1217.0664     34.540       121.000     -0.106      7.405     79.094    -999.25     80.000   4138.493    -999.25    141.617      0.000    -999.25       -999.25    -999.25      0.000      1.249    148.789     34.000
 1217.2188     34.544       129.391      1.438      8.179     79.719    -999.25    -999.25   4138.493    -999.25    141.927    -999.25    -999.25         0.000    -999.25    -999.25      1.249    148.789     34.000
 1217.3712     34.511       -999.25      1.750      9.116     79.438     60.000    -999.25   4138.493   3085.938    141.898    -999.25      0.000       -999.25      0.000    -999.25      1.249    148.789     34.000
 1217.5236     34.472       141.016      1.847      9.737     80.000    -999.25     80.000   4138.493    -999.25    141.437      0.000    -999.25       -999.25    -999.25      0.000      1.249    148.789     34.000
 1217.6760     34.415       159.391      1.919      9.999     79.313    -999.25    -999.25   4138.493    -999.25    141.673    -999.25    -999.25       -999.25    -999.25    -999.25      1.249    148.789     34.000
 1217.8284     34.298       -999.25      1.941      9.930     79.000     33.000    -999.25   4138.493   3085.938    141.588    -999.25      0.000         0.000      0.000    -999.25      1.249    148.858     34.000
