~Version Information
VERS.             2.0 : CWLS log ASCII standard - Version 2.0
WRAP.             NO  : One line per depth step
#
~Well Information Block
#MNEM.UNIT                   Data Type:Information
#__________________________________________________________
 STRT .M           2250.03360  :START INDEX                  
  STOP.M           2787.8532 : STOP INDEX                    
  STEP.M              0.1524 : STEP                          
  NULL.              -999.25 : NULL VALUE                    
  COMP.           StatoilHydro : COMPANY                       
  WELL.            15_9_F_14 : WELL                          
   FLD.                Volve : FIELD                         
   LOC.           Maersk Inspirer : LOCATION                      
  PROV.                      : PROVINCE                      
  CNTY.                      : COUNTY                        
  STAT.                      : STATE                         
  CTRY.                      : COUNTRY                       
  SRVC.              SLB D&M : SERVICE COMPANY               
  DATE.                      : LOG DATE                      
   UWI.                      : UNIQUE WELL ID                
   API.                      : API NUMBER                    
#
~Curve Information Block
#MNEM.UNIT                     : Curve Description
#---------                     --------------------
DEPT        .M                 : Bit Depth 2hz                                                   
ROP5        .M/HR              : 5ft ROP 2hz                                                     
ARC_GR_RT   .GAPI              : ARC Gamma Ray, Real-Time                                        
SWOB        .KKGF              : Surface Weight on Bit 2hz                                       
TQA         .KMN               : SRF STOR 2hz                                                    
Stick_RT    .RPM               : MWD PKtoPK RPM 2hz                                              
SPPA        .BAR               : SRF PUMPRS 2hz                                                  
TRPM_RT     .RPM               : MWD TUR_RPM 2hz                                                 
TFLO        .LPM               : HSPM Total Pump Flow 2hz                                        
RPM         .RPM               : SRF SRPM 2hz                                                    
CRPM_RT     .RPM               : MWD CRPM 2hz                                                    
SHKRSK_RT   .----              : MWD SHKRSK 2hz                                                  
SHK2_RT     .----              : ARC Shock Level, Real-Time                                      
ECD_ARC     .G/C3              : Equivalent Circulating Density                                  
APRS_ARC    .BAR               : ARC Annular Pressure                                            
ATMP        .DEGC              : ARC Annular Temperature                                         
SPM1        .----              : SRF SPM1 2hz                                                    
SPM2        .----              : SRF SPM2 2hz                                                    
SPM3        .----              : SRF SPM3 2hz                                                    
#
~Parameter Information Block
#MNEM.UNIT                       Value:Description
#__________________________________________________________
#
~Other Information Block

#
~A    DEPT       ROP5  ARC_GR_RT       SWOB        TQA   Stick_RT       SPPA    TRPM_RT       TFLO        RPM    CRPM_RT  SHKRSK_RT    SHK2_RT    ECD_ARC   APRS_ARC       ATMP       SPM1       SPM2       SPM3
# ...
 2565.0444    30.7435    -999.25    10.1687    12.2529    -999.25   242.0355  2617.1875  3561.2438   139.0000    -999.25     0.0000    -999.25     1.3347   333.6374    72.0000    65.0000    50.0000    45.0000
 2565.1968    30.3273    -999.25    12.4564    12.6270    -999.25   243.2322    -999.25  3561.2438   139.0000   136.0000    -999.25    -999.25     1.3349   333.7064    72.0000    65.0000    50.0000    45.0000
 2565.3492    29.2176    -999.25    14.6483    13.2845    -999.25   242.8595    -999.25  3561.2438   139.0000    -999.25    -999.25     0.0000     1.3345   333.6374    72.0000    65.0000    50.0000    45.0000
 2565.5016    27.6491    52.1659    15.9970    14.6442    -999.25   246.6766  2578.1250  3561.2438   139.3488    -999.25    -999.25    -999.25     1.3347   333.7064    72.0000    65.0000    50.0000    45.0000
 2565.6540    26.1204    52.1659    15.1638    16.2362    -999.25   249.7442    -999.25  3561.2438   139.2889   148.0000     0.0000    -999.25     1.3347   333.7064    72.0000    65.0000    50.0000    45.0000
 2565.8064    24.7719    48.4410    16.0361    17.5261    -999.25   253.4644    -999.25  3561.2438   139.5435    -999.25    -999.25     0.0000     1.3346   333.7064    72.0000    65.0000    50.0000    45.0000
 2565.9588    24.7401    50.2862    10.7660    15.7887    -999.25   251.2847  2656.2500  3561.2438   140.0000    -999.25     0.0000    -999.25     1.3343   333.6374    72.0000    65.0000    50.0000    45.0000
 2566.1112    27.1877    -999.25    12.4293    20.1535    -999.25   256.0581    -999.25  3561.2438   140.0000    -999.25    -999.25    -999.25     1.3342   333.6374    72.0000    65.0000    50.0000    45.0000
 2566.2636    30.5709    54.0801    13.7352    15.3953    30.0000   251.3428    -999.25  3561.2438   139.4412   140.0000    -999.25     0.0000     1.3344   333.7064    72.0000    65.0000    50.0000    45.0000
 2566.4160    30.7489    -999.25    11.2604    16.4030    -999.25   251.2959    -999.25  3561.2438   139.8571    -999.25    -999.25    -999.25     1.3340   333.6374    72.0000    65.0000    50.0000    45.0000
 2566.5684    30.7988    52.1659     9.7185    18.5055    -999.25   253.7855  2656.2500  3561.2438   140.0000    -999.25     0.0000    -999.25     1.3345   333.7753    72.0000    65.0000    50.0000    45.0000
 2566.7208    30.8015    -999.25     8.3389    16.4330    -999.25   253.3097    -999.25  3561.2438   139.8571   139.0000    -999.25    -999.25     1.3342   333.7064    72.0000    65.0000    50.0000    45.0000
 2566.8732    31.5431    -999.25     8.2117    14.2787    -999.25   249.2329    -999.25  3561.2438   139.0000    -999.25    -999.25     0.0000     1.3344   333.7753    72.0000    65.0000    50.0000    45.0000
 2567.0256    33.0428    -999.25     8.3255    12.4255    -999.25   245.9235    -999.25  3561.2438   139.0000    -999.25    -999.25    -999.25     1.3343   333.7753    72.0000    65.0000    50.0000    45.0000
 2567.1780    35.1930    -999.25     8.3636    11.9308    -999.25   244.5110    -999.25  3561.2438   139.0800    -999.25    -999.25    -999.25     1.3342   333.7753    72.0000    65.0000    50.0000    45.0000
 2567.3304    38.0474    -999.25     9.4260    11.0229    -999.25   241.7948  2617.1875  3561.2438   140.0000    -999.25     0.0000    -999.25     1.3347   333.9132    72.0000    65.0000    50.0000    45.0000
 2567.4828    39.8966    56.0288    11.1700    11.9649    -999.25   242.5817    -999.25  3561.2438   139.0909   139.0000    -999.25    -999.25     1.3346   333.9132    72.0000    65.0000    50.0000    45.0000
 2567.6352    40.6329    -999.25    13.7940    12.8679    69.0000   244.6992    -999.25  3561.2438   139.0000    -999.25    -999.25     0.0000     1.3346   333.9132    72.0000    65.0000    50.0000    45.0000
 2567.7876    41.4924    -999.25    13.5720    14.1284    -999.25   245.6581    -999.25  3561.2438   139.0000    -999.25    -999.25    -999.25     1.3345   333.9132    72.0000    65.0000    50.0000    45.0000
 2567.9400    41.0738    66.2896    10.3942    17.6558    -999.25   250.5521    -999.25  3561.2438   139.0000    -999.25     2.0000    -999.25     1.3350   334.0511    72.0000    65.0000    50.0000    45.0000
 2568.0924    39.7239    79.7406     8.7263    15.7364    -999.25   252.6984    -999.25  3561.2438   139.4722    -999.25    -999.25    -999.25     1.3349   334.0511    72.0000    65.0000    50.0000    45.0000
 2568.2448    38.4515    -999.25     8.7007    12.6477    -999.25   246.6395    -999.25  3561.2438   140.0000    -999.25    -999.25     0.0000     1.3351   334.1201    72.0000    65.0000    50.0000    45.0000
 2568.3972    37.2522    -999.25    10.6620    12.0781    -999.25   244.0919    -999.25  3561.2438   140.0000    -999.25    -999.25    -999.25     1.3348   334.0511    72.0000    65.0000    50.0000    45.0000
 2568.5496    36.1328    -999.25    12.7852    13.9323    -999.25   244.7367    -999.25  3561.2438   139.4595    -999.25    -999.25    -999.25     1.3347   334.0511    72.0000    65.0000    50.0000    45.0000
 2568.7020    33.9748    -999.25    15.0192    13.3856    84.0000   245.9702    -999.25  3561.2438   139.0000   136.0000    -999.25     0.0000     1.3344   333.9822    72.0000    65.0000    50.0000    45.0000
 2568.8544    31.5658   104.9182    10.6124    14.6764    -999.25   246.4329    -999.25  3561.2438   139.0851    -999.25    -999.25    -999.25     1.3346   334.0511    73.0000    65.0000    50.0000    45.0000
 2569.0068    30.2874    -999.25    12.4899    16.8463    -999.25   249.6767    -999.25  3561.2438   139.6389    -999.25     0.0000    -999.25     1.3345   334.0511    73.0000    65.0000    50.0000    45.0000
 2569.1592    28.2872    58.0120    15.5578    13.0092    15.0000   246.5083    -999.25  3561.2438   139.2708   137.0000    -999.25     0.0000     1.3347   334.1201    73.0000    65.0000    50.0000    45.0000
 2569.3116    24.6424    -999.25    13.7234    15.1678    -999.25   248.1290  2617.1875  3561.2438   139.6782   139.0000     0.0000    -999.25     1.3346   334.1201    73.0000    65.0000    50.0000    45.0000
 2569.4640    22.1781    -999.25     8.5663    16.1504    60.0000   251.2559  2656.2500  3561.2438   138.7356    -999.25    -999.25     0.0000     1.3348   334.1890    73.0000    65.0000    50.0000    45.0000
 2569.6164    21.0993    52.1659    10.4909    11.3638    18.0000   242.4941    -999.25  3561.2438   139.8689    -999.25    -999.25     0.0000     1.3350   334.2580    73.0000    65.0000    50.0000    45.0000
 2569.7688    20.3772    -999.25    13.0587    11.9253    -999.25   240.3335  2617.1875  3561.2438   139.0000    -999.25     0.0000    -999.25     1.3352   334.3269    73.0000    65.0000    50.0000    45.0000
 2569.9212    19.0368    -999.25    14.5780    13.0547    30.0000   243.1043    -999.25  3561.2438   139.8800   137.0000    -999.25    -999.25     1.3349   334.2580    73.0000    65.0000    50.0000    45.0000
 2570.0736    17.9788    70.6353     9.1054    14.8550    -999.25   246.1892    -999.25  3561.2438   139.2857    -999.25     0.0000    -999.25     1.3351   334.3269    73.0000    65.0000    50.0000    45.0000
 2570.2260    17.6693    -999.25     7.3821    14.9978     6.0000   249.1974    -999.25  3561.2438   140.3636   140.0000    -999.25    -999.25     1.3350   334.3269    73.0000    65.0000    50.0000    45.0000
 2570.3784    17.8838    -999.25     8.1708    11.3964    -999.25   241.7246    -999.25  3561.2438   139.0000    -999.25    -999.25    -999.25     1.3352   334.3959    73.0000    65.0000    50.0000    45.0000
 2570.5308    17.8856    70.6353     8.3527    12.0260    -999.25   242.0036  2617.1875  3561.2438   139.5135    -999.25    -999.25    -999.25     1.3352   334.3959    73.0000    65.0000    50.0000    45.0000
 2570.6832    18.2362    -999.25     8.4347    12.7594    -999.25   243.5473    -999.25  3561.2438   138.3889    -999.25    -999.25    -999.25     1.3351   334.3959    73.0000    65.0000    50.0000    45.0000
 2570.8356    19.8909    48.4410     8.8217    12.2308    -999.25   243.3452    -999.25  3561.2438   139.0000    -999.25    -999.25    -999.25     1.3353   334.4648    73.0000    65.0000    50.0000    45.0000
