~Version Information
 VERS.             2.0 : CWLS log ASCII standard - Version 2.0
 WRAP.             NO  : One line per depth step
 #
 ~Well Information Block
 #MNEM.UNIT                   Data Type:Information
 #__________________________________________________________
 STRT  .M           1050.03600  :START INDEX                  
   2281.M           2281.5804 : STOP INDEX                    
 STEP  .M              0.15240  :STEP                         
 NULL  .              -999.25000  :NULL VALUE                 
   COMP.           StatoilHydro : COMPANY                       
   WELL.            15/9-F-14 : WELL                          
    FLD.                Volve : FIELD                         
    LOC.           Norwegian North Sea : LOCATION                      
   PROV.                      : PROVINCE                      
   CNTY.                      : COUNTY                        
   STAT.                      : STATE                         
   CTRY.               Norway : COUNTRY                       
   SRVC.           Schlumberger : SERVICE COMPANY               
   DATE.            14-May-08 : LOG DATE                      
    UWI.                      : UNIQUE WELL ID                
    API.                      : API NUMBER                    
 #
 STOP  .M      2281.58040     :STOP Depth
 ~Curve Information Block
 #MNEM.UNIT                     : Curve Description
 #---------                     --------------------
 DEPT        .M                 :Bit Depth 2hz                                                    
 ROP5        .M/HR              : 5ft ROP 2hz                                                     
 ARC_GR_UNC_RT.GAPI              : ARC Raw Gamma Ray, Real-Time                                    
 SWOB        .KKGF              : Surface Weight on Bit 2hz                                       
 TQA         .KMN               : SRF STOR 2hz                                                    
 RPM         .RPM               : SRF SRPM 2hz                                                    
 Stick_RT    .RPM               : MWD PKtoPK RPM 2hz                                              
 CRPM_RT     .RPM               : MWD CRPM 2hz                                                    
 TFLO        .LPM               : HSPM Total Pump Flow 2hz                                        
 TRPM_RT     .RPM               : MWD TUR_RPM 2hz                                                 
 SPPA        .BAR               : SRF PUMPRS 2hz                                                  
 SHKRSK_RT   .----              : MWD SHKRSK 2hz                                                  
 SHK2_RT     .----              : ARC Shock Level, Real-Time                                      
 SHK_ISONIC_RT.----              : Isonic Shock, Real-Time                                         
 PDSHKRSK    .----              : PowerDrive Shock Risk 2hz                                       
 SHKPK_RT    .G                 : MWD SHK_PK 2hz                                                  
 ECD_ARC     .SG                : Equivalent Circulating Density                                  
 APRS_ARC    .BAR               : ARC Annular Pressure                                            
 ATMP        .DEGC              : ARC Annular Temperature                                         
 #
 ~Parameter Information Block
 #MNEM.UNIT                       Value:Description
 #__________________________________________________________
 #
 ~Other Information Block
 
 #
 ~A    DEPT       ROP5 ARC_GR_UNC_RT       SWOB        TQA        RPM   Stick_RT    CRPM_RT       TFLO    TRPM_RT       SPPA  SHKRSK_RT    SHK2_RT SHK_ISONIC_RT   PDSHKRSK   SHKPK_RT    ECD_ARC   APRS_ARC       ATMP
# ...
 2277.7704      9.038       -999.25      9.386     11.599    119.214     39.000    120.000   3871.493   2929.688    157.455      0.000      0.000       -999.25      0.000      0.000    -999.25    -999.25    -999.25
 2277.9228      8.739       -999.25      9.458     12.545    119.566     36.000    122.000   3871.493   2929.688    157.419      0.000      0.000       -999.25      0.000      0.000    -999.25    -999.25    -999.25
 2278.0752      8.674       -999.25      8.834     11.496    119.366     39.000    118.000   3871.493   2929.688    156.871      0.000      0.000       -999.25      0.000      0.000    -999.25    -999.25    -999.25
 2278.2276      8.766       -999.25      8.256     13.602    119.704     42.000    121.000   3964.057   3007.813    163.401      0.000      0.000       -999.25      0.000      0.000    -999.25    -999.25    -999.25
 2278.3800      8.885       -999.25      8.950     11.473    118.778     24.000    114.000   3848.996   2929.688    150.827      0.000      0.000       -999.25      0.000      0.000    -999.25    -999.25    -999.25
 2278.5324      8.853       -999.25      9.003     13.168    119.217     36.000    117.000   3926.345   2890.625    151.663      0.000      0.000       -999.25      0.000     16.000    -999.25    -999.25    -999.25
 2278.6848      8.748       -999.25      9.223     11.746    119.366     27.000    120.000   3772.342   2968.750    149.115      0.000      0.000       -999.25      0.000      0.000    -999.25    -999.25    -999.25
 2278.8372      8.602       -999.25      9.052     13.594    119.561     42.000    121.000   3824.128   2890.625    156.867      0.000      0.000       -999.25      0.000      0.000    -999.25    -999.25    -999.25
 2278.9896      8.536       -999.25      8.989     11.963    119.500     45.000    117.000   4004.993   3007.813    166.011      0.000      0.000       -999.25      0.000      0.000    -999.25    -999.25    -999.25
 2279.1420      8.707       -999.25      8.784     13.561    119.178     24.000    116.000   4004.993   3007.813    165.774      0.000      0.000       -999.25      0.000      0.000    -999.25    -999.25    -999.25
 2279.2944      8.838       -999.25      9.145     12.333    119.563     36.000    119.000   4004.993   3007.813    165.934      0.000      0.000       -999.25      0.000      0.000    -999.25    -999.25    -999.25
 2279.4468      9.057       -999.25      9.284     12.600    118.966     48.000    118.000   4004.993   3007.813    165.714      0.000      0.000       -999.25      0.000      0.000    -999.25    -999.25    -999.25
 2279.5992      9.067       -999.25      8.768     13.062    119.554     42.000    120.000   4004.993   3007.813    165.916      0.000      0.000       -999.25      0.000      0.000    -999.25    -999.25    -999.25
 2279.7516      8.949       -999.25      8.843     12.095    119.504     36.000    116.000   4004.993   3007.813    165.543      0.000      0.000       -999.25      0.000      0.000    -999.25    -999.25    -999.25
 2279.9040      8.732       -999.25      8.568     13.636    119.694     36.000    117.000   4026.184   3125.000    166.447      0.000      0.000       -999.25      0.000     16.000    -999.25    -999.25    -999.25
 2280.0564      8.684       -999.25      8.500     12.326    119.295     45.000    116.000   4138.493   3125.000    174.672      0.000      0.000       -999.25      0.000      0.000    -999.25    -999.25    -999.25
 2280.2088      8.656       -999.25      8.765     12.441    119.617     27.000    114.000   4138.493   3125.000    174.392      0.000      0.000       -999.25      0.000      0.000    -999.25    -999.25    -999.25
 2280.3612      8.584       -999.25      9.417     12.951    119.550     48.000    117.000   4119.678   3125.000    173.177      0.000      0.000       -999.25      0.000     24.000    -999.25    -999.25    -999.25
 2280.5136      7.907       -999.25      9.151     12.206    119.241     54.000    114.000   4071.743   3085.938    170.189      0.000      0.000       -999.25      0.000      0.000    -999.25    -999.25    -999.25
 2280.6660      7.593       -999.25      9.636     12.492    119.766     30.000    120.000   4071.743   3085.938    170.273      0.000      0.000       -999.25      0.000      0.000    -999.25    -999.25    -999.25
 2280.8184      7.285       -999.25      9.452     12.729    119.532     45.000    118.000   4071.743   3085.938    169.926      0.000      0.000       -999.25      0.000     16.000    -999.25    -999.25    -999.25
 2280.9708      5.826       -999.25      3.427      9.830    119.320     42.000    122.000   4071.743   3085.938    169.455      0.000      0.000       -999.25      0.000     24.000    -999.25    -999.25    -999.25
 2281.1232      6.220       -999.25      9.363      7.318    120.000    -999.25    -999.25   4071.743    -999.25    170.345    -999.25    -999.25       -999.25    -999.25    -999.25    -999.25    -999.25    -999.25
 2281.2756      6.708       -999.25     13.471      7.318    120.000    -999.25    -999.25   4071.743    -999.25    170.345    -999.25    -999.25       -999.25    -999.25    -999.25    -999.25    -999.25    -999.25
 2281.4280      7.361       -999.25     17.292      7.318    120.000    -999.25    -999.25   4071.743    -999.25    170.345    -999.25    -999.25       -999.25    -999.25    -999.25    -999.25    -999.25    -999.25
 2281.5804      8.143       -999.25     21.358      7.318    120.000    -999.25    -999.25   4071.743    -999.25    170.345    -999.25    -999.25       -999.25    -999.25    -999.25    -999.25    -999.25    -999.25
