~Version Information
VERS.             2.0 : CWLS log ASCII standard - Version 2.0
WRAP.             NO  : One line per depth step
#
~Well Information Block
#MNEM.UNIT                   Data Type:Information
#__________________________________________________________
 STRT .M           2778.09960  :START INDEX                  
  STOP.M           3749.9544 : STOP INDEX                    
  STEP.M              0.1524 : STEP                          
  NULL.              -999.25 : NULL VALUE                    
  COMP.           StatoilHydro : COMPANY                       
  WELL.            15/9-F-14 : WELL                          
   FLD.                Volve : FIELD                         
   LOC.            North Sea : LOCATION                      
  PROV.                      : PROVINCE                      
  CNTY.                      : COUNTY                        
  STAT.                      : STATE                         
  CTRY.               Norway : COUNTRY                       
  SRVC.              SLB D&M : SERVICE COMPANY               
  DATE.                      : LOG DATE                      
   UWI.                      : UNIQUE WELL ID                
   API.                      : API NUMBER                    
#
~Curve Information Block
#MNEM.UNIT                     : Curve Description
#---------                     --------------------
DEPT        .M                 : Bit Depth 2hz                                                   
ROP5        .M/HR              : 5ft ROP 2hz                                                     
GRMA_ECO_RT .GAPI              : Gamma Ray, Average, Real-Time                                   
Stick_RT    .RPM               : MWD PKtoPK RPM 2hz                                              
SWOB        .KKGF              : Surface Weight on Bit 2hz                                       
SHKRSK_RT   .----              : MWD SHKRSK 2hz                                                  
SHKPK_RT    .G                 : MWD SHK_PK 2hz                                                  
RPM         .RPM               : SRF SRPM 2hz                                                    
TRPM_RT     .RPM               : MWD TUR_RPM 2hz                                                 
CRPM_RT     .RPM               : MWD CRPM 2hz                                                    
TFLO        .LPM               : HSPM Total Pump Flow 2hz                                        
DHAT        .DEGC              : Downhole Annulus Temperature                                    
DHAP        .BAR               : Downhole Annulus Pressure                                       
TQA         .KMN               : SRF STOR 2hz                                                    
ECD         .G/C3              : Equivalent Circulating Density                                  
SPPA        .BAR               : SRF PUMPRS 2hz                                                  
SPM1        .----              : SRF SPM1 2hz                                                    
SPM2        .----              : SRF SPM2 2hz                                                    
SPM3        .----              : SRF SPM3 2hz                                                    
#
~Parameter Information Block
#MNEM.UNIT                       Value:Description
#__________________________________________________________
#
~Other Information Block

#
~A    DEPT       ROP5 GRMA_ECO_RT   Stick_RT       SWOB  SHKRSK_RT   SHKPK_RT        RPM    TRPM_RT    CRPM_RT       TFLO       DHAT       DHAP        TQA        ECD       SPPA       SPM1       SPM2       SPM3
# ...
 2843.4792      17.04       25.80    -999.25      11.16       0.00       0.00     139.30    -999.25    -999.25    2000.25      66.00     382.18      14.85       1.41     169.01       0.00      45.00      45.00
 2843.6316      17.20       26.53      15.00      11.10    -999.25    -999.25     139.16    2812.50     136.00    2000.25      66.00     382.66      15.22       1.41     168.80       0.00      45.00      45.00
 2843.7840      17.21       22.47    -999.25      10.93       0.00       0.00     139.47    -999.25    -999.25    2000.25      66.00     382.73      14.99       1.41     169.06       0.00      45.00      45.00
 2843.9364      17.24     -999.25      63.00      11.60    -999.25    -999.25     140.00    -999.25    -999.25    2000.25      66.00     382.97      14.41       1.41     168.46       0.00      45.00      45.00
 2844.0888      17.26       21.19    -999.25      11.41    -999.25    -999.25     139.24    2812.50     140.00    2000.25      66.00     382.83      14.57       1.41     168.36       0.00      45.00      45.00
 2844.2412      16.93       22.47      72.00      10.53       0.00       0.00     139.73    -999.25    -999.25    2000.25      66.00     382.93      14.37       1.41     168.54       0.00      45.00      45.00
 2844.3936      16.89     -999.25    -999.25      11.48    -999.25    -999.25     139.32    2812.50     145.00    2000.25      66.00     382.80      14.62       1.41     168.86       0.00      45.00      45.00
 2844.5460      16.96       18.87    -999.25      11.40       0.00       0.00     139.37    -999.25    -999.25    2000.25      66.00     382.52      14.17       1.41     168.83       0.00      45.00      45.00
 2844.6984      16.73       16.33      72.00      11.18    -999.25    -999.25     139.24    2812.50     139.00    2000.25      66.00     382.80      14.34       1.41     169.14       0.00      45.00      45.00
 2844.8508      16.54       18.71    -999.25      11.01       0.00       0.00     139.26    -999.25    -999.25    2000.25      67.00     383.00      13.67       1.41     168.82       0.00      45.00      45.00
 2845.0032      16.27     -999.25      60.00      10.90    -999.25    -999.25     139.25    2812.50    -999.25    2000.25      67.00     383.83      13.94       1.41     168.81       0.00      45.00      45.00
 2845.1556      16.04       17.52    -999.25      10.97       0.00       0.00     139.23    -999.25     138.00    2000.25      67.00     383.66      14.13       1.41     168.63       0.00      45.00      45.00
 2845.3080      15.81       18.71      39.00      11.22    -999.25    -999.25     140.00    -999.25    -999.25    2000.25      67.00     383.21      13.95       1.41     168.52       0.00      45.00      45.00
 2845.4604      15.67       25.15    -999.25      11.23    -999.25    -999.25     139.26    2812.50     141.00    2000.25      67.00     383.69      13.99       1.41     168.28       0.00      45.00      45.00
 2845.6128      15.63     -999.25    -999.25      10.68       0.00       0.00     139.00    -999.25    -999.25    2000.25      67.00     384.18      14.02       1.41     168.54       0.00      45.00      45.00
 2845.7652      15.66       25.15      66.00      11.06    -999.25    -999.25     139.51    2812.50     141.00    2000.25      67.00     383.56      13.94       1.41     168.56       0.00      45.00      45.00
 2845.9176      15.51       25.15    -999.25      10.68       0.00       0.00     140.00    -999.25    -999.25    2000.25      67.00     383.90      14.62       1.41     168.44       0.00      45.00      45.00
 2846.0700      15.58       19.93      60.00      10.83    -999.25    -999.25     139.18    2812.50    -999.25    2000.25      67.00     385.07      14.46       1.42     168.57       0.00      45.00      45.00
 2846.2224      15.66     -999.25    -999.25      10.79       0.00       0.00     139.63    -999.25     137.00    2000.25      67.00     384.24      14.03       1.41     168.40       0.00      45.00      45.00
 2846.3748      15.59       22.47      75.00      10.70    -999.25    -999.25     138.64    2812.50    -999.25    2000.25      67.00     384.04      14.14       1.41     167.76       0.00      45.00      45.00
 2846.5272      15.48       18.87    -999.25      11.21       0.00       0.00     139.31    -999.25     139.00    2000.25      67.00     385.00      14.06       1.42     167.40       0.00      45.00      45.00
 2846.6796      15.42     -999.25     117.00      10.77    -999.25    -999.25     139.93    -999.25    -999.25    2000.25      67.00     385.11      13.80       1.42     167.32       0.00      45.00      45.00
 2846.8320      15.33       12.76    -999.25      11.04    -999.25    -999.25     139.50    2812.50     144.00    2000.25      68.00     385.14      14.20       1.42     167.13       0.00      45.00      45.00
 2846.9844      15.17       16.36     234.00      11.37       0.00       0.00     138.97    -999.25    -999.25    2000.25      68.00     385.35      14.16       1.42     165.53       0.00      45.00      45.00
 2847.1368      15.03       15.24    -999.25      11.30    -999.25    -999.25     138.72    2851.56     100.00    2000.25      68.00     385.07      13.40       1.42     163.99       0.00      45.00      45.00
 2847.2892      11.09     -999.25      24.00       7.49       0.00       0.00     139.45    2812.50     141.00    2000.25      68.00     385.55      10.52       1.42     166.58       0.00      45.00      45.00
 2847.4416      10.12       13.92      15.00       7.66       0.00       0.00     139.64    2812.50     138.00    2000.25      68.00     384.73      10.52       1.41     166.84       0.00      45.00      45.00
 2847.5940       9.49       15.11      33.00       8.48    -999.25    -999.25     139.61    2812.50     142.00    2000.25      68.00     386.38      11.47       1.42     166.79       0.00      45.00      45.00
 2847.7464       9.16       16.33      33.00       9.01       0.00       0.00     140.00    2812.50    -999.25    2000.25      68.00     385.83      11.38       1.42     166.90       0.00      45.00      45.00
 2847.8988       9.06     -999.25    -999.25       9.80       0.00       0.00     139.39    -999.25     140.00    2000.25      68.00     385.55      11.79       1.42     167.03       0.00      45.00      45.00
 2848.0512       9.10       16.33      24.00      10.52    -999.25    -999.25     139.46    2812.50    -999.25    2000.25      68.00     386.59      12.96       1.42     167.27       0.00      45.00      45.00
 2848.2036       9.15       20.19    -999.25      10.40    -999.25    -999.25     139.31    -999.25     142.00    2000.25      68.00     386.73      13.48       1.42     167.09       0.00      45.00      45.00
 2848.3560       9.24       21.55    -999.25      11.06       0.00       0.00     139.14    -999.25    -999.25    2000.25      68.00     386.52      13.98       1.42     167.37       0.00      45.00      45.00
 2848.5084       9.31     -999.25      72.00      10.95    -999.25    -999.25     139.34    2812.50     138.00    2000.25      68.00     386.52      13.70       1.42     167.58       0.00      45.00      45.00
 2848.6608       9.39       13.92    -999.25      11.27       0.00       0.00     139.84    -999.25    -999.25    2000.25      68.00     386.31      14.13       1.42     167.56       0.00      45.00      45.00
 2848.8132      12.08       20.19      27.00      11.42    -999.25    -999.25     139.29    2812.50     137.00    2000.25      68.00     387.21      13.50       1.42     167.01       0.00      45.00      45.00
 2848.9656      13.45       16.33    -999.25      11.21       0.00       0.00     139.00    -999.25    -999.25    2000.25      68.00     386.24      13.68       1.42     166.89       0.00      45.00      45.00
 2849.1180      14.57       20.19      24.00      11.43    -999.25    -999.25     139.36    2812.50    -999.25    2000.25      68.00     386.80      13.42       1.42     166.93       0.00      45.00      45.00
 2849.2704      15.34     -999.25    -999.25      11.26       0.00       0.00     139.41    -999.25     137.00    2000.25      68.00     385.90      13.68       1.42     166.95       0.00      45.00      45.00
