~Version Information
 VERS.             2.0 : CWLS log ASCII standard - Version 2.0
 WRAP.             NO  : One line per depth step
 #
 ~Well Information Block
 #MNEM.UNIT                   Data Type:Information
 #__________________________________________________________
 STRT  .M           1050.03600  :START INDEX                  
   2281.M           2281.5804 : STOP INDEX                    
 STEP  .M              0.15240  :STEP                         
 NULL  .              -999.25000  :NULL VALUE                 
   COMP.           StatoilHydro : COMPANY                       
   WELL.            15/9-F-14 : WELL                          
    FLD.                Volve : FIELD                         
    LOC.           Norwegian North Sea : LOCATION                      
   PROV.                      : PROVINCE                      
   CNTY.                      : COUNTY                        
   STAT.                      : STATE                         
   CTRY.               Norway : COUNTRY                       
   SRVC.           Schlumberger : SERVICE COMPANY               
   DATE.            14-May-08 : LOG DATE                      
    UWI.                      : UNIQUE WELL ID                
    API.                      : API NUMBER                    
 #
 STOP  .M      2281.58040     :STOP Depth
 ~Curve Information Block
 #MNEM.UNIT                     : Curve Description
 #---------                     --------------------
 DEPT        .M                 :Bit Depth 2hz                                                    
 ROP5        .M/HR              : 5ft ROP 2hz                                                     
 ARC_GR_UNC_RT.GAPI              : ARC Raw Gamma Ray, Real-Time                                    
 SWOB        .KKGF              : Surface Weight on Bit 2hz                                       
 TQA         .KMN               : SRF STOR 2hz                                                    
 RPM         .RPM               : SRF SRPM 2hz                                                    
 Stick_RT    .RPM               : MWD PKtoPK RPM 2hz                                              
 CRPM_RT     .RPM               : MWD CRPM 2hz                                                    
 TFLO        .LPM               : HSPM Total Pump Flow 2hz                                        
 TRPM_RT     .RPM               : MWD TUR_RPM 2hz                                                 
 SPPA        .BAR               : SRF PUMPRS 2hz                                                  
 SHKRSK_RT   .----              : MWD SHKRSK 2hz                                                  
 SHK2_RT     .----              : ARC Shock Level, Real-Time                                      
 SHK_ISONIC_RT.----              : Isonic Shock, Real-Time                                         
 PDSHKRSK    .----              : PowerDrive Shock Risk 2hz                                       
 SHKPK_RT    .G                 : MWD SHK_PK 2hz                                                  
 ECD_ARC     .SG                : Equivalent Circulating Density                                  
 APRS_ARC    .BAR               : ARC Annular Pressure                                            
 ATMP        .DEGC              : ARC Annular Temperature                                         
 #
 ~Parameter Information Block
 #MNEM.UNIT                       Value:Description
 #__________________________________________________________
 #
 ~Other Information Block
 
 #
 ~A    DEPT       ROP5 ARC_GR_UNC_RT       SWOB        TQA        RPM   Stick_RT    CRPM_RT       TFLO    TRPM_RT       SPPA  SHKRSK_RT    SHK2_RT SHK_ISONIC_RT   PDSHKRSK   SHKPK_RT    ECD_ARC   APRS_ARC       ATMP
 1050.0360    -999.25        12.250    -23.575     16.163     59.644    222.000     37.000   3058.631   1967.076     67.086      0.000      0.000         0.000      0.000     24.000    -999.25    -999.25    -999.25
 1050.1884    -999.25        10.563    -22.057      6.511     59.000    -999.25    -999.25   3100.995   2031.250     73.802    -999.25      0.000         0.000      2.000    -999.25    -999.25    -999.25    -999.25
 1050.3408     14.548         8.266    -18.639     11.930     59.320     99.000     45.000   3100.995   2031.250     73.615      0.000      0.000         0.000      2.000     24.000    -999.25    -999.25    -999.25
 1050.4932      1.062         9.000    -16.902      8.528     60.951    321.000     54.000   3100.995   2011.719     73.745      0.000      0.000         0.000      0.000     16.000    -999.25    -999.25    -999.25
 1050.6456      0.318         9.000    -22.047      8.493     69.566    156.000     71.000   3100.995   1953.956     74.405      0.000      0.000         0.000      0.000     16.000    -999.25    -999.25    -999.25
 1050.7980      0.426         8.266    -24.093      6.977     69.471    159.000     65.000   3100.995   1953.125     74.753      0.000      0.000         0.000      0.000     16.000    -999.25    -999.25    -999.25
 1050.9504      6.948        13.141    -24.038      3.686     69.685    129.000     66.000   3100.995    -999.25     74.681      0.000      0.000         0.000    -999.25     32.000    -999.25    -999.25    -999.25
 1051.1028     12.952        13.141    -24.047      4.324     69.237     78.000    -999.25   3100.995   1953.125     75.261      0.000      0.000         0.000      0.000     16.000    -999.25    -999.25    -999.25
 1051.2552     13.685        13.141    -23.313      5.691     69.050     66.000    -999.25   3100.995   1914.063     74.836    -999.25      0.000         0.000      0.000    -999.25    -999.25    -999.25    -999.25
 1051.4076     13.666        10.563    -22.718      7.838     69.704    150.000     68.000   3100.995   1914.063     74.664      0.000      0.000         0.000      0.000     32.000    -999.25    -999.25    -999.25
 1051.5600     11.509        10.563    -22.575      6.825     69.664    249.000     74.000   3100.995   1914.063     73.964      0.000      0.000         0.000      0.000      0.000    -999.25    -999.25    -999.25
 1051.7124      1.413        11.391    -22.048      5.903     69.545    276.000     71.000   3100.995   1914.063     73.103      0.000      0.000         0.000      0.000     16.000    -999.25    -999.25    -999.25
 1051.8648      1.407        10.563    -21.340      7.017     69.764    258.000     65.000   3100.995   1914.063     72.554    -999.25      0.000         0.000      0.000    -999.25    -999.25    -999.25    -999.25
 1052.0172      1.854        10.563    -21.206      6.343     69.536    162.000     71.000   3100.995   1953.125     74.498      0.000      0.000       -999.25      0.000     16.000    -999.25    -999.25    -999.25
 1052.1696      9.917        12.250    -20.960      6.112     69.527    168.000     72.000   3100.995   1914.063     74.149      0.000      0.000       -999.25      0.000      0.000    -999.25    -999.25    -999.25
 1052.3220     11.082        10.563    -20.062      5.491     69.609    129.000     58.000   3100.995   2070.313     66.604      0.000      0.000       -999.25      0.000     16.000    -999.25    -999.25    -999.25
 1052.4744      8.724         9.766    -21.544      5.598     69.756    144.000     66.000   3100.995   1914.063     70.616      0.000      0.000         0.000      2.000     24.000    -999.25    -999.25    -999.25
 1052.6268      8.226         9.000    -20.802      8.974     69.981    180.000     61.000   3100.995   1933.594     74.285      0.000      0.000       -999.25      2.000     64.000    -999.25    -999.25    -999.25
 1052.7792      7.125        15.016    -23.322    -10.415     68.899    252.000     68.000   3100.995   1940.104     74.407      0.000      0.000       -999.25      0.000      0.000    -999.25    -999.25    -999.25
 1052.9316      6.721        11.391    -22.580      5.549     69.850    132.000     65.000   3100.995   1953.125     74.340      0.000      0.000       -999.25      0.000     24.000    -999.25    -999.25    -999.25
 1053.0840      6.671        12.250    -21.278      5.232     70.000     63.000     70.000   3100.995   1953.125     74.270      0.000      0.000       -999.25      0.000      0.000    -999.25    -999.25    -999.25
 1053.2364      6.710        14.063    -21.300      5.267     69.190    177.000     72.000   3100.995   1953.125     74.256      0.000      0.000         0.000      0.000      0.000    -999.25    -999.25    -999.25
 1053.3888      6.782        12.250    -20.685      5.404     69.226     78.000     67.000   3100.995    -999.25     74.005      0.000    -999.25         0.000    -999.25     16.000    -999.25    -999.25    -999.25
 1053.5412      6.854        12.250    -20.111      6.536     69.880     93.000     70.000   3100.995   1953.125     74.128      0.000      0.000       -999.25      0.000      0.000    -999.25    -999.25    -999.25
 1053.6936      6.929         9.000      3.848      6.735     69.699     51.000     66.000   3100.995   1953.125     73.907      0.000      0.000         0.000      0.000      0.000    -999.25    -999.25    -999.25
 1053.8460      7.006        10.563      4.572      6.698     69.430    240.000     69.000   3100.995   1953.125     73.816      0.000      0.000       -999.25      0.000      0.000    -999.25    -999.25    -999.25
 1053.9984      8.429        15.016      4.821      6.883     69.283    273.000     66.000   3100.995   1953.125     74.312      0.000      0.000       -999.25      0.000     24.000    -999.25    -999.25    -999.25
 1054.1508      8.718        13.141      4.186      8.463     69.142    381.000     46.000   3100.995   1914.063     74.195      0.000      0.000         0.000      0.000     16.000    -999.25    -999.25    -999.25
 1054.3032     10.015        11.391      4.180      7.656     69.331    357.000     75.000   3100.995   1933.594     74.221      0.000      0.000       -999.25      0.000     16.000    -999.25    -999.25    -999.25
 1054.4556     10.488         9.766      4.123      7.465     69.594    222.000     93.000   3100.995   1953.125     74.650      0.000      0.000         0.000      0.000     16.000    -999.25    -999.25    -999.25
 1054.6080     10.475        10.563      4.348      7.604     69.573    186.000     57.000   3100.995   1914.063     74.906      0.000      0.000       -999.25      0.000     16.000    -999.25    -999.25    -999.25
 1054.7604     10.245        12.250      4.411      8.586     69.806    165.000     61.000   3100.995   1953.125     74.909      0.000      0.000         0.000      0.000     16.000    -999.25    -999.25    -999.25
 1054.9128      9.958        12.250      4.768      8.990     69.613    213.000     48.000   3100.995   1953.125     74.614      0.000      0.000         0.000      0.000     24.000    -999.25    -999.25    -999.25
 1055.0652      9.601        11.391      4.509      8.720     69.331    270.000     93.000   3100.995   1953.125     74.350      0.000      0.000         0.000      0.000     16.000    -999.25    -999.25    -999.25
 1055.2176      9.211         9.000      3.912      8.329     69.440    168.000     68.000   3100.995   1953.125     74.175      0.000      0.000         0.000      0.000      0.000    -999.25    -999.25    -999.25
 1055.3700      8.849        13.141      3.665      8.603     69.972    129.000     68.000   3100.995   1933.594     73.955      0.000      0.000       -999.25      0.000      0.000    -999.25    -999.25    -999.25
 1055.5224      8.515         7.563      3.523      6.808     70.000     87.000     66.000   3100.995   1914.063     74.069      0.000      0.000         0.000      0.000      0.000    -999.25    -999.25    -999.25
 1055.6748      8.332        12.250      3.490      6.754     68.922     75.000     88.000   3100.995   1914.063     73.936      0.000      0.000         0.000      0.000      0.000    -999.25    -999.25    -999.25
