~Version Information
 VERS.             2.0 : CWLS log ASCII standard - Version 2.0
 WRAP.             NO  : One line per depth step
 #
 ~Well Information Block
 #MNEM.UNIT                   Data Type:Information
 #__________________________________________________________
 STRT  .M           1050.03600  :START INDEX                  
   2281.M           2281.5804 : STOP INDEX                    
 STEP  .M              0.15240  :STEP                         
 NULL  .              -999.25000  :NULL VALUE                 
   COMP.           StatoilHydro : COMPANY                       
   WELL.            15/9-F-14 : WELL                          
    FLD.                Volve : FIELD                         
    LOC.           Norwegian North Sea : LOCATION                      
   PROV.                      : PROVINCE                      
   CNTY.                      : COUNTY                        
   STAT.                      : STATE                         
   CTRY.               Norway : COUNTRY                       
   SRVC.           Schlumberger : SERVICE COMPANY               
   DATE.            14-May-08 : LOG DATE                      
    UWI.                      : UNIQUE WELL ID                
    API.                      : API NUMBER                    
 #
 STOP  .M      2281.58040     :STOP Depth
 ~Curve Information Block
 #MNEM.UNIT                     : Curve Description
 #---------                     --------------------
 DEPT        .M                 :Bit Depth 2hz                                                    
 ROP5        .M/HR              : 5ft ROP 2hz                                                     
 ARC_GR_UNC_RT.GAPI              : ARC Raw Gamma Ray, Real-Time                                    
 SWOB        .KKGF              : Surface Weight on Bit 2hz                                       
 TQA         .KMN               : SRF STOR 2hz                                                    
 RPM         .RPM               : SRF SRPM 2hz                                                    
 Stick_RT    .RPM               : MWD PKtoPK RPM 2hz                                              
 CRPM_RT     .RPM               : MWD CRPM 2hz                                                    
 TFLO        .LPM               : HSPM Total Pump Flow 2hz                                        
 TRPM_RT     .RPM               : MWD TUR_RPM 2hz                                                 
 SPPA        .BAR               : SRF PUMPRS 2hz                                                  
 SHKRSK_RT   .----              : MWD SHKRSK 2hz                                                  
 SHK2_RT     .----              : ARC Shock Level, Real-Time                                      
 SHK_ISONIC_RT.----              : Isonic Shock, Real-Time                                         
 PDSHKRSK    .----              : PowerDrive Shock Risk 2hz                                       
 SHKPK_RT    .G                 : MWD SHK_PK 2hz                                                  
 ECD_ARC     .SG                : Equivalent Circulating Density                                  
 APRS_ARC    .BAR               : ARC Annular Pressure                                            
 ATMP        .DEGC              : ARC Annular Temperature                                         
 #
 ~Parameter Information Block
 #MNEM.UNIT                       Value:Description
 #__________________________________________________________
 #
 ~Other Information Block
 
 #
 ~A    DEPT       ROP5 ARC_GR_UNC_RT       SWOB        TQA        RPM   Stick_RT    CRPM_RT       TFLO    TRPM_RT       SPPA  SHKRSK_RT    SHK2_RT SHK_ISONIC_RT   PDSHKRSK   SHKPK_RT    ECD_ARC   APRS_ARC       ATMP
# ...
 1461.2112     10.085       156.250      3.277      6.723    159.771      3.000    157.000   3493.294   2500.000    109.014      0.000      0.000       -999.25      0.000     24.000      1.279    182.918     41.000
 1461.3636     10.084       159.391      3.143      6.591    159.679      6.000    157.000   3493.294   2539.063    108.605      0.000      0.000         0.000      0.000     24.000      1.279    182.918     41.000
 1461.5160     10.085       159.391      3.250      6.598    159.587      3.000    158.000   3493.294   2539.063    107.836      0.000      0.000       -999.25      0.000     24.000      1.279    182.918     41.000
 1461.6684     10.083       147.016      3.115      6.377    159.752      3.000    157.000   3493.294   2539.063    108.215      0.000      0.000         0.000      0.000     24.000      1.279    182.987     41.000
 1461.8208     10.062       141.016      3.186      6.417    159.784      3.000    157.000   3493.294   2539.063    108.644      0.000      0.000         0.000      0.000     24.000      1.279    182.987     41.000
 1461.9732     10.022       159.391      3.528      6.282    159.292      3.000    157.000   3493.294   2539.063    108.977      0.000      0.000         0.000      0.000     24.000      1.279    182.987     41.000
 1462.1256      9.981       144.000      3.425      6.400    159.009      3.000    158.000   3493.294   2539.063    109.024      0.000      0.000         0.000      0.000     32.000      1.279    182.987     41.000
 1462.2780      9.937       156.250      3.443      6.289    159.708      6.000    157.000   3493.294   2539.063    109.170      0.000      0.000         0.000      0.000     32.000      1.278    182.918     41.000
 1462.4304      9.930       144.000      3.960      6.258    159.855      6.000    157.000   3493.294   2539.063    109.209      0.000      0.000       -999.25      0.000     32.000      1.278    182.987     41.000
 1462.5828      9.924       141.016      3.560      6.567    159.633      9.000    157.000   3493.294   2539.063    109.269      0.000      0.000         0.000      0.000     24.000      1.279    183.056     41.000
 1462.7352      9.920       147.016      3.516      6.331    159.505      9.000    157.000   3493.294   2539.063    109.147      0.000      0.000       -999.25      0.000     32.000      1.278    183.056     41.000
 1462.8876      9.915       144.000      3.268      6.338    159.400      6.000    157.000   3493.294   2539.063    109.163      0.000      0.000         0.000      0.000     32.000      1.278    183.056     41.000
 1463.0400      9.909       150.063      3.299      6.406    159.339      6.000    158.000   3493.294   2539.063    109.162      0.000      0.000         0.000      0.000     24.000      1.279    183.125     41.000
 1463.1924      9.906       144.000      2.809      6.803    159.918      9.000    157.000   3493.294   2539.063    109.202      0.000      0.000       -999.25      0.000     24.000      1.279    183.125     41.000
 1463.3448      9.923       153.141      2.696      6.377    159.743      6.000    157.000   3493.294   2539.063    109.322      0.000      0.000         0.000      0.000     16.000      1.279    183.194     41.000
 1463.4972      9.956       147.016      2.465      6.260    159.330      3.000    157.000   3493.294   2539.063    109.171      0.000      0.000       -999.25      0.000     16.000      1.279    183.194     41.000
 1463.6496     10.184       141.016      2.823      6.356    159.292      3.000    157.000   3493.294   2539.063    109.444      0.000      0.000         0.000      0.000     16.000      1.279    183.194     41.000
 1463.8020     10.771       132.250      2.801      7.005    159.545      6.000    -999.25   3493.294   2539.063    109.357    -999.25      0.000       -999.25      0.000    -999.25      1.279    183.263     41.000
 1463.9544     11.384       156.250      2.852      7.566    159.545    -999.25    157.000   3493.294    -999.25    109.315      0.000    -999.25         0.000    -999.25     24.000      1.279    183.263     41.000
 1464.1068     12.069       144.000      2.691      7.146    160.000      6.000    -999.25   3493.294   2539.063    109.190    -999.25      0.000         0.000      0.000    -999.25      1.279    183.332     41.000
 1464.2592     12.842       150.063      2.530      7.709    160.000    -999.25    157.000   3493.294   2500.000    109.563      0.000    -999.25       -999.25      0.000     24.000      1.279    183.332     41.000
 1464.4116     13.721       150.063      2.600      7.069    159.527      6.000    -999.25   3493.294    -999.25    109.667    -999.25      0.000         0.000    -999.25    -999.25      1.279    183.401     41.000
 1464.5640     14.729       138.063      2.383      7.390    159.852      3.000    157.000   3493.294   2539.063    110.014      0.000      0.000       -999.25      0.000     32.000      1.279    183.401     41.000
 1464.7164     15.896       147.016      2.614      7.596    159.636    -999.25    157.000   3493.294    -999.25    109.965      0.000    -999.25         0.000    -999.25     24.000      1.279    183.332     41.000
 1464.8688     17.262       156.250      2.542      7.526    159.836      3.000    -999.25   3493.294   2539.063    110.089    -999.25      0.000       -999.25      0.000    -999.25      1.279    183.401     41.000
 1465.0212     18.891       141.016      2.715      7.579    159.481    -999.25    157.000   3493.294    -999.25    110.142      0.000    -999.25         0.000    -999.25     24.000      1.279    183.401     41.000
 1465.1736     20.067       147.016      2.679      7.276    159.673      3.000    -999.25   3493.294   2500.000    110.006    -999.25      0.000       -999.25      0.000    -999.25      1.279    183.470     41.000
 1465.3260     20.063       165.766      2.709      7.426    159.527    -999.25    157.000   3493.294    -999.25    110.010      0.000    -999.25         0.000    -999.25      0.000      1.279    183.470     41.000
 1465.4784     20.068       138.063      2.718      7.310    159.074      3.000    -999.25   3493.294   2500.000    110.193    -999.25      0.000         0.000      0.000    -999.25      1.279    183.539     41.000
 1465.6308     20.068       150.063      2.820      7.959    158.709    -999.25    157.000   3493.294    -999.25    110.291      0.000    -999.25       -999.25    -999.25     16.000      1.280    183.607     41.000
 1465.7832     20.068       153.141      2.791      7.597    159.000      3.000    -999.25   3493.294   2500.000    110.458    -999.25      0.000         0.000      0.000    -999.25      1.279    183.470     41.000
 1465.9356     20.070       153.141      2.911      7.568    159.722    -999.25    157.000   3493.294   2500.000    110.465      0.000      0.000       -999.25      0.000     16.000      1.279    183.539     41.000
 1466.0880     20.067       138.063      3.105      7.933    160.000      3.000    157.000   3493.294    -999.25    110.299    -999.25    -999.25         0.000    -999.25    -999.25      1.279    183.539     41.000
 1466.2404     20.067       153.141      3.112      7.698    159.727      3.000    -999.25   3493.294   2539.063    110.203      0.000      0.000       -999.25      0.000     16.000      1.279    183.539     41.000
 1466.3928     20.069       147.016      3.276      6.922    159.463    -999.25    156.000   3493.294    -999.25    110.204      0.000    -999.25         0.000    -999.25     16.000      1.279    183.607     41.000
 1466.5452     20.065       156.250      3.309      7.195    159.000      3.000    -999.25   3493.294   2539.063    110.456    -999.25      0.000       -999.25      0.000    -999.25      1.279    183.607     41.000
 1466.6976     20.064       150.063      3.472      7.464    159.800    -999.25    157.000   3493.294    -999.25    110.406      0.000    -999.25         0.000    -999.25     24.000      1.279    183.607     41.000
 1466.8500     20.067       150.063      3.396      7.819    159.648      3.000    -999.25   3493.294   2500.000    110.609    -999.25      0.000         0.000      0.000    -999.25      1.279    183.676     41.000
