~Version Information
VERS.             2.0 : CWLS log ASCII standard - Version 2.0
WRAP.             NO  : One line per depth step
#
~Well Information Block
#MNEM.UNIT                   Data Type:Information
#__________________________________________________________
 STRT .M           2778.09960  :START INDEX                  
  STOP.M           3749.9544 : STOP INDEX                    
  STEP.M              0.1524 : STEP                          
  NULL.              -999.25 : NULL VALUE                    
  COMP.           StatoilHydro : COMPANY                       
  WELL.            15/9-F-14 : WELL                          
   FLD.                Volve : FIELD                         
   LOC.            North Sea : LOCATION                      
  PROV.                      : PROVINCE                      
  CNTY.                      : COUNTY                        
  STAT.                      : STATE                         
  CTRY.               Norway : COUNTRY                       
  SRVC.              SLB D&M : SERVICE COMPANY               
  DATE.                      : LOG DATE                      
   UWI.                      : UNIQUE WELL ID                
   API.                      : API NUMBER                    
#
~Curve Information Block
#MNEM.UNIT                     : Curve Description
#---------                     --------------------
DEPT        .M                 : Bit Depth 2hz                                                   
ROP5        .M/HR              : 5ft ROP 2hz                                                     
GRMA_ECO_RT .GAPI              : Gamma Ray, Average, Real-Time                                   
Stick_RT    .RPM               : MWD PKtoPK RPM 2hz                                              
SWOB        .KKGF              : Surface Weight on Bit 2hz                                       
SHKRSK_RT   .----              : MWD SHKRSK 2hz                                                  
SHKPK_RT    .G                 : MWD SHK_PK 2hz                                                  
RPM         .RPM               : SRF SRPM 2hz                                                    
TRPM_RT     .RPM               : MWD TUR_RPM 2hz                                                 
CRPM_RT     .RPM               : MWD CRPM 2hz                                                    
TFLO        .LPM               : HSPM Total Pump Flow 2hz                                        
DHAT        .DEGC              : Downhole Annulus Temperature                                    
DHAP        .BAR               : Downhole Annulus Pressure                                       
TQA         .KMN               : SRF STOR 2hz                                                    
ECD         .G/C3              : Equivalent Circulating Density                                  
SPPA        .BAR               : SRF PUMPRS 2hz                                                  
SPM1        .----              : SRF SPM1 2hz                                                    
SPM2        .----              : SRF SPM2 2hz                                                    
SPM3        .----              : SRF SPM3 2hz                                                    
#
~Parameter Information Block
#MNEM.UNIT                       Value:Description
#__________________________________________________________
#
~Other Information Block

#
~A    DEPT       ROP5 GRMA_ECO_RT   Stick_RT       SWOB  SHKRSK_RT   SHKPK_RT        RPM    TRPM_RT    CRPM_RT       TFLO       DHAT       DHAP        TQA        ECD       SPPA       SPM1       SPM2       SPM3
# ...
 2908.8588       8.81       20.19    -999.25      10.26       0.00       0.00     159.05    -999.25     157.00    2067.15      73.00     402.24      11.63       1.46     182.96       0.00      48.00      45.00
 2909.0112       8.96       23.79      45.00      10.21       0.00       0.00     159.68    2929.69     154.00    2067.15      73.00     402.38      10.75       1.46     183.08       0.00      48.00      45.00
 2909.1636       9.17       22.47      57.00      10.18    -999.25    -999.25     159.24    2929.69     156.00    2067.15      73.00     401.96      10.68       1.46     182.71       0.00      48.00      45.00
 2909.3160       9.28       18.87      78.00      10.07       0.00       0.00     159.00    -999.25    -999.25    2067.15      73.00     401.86      11.30       1.46     182.49       0.00      48.00      45.00
 2909.4684       9.21       20.19    -999.25       9.61       0.00       0.00     159.57    2968.75     151.00    2067.15      73.00     402.72      11.16       1.46     182.41       0.00      48.00      45.00
 2909.6208       9.15       25.80      78.00       9.16       0.00       0.00     159.27    2929.69     159.00    2067.15      73.00     402.38      10.39       1.46     182.70       0.00      48.00      45.00
 2909.7732       9.01       25.80      30.00       9.25       0.00       0.00     159.60    2929.69     154.00    2067.15      73.00     401.76      10.83       1.46     183.46       0.00      48.00      45.00
 2909.9256       8.95       25.80      33.00       9.08    -999.25    -999.25     159.77    2929.69     155.00    2067.15      73.00     401.65      11.23       1.46     183.50       0.00      48.00      45.00
 2910.0780       9.07       24.35      30.00       9.80       0.00       0.00     159.15    -999.25    -999.25    2067.15      73.00     402.31      11.06       1.46     183.72       0.00      48.00      45.00
 2910.2304       9.13       21.55    -999.25       9.53       0.00       0.00     159.54    2968.75     155.00    2067.15      73.00     402.14      11.72       1.46     183.47       0.00      48.00      45.00
 2910.3828       9.30       24.35      90.00      10.18    -999.25    -999.25     159.53    2968.75     149.00    2067.15      73.00     402.38      11.57       1.46     182.89       0.00      48.00      45.00
 2910.5352       9.42       24.35    -999.25       9.45       0.00       0.00     159.51    -999.25    -999.25    2067.15      73.00     402.24      11.44       1.46     182.38       0.00      48.00      45.00
 2910.6876       9.36       21.55      99.00       9.27       0.00       0.00     159.86    2929.69     151.00    2067.15      73.00     401.96      11.10       1.46     182.24       0.00      48.00      45.00
 2910.8400       9.34       19.33      78.00       9.10    -999.25    -999.25     159.78    2968.75     156.00    2067.15      73.00     401.90      10.81       1.46     182.35       0.00      48.00      45.00
 2910.9924       9.49       18.87      75.00       9.40       0.00       0.00     159.32    2929.69    -999.25    2067.15      73.00     401.72      10.37       1.46     182.42       0.00      48.00      45.00
 2911.1448       9.66       20.19      93.00       9.19       0.00       0.00     159.78    -999.25     162.00    2067.15      73.00     402.10      10.33       1.46     182.79       0.00      48.00      45.00
 2911.2972       9.68       25.15    -999.25       9.37       0.00       0.00     159.41    2929.69     158.00    2067.15      73.00     402.38      11.15       1.46     182.57       0.00      48.00      45.00
 2911.4496       9.62       25.15      81.00       9.36       0.00       0.00     158.69    2929.69     156.00    2067.15      73.00     403.00      11.09       1.46     182.78       0.00      48.00      45.00
 2911.6020       9.52       25.15      78.00       6.41    -999.25    -999.25     159.52    2929.69     159.00    2067.15      73.00     402.59      11.05       1.46     182.65       0.00      48.00      45.00
 2911.7544       9.47       25.15      87.00       5.98       0.00       0.00     159.42    -999.25    -999.25    2067.15      73.00     401.76      11.39       1.46     182.67       0.00      48.00      45.00
 2911.9068       9.24       21.55    -999.25       5.31       0.00       0.00     159.40    2968.75     146.00    2067.15      73.00     402.24      11.93       1.46     182.07       0.00      48.00      45.00
 2912.0592       9.11       27.95     114.00       6.08    -999.25    -999.25     159.22    2968.75     157.00    2067.15      73.00     402.59      11.19       1.46     182.47       0.00      48.00      45.00
 2912.2116       9.07       26.53      69.00       5.62       0.00       0.00     159.40    2929.69     163.00    2067.15      73.00     401.96      10.44       1.46     182.77       0.00      48.00      45.00
 2912.3640       9.15       25.15     105.00       5.93       0.00       0.00     159.53    -999.25    -999.25    2067.15      73.00     402.24      11.01       1.46     182.54       0.00      48.00      45.00
 2912.5164       9.02       21.55    -999.25       6.59       0.00       0.00     160.00    2929.69     161.00    2067.15      73.00     402.24      10.76       1.46     182.80       0.00      48.00      45.00
 2912.6688       8.87       17.59      75.00       6.07       0.00       0.00     159.18    2968.75     163.00    2067.15      73.00     401.83      10.95       1.46     182.82       0.00      48.00      45.00
 2912.8212       8.81       21.55      93.00       6.30       0.00       0.00     159.67    2968.75     156.00    2067.15      73.00     401.62      10.69       1.45     182.41       0.00      48.00      45.00
 2912.9736       8.77       18.87      96.00       5.24    -999.25    -999.25     159.18    2968.75     162.00    2067.15      73.00     402.45      11.19       1.46     182.60       0.00      48.00      45.00
 2913.1260       8.82       25.80      78.00       5.44       0.00       0.00     159.64    2968.75    -999.25    2067.15      73.00     402.52      11.34       1.46     182.65       0.00      48.00      45.00
 2913.2784       8.69       25.80    -999.25       6.20       0.00       0.00     159.66    -999.25     161.00    2067.15      73.00     402.03      10.84       1.46     182.40       0.00      48.00      45.00
 2913.4308       8.69       28.80      72.00       4.95       0.00       0.00     159.45    2929.69     156.00    2067.15      73.00     402.17      10.94       1.46     182.10       0.00      48.00      45.00
 2913.5832       8.92       28.80      99.00       5.23    -999.25    -999.25     159.77    2929.69    -999.25    2067.15      73.00     402.24      10.72       1.46     182.54       0.00      48.00      45.00
 2913.7356       9.09       28.80    -999.25       5.48       0.00       0.00     159.74    -999.25     158.00    2067.15      73.00     402.65      11.16       1.46     182.62       0.00      48.00      45.00
 2913.8880       9.05       32.40      69.00       5.71       0.00       0.00     159.61    2968.75     158.00    2067.15      73.00     402.24      11.32       1.46     182.55       0.00      48.00      45.00
 2914.0404       9.26       45.69      78.00       4.46    -999.25    -999.25     159.22    2929.69     158.00    2067.15      73.00     402.45      11.56       1.46     182.69       0.00      48.00      45.00
 2914.1928       9.78       42.09    -999.25       4.39       0.00       0.00     159.67    -999.25    -999.25    2067.15      74.00     402.17      11.30       1.46     182.73       0.00      48.00      45.00
 2914.3452      10.35       45.74      84.00       4.43    -999.25    -999.25     159.64    2968.75     155.00    2067.15      74.00     402.45      11.55       1.46     183.05       0.00      48.00      45.00
 2914.4976      11.01       47.50    -999.25       4.90       0.00       0.00     159.62    -999.25    -999.25    2067.15      73.00     401.96      10.74       1.46     183.39       0.00      48.00      45.00
 2914.6500      11.39       47.50      57.00       5.26    -999.25    -999.25     158.44    2968.75    -999.25    2067.15      73.00     402.93      11.10       1.46     183.30       0.00      48.00      45.00
