~Version Information
VERS.             2.0 : CWLS log ASCII standard - Version 2.0
WRAP.             NO  : One line per depth step
#
~Well Information Block
#MNEM.UNIT                   Data Type:Information
#__________________________________________________________
 STRT .M           2250.03360  :START INDEX                  
  STOP.M           2787.8532 : STOP INDEX                    
  STEP.M              0.1524 : STEP                          
  NULL.              -999.25 : NULL VALUE                    
  COMP.           StatoilHydro : COMPANY                       
  WELL.            15_9_F_14 : WELL                          
   FLD.                Volve : FIELD                         
   LOC.           Maersk Inspirer : LOCATION                      
  PROV.                      : PROVINCE                      
  CNTY.                      : COUNTY                        
  STAT.                      : STATE                         
  CTRY.                      : COUNTRY                       
  SRVC.              SLB D&M : SERVICE COMPANY               
  DATE.                      : LOG DATE                      
   UWI.                      : UNIQUE WELL ID                
   API.                      : API NUMBER                    
#
~Curve Information Block
#MNEM.UNIT                     : Curve Description
#---------                     --------------------
DEPT        .M                 : Bit Depth 2hz                                                   
ROP5        .M/HR              : 5ft ROP 2hz                                                     
ARC_GR_RT   .GAPI              : ARC Gamma Ray, Real-Time                                        
SWOB        .KKGF              : Surface Weight on Bit 2hz                                       
TQA         .KMN               : SRF STOR 2hz                                                    
Stick_RT    .RPM               : MWD PKtoPK RPM 2hz                                              
SPPA        .BAR               : SRF PUMPRS 2hz                                                  
TRPM_RT     .RPM               : MWD TUR_RPM 2hz                                                 
TFLO        .LPM               : HSPM Total Pump Flow 2hz                                        
RPM         .RPM               : SRF SRPM 2hz                                                    
CRPM_RT     .RPM               : MWD CRPM 2hz                                                    
SHKRSK_RT   .----              : MWD SHKRSK 2hz                                                  
SHK2_RT     .----              : ARC Shock Level, Real-Time                                      
ECD_ARC     .G/C3              : Equivalent Circulating Density                                  
APRS_ARC    .BAR               : ARC Annular Pressure                                            
ATMP        .DEGC              : ARC Annular Temperature                                         
SPM1        .----              : SRF SPM1 2hz                                                    
SPM2        .----              : SRF SPM2 2hz                                                    
SPM3        .----              : SRF SPM3 2hz                                                    
#
~Parameter Information Block
#MNEM.UNIT                       Value:Description
#__________________________________________________________
#
~Other Information Block

#
~A    DEPT       ROP5  ARC_GR_RT       SWOB        TQA   Stick_RT       SPPA    TRPM_RT       TFLO        RPM    CRPM_RT  SHKRSK_RT    SHK2_RT    ECD_ARC   APRS_ARC       ATMP       SPM1       SPM2       SPM3
# ...
 2743.3524     5.3121    -999.25    10.5883    11.7233    -999.25   232.2122  2617.1875  3561.2438   148.0357    -999.25     0.0000    -999.25     1.3352   352.8049    78.0000    65.0000    50.0000    45.0000
 2743.5048     5.2848    -999.25    13.3979    13.5581    -999.25   233.0474    -999.25  3561.2438   154.3684    -999.25    -999.25     1.0000     1.3362   353.0807    78.0000    65.0000    50.0000    45.0000
 2743.6572     5.2608    21.1251    14.8602    14.0821    -999.25   237.0747    -999.25  3561.2438   153.6486    -999.25    -999.25    -999.25     1.3358   353.0117    78.0000    65.0000    50.0000    45.0000
 2743.8096     5.2479    -999.25    15.5053    17.2990    -999.25   242.2255    -999.25  3561.2438   154.4063    -999.25    -999.25    -999.25     1.3350   352.8049    78.0000    65.0000    50.0000    45.0000
 2743.9620     5.2477    -999.25    16.3387    20.4396    -999.25   246.3061  2578.1250  3561.2438   154.6429    -999.25     0.0000    -999.25     1.3352   352.8738    78.0000    65.0000    50.0000    45.0000
 2744.1144     5.2475    24.9017    15.6529    21.9541    -999.25   250.6003    -999.25  3561.2438   155.0000   218.0000    -999.25    -999.25     1.3357   353.0117    78.0000    65.0000    50.0000    45.0000
 2744.2668     5.2491    -999.25    16.5363    21.9185   186.0000   253.4949    -999.25  3561.2438   155.0000    -999.25    -999.25     0.0000     1.3353   352.9428    78.0000    65.0000    50.0000    45.0000
 2744.4192     5.2726    21.1251    15.7096    26.3935    -999.25   256.0271    -999.25  3561.2438   155.0000    -999.25    -999.25    -999.25     1.3350   352.8738    78.0000    65.0000    50.0000    45.0000
 2744.5716     5.4956    -999.25    16.2368    19.7739    -999.25   255.8383  2578.1250  3561.2438   154.9286    -999.25     0.0000    -999.25     1.3360   353.1496    78.0000    65.0000    50.0000    45.0000
 2744.7240    33.4648    -999.25    16.1823    25.3227    -999.25   255.9007    -999.25  3561.2438   154.0000   211.0000    -999.25    -999.25     1.3360   353.1496    78.0000    65.0000    50.0000    45.0000
 2744.8764    36.5951    24.9017    17.4302    24.1323   243.0000   254.9503    -999.25  3561.2438   154.0000    -999.25    -999.25     0.0000     1.3364   353.2875    78.0000    65.0000    50.0000    45.0000
 2745.0288    37.9354    -999.25    17.5741    22.3632    -999.25   253.6726    -999.25  3561.2438   153.6296    -999.25    -999.25    -999.25     1.3364   353.2875    78.0000    65.0000    50.0000    45.0000
 2745.1812    39.1886    -999.25    18.4039    22.5517    -999.25   254.0644    -999.25  3561.2438   151.3571    -999.25    -999.25    -999.25     1.3358   353.1496    78.0000    65.0000    50.0000    45.0000
 2745.3336    39.8649    18.7797    18.1839    24.4870    -999.25   254.3898  2617.1875  3561.2438   151.1111    -999.25     0.0000    -999.25     1.3349   352.9428    78.0000    65.0000    50.0000    45.0000
 2745.4860    39.7948    -999.25    18.9536    24.1735    -999.25   254.7051    -999.25  3561.2438   153.0714   202.0000    -999.25     0.0000     1.3351   353.0117    78.0000    65.0000    50.0000    45.0000
 2745.6384    39.7340    -999.25    18.5271    23.6744   243.0000   254.8801    -999.25  3561.2438   153.4643    -999.25    -999.25    -999.25     1.3353   353.0807    79.0000    65.0000    50.0000    45.0000
 2745.7908    39.7048    22.3494    17.0242    24.5703    -999.25   256.7021    -999.25  3561.2438   154.2857    -999.25    -999.25    -999.25     1.3363   353.3565    79.0000    65.0000    50.0000    45.0000
 2745.9432    39.7026    -999.25    17.3322    26.6277    -999.25   259.1728  2656.2500  3561.2438   151.8519    -999.25     0.0000    -999.25     1.3368   353.4943    79.0000    65.0000    50.0000    45.0000
 2746.0956    39.7048    -999.25    16.0713    28.0044    -999.25   260.4287    -999.25  3561.2438   152.7143   164.0000    -999.25    -999.25     1.3354   353.1496    79.0000    65.0000    50.0000    45.0000
 2746.2480    39.7026    28.9887    16.1362    24.5414   252.0000   258.7505    -999.25  3561.2438   153.2963    -999.25    -999.25     0.0000     1.3356   353.2186    79.0000    65.0000    50.0000    45.0000
 2746.4004    39.7048    -999.25    15.2528    23.1776    -999.25   256.6903    -999.25  3561.2438   153.7500    -999.25    -999.25    -999.25     1.3358   353.2875    79.0000    65.0000    50.0000    45.0000
 2746.5528    39.7048    -999.25    15.8894    22.9873    -999.25   255.4921  2617.1875  3561.2438   153.3333    -999.25    -999.25    -999.25     1.3366   353.4943    79.0000    65.0000    50.0000    45.0000
 2746.7052    39.7205    21.1251    15.4932    23.7119    -999.25   254.2243    -999.25  3561.2438   155.1429    -999.25     0.0000    -999.25     1.3370   353.6322    79.0000    65.0000    50.0000    45.0000
 2746.8576    39.7430    -999.25    16.1349    23.2318   261.0000   252.1572    -999.25  3561.2438   153.0370   154.0000    -999.25     0.0000     1.3364   353.4943    79.0000    65.0000    50.0000    45.0000
 2747.0100    39.8242    -999.25    15.4552    22.6851    -999.25   252.5438    -999.25  3561.2438   154.3571    -999.25    -999.25    -999.25     1.3364   353.4943    79.0000    65.0000    50.0000    45.0000
 2747.1624    39.8739    18.7797    16.2104    22.6122    -999.25   253.8131    -999.25  3561.2438   154.2222    -999.25    -999.25    -999.25     1.3356   353.2875    79.0000    65.0000    50.0000    45.0000
 2747.3148    39.9170    -999.25    15.7565    21.5157    -999.25   253.3622  2617.1875  3561.2438   154.0000    -999.25     0.0000    -999.25     1.3358   353.3565    80.0000    65.0000    50.0000    45.0000
 2747.4672    39.9102    -999.25    16.2622    21.3867    -999.25   253.6692    -999.25  3561.2438   154.2222   141.0000    -999.25    -999.25     1.3367   353.6322    80.0000    65.0000    50.0000    45.0000
 2747.6196    39.9079    23.6083    16.0241    18.8046   264.0000   254.2720    -999.25  3561.2438   155.1429    -999.25    -999.25     0.0000     1.3364   353.5633    80.0000    65.0000    50.0000    45.0000
 2747.7720    39.9079    -999.25    16.8843    24.0873    -999.25   254.0606    -999.25  3561.2438   152.3704    -999.25    -999.25    -999.25     1.3369   353.7012    80.0000    65.0000    50.0000    45.0000
 2747.9244    39.8988    -999.25    16.4993    27.0974    -999.25   254.5904  2617.1875  3561.2438   154.2500    -999.25     0.0000    -999.25     1.3368   353.7012    80.0000    65.0000    50.0000    45.0000
 2748.0768    39.9102    27.5919    16.9652    24.0109    -999.25   255.1944    -999.25  3561.2438   154.2222    -999.25    -999.25    -999.25     1.3368   353.7012    80.0000    65.0000    50.0000    45.0000
 2748.2292    39.9034    -999.25    16.7337    21.7143   273.0000   254.5296    -999.25  3561.2438   152.9643   189.0000    -999.25     0.0000     1.3367   353.7012    80.0000    65.0000    50.0000    45.0000
 2748.3816    39.9079    -999.25    17.3382    23.4756    -999.25   254.2943    -999.25  3561.2438   155.2222    -999.25    -999.25    -999.25     1.3369   353.7701    80.0000    65.0000    50.0000    45.0000
 2748.5340    39.8988    -999.25    17.1052    22.1432    -999.25   254.8951    -999.25  3561.2438   155.4286    -999.25    -999.25    -999.25     1.3371   353.8391    80.0000    65.0000    50.0000    45.0000
 2748.6864    39.9079    18.7797    17.9638    21.4680    -999.25   255.8851  2617.1875  3561.2438   153.7037    -999.25     0.0000    -999.25     1.3376   353.9770    80.0000    65.0000    50.0000    45.0000
 2748.8388    39.8920    -999.25    18.0751    25.1186    -999.25   255.9741    -999.25  3561.2438   153.7143   211.0000    -999.25    -999.25     1.3380   354.1149    80.0000    65.0000    50.0000    45.0000
 2748.9912    39.8603    23.6083    19.1379    24.1249   234.0000   255.8510    -999.25  3561.2438   154.6071    -999.25    -999.25     0.0000     1.3385   354.2528    80.0000    65.0000    50.0000    45.0000
 2749.1436    39.5327    -999.25    19.4069    23.9757    -999.25   255.5024    -999.25  3561.2438   154.9655    -999.25    -999.25    -999.25     1.3387   354.3217    80.0000    65.0000    50.0000    45.0000
