~Version Information
 VERS.             2.0 : CWLS log ASCII standard - Version 2.0
 WRAP.             NO  : One line per depth step
 #
 ~Well Information Block
 #MNEM.UNIT                   Data Type:Information
 #__________________________________________________________
 STRT  .M           1050.03600  :START INDEX                  
   2281.M           2281.5804 : STOP INDEX                    
 STEP  .M              0.15240  :STEP                         
 NULL  .              -999.25000  :NULL VALUE                 
   COMP.           StatoilHydro : COMPANY                       
   WELL.            15/9-F-14 : WELL                          
    FLD.                Volve : FIELD                         
    LOC.           Norwegian North Sea : LOCATION                      
   PROV.                      : PROVINCE                      
   CNTY.                      : COUNTY                        
   STAT.                      : STATE                         
   CTRY.               Norway : COUNTRY                       
   SRVC.           Schlumberger : SERVICE COMPANY               
   DATE.            14-May-08 : LOG DATE                      
    UWI.                      : UNIQUE WELL ID                
    API.                      : API NUMBER                    
 #
 STOP  .M      2281.58040     :STOP Depth
 ~Curve Information Block
 #MNEM.UNIT                     : Curve Description
 #---------                     --------------------
 DEPT        .M                 :Bit Depth 2hz                                                    
 ROP5        .M/HR              : 5ft ROP 2hz                                                     
 ARC_GR_UNC_RT.GAPI              : ARC Raw Gamma Ray, Real-Time                                    
 SWOB        .KKGF              : Surface Weight on Bit 2hz                                       
 TQA         .KMN               : SRF STOR 2hz                                                    
 RPM         .RPM               : SRF SRPM 2hz                                                    
 Stick_RT    .RPM               : MWD PKtoPK RPM 2hz                                              
 CRPM_RT     .RPM               : MWD CRPM 2hz                                                    
 TFLO        .LPM               : HSPM Total Pump Flow 2hz                                        
 TRPM_RT     .RPM               : MWD TUR_RPM 2hz                                                 
 SPPA        .BAR               : SRF PUMPRS 2hz                                                  
 SHKRSK_RT   .----              : MWD SHKRSK 2hz                                                  
 SHK2_RT     .----              : ARC Shock Level, Real-Time                                      
 SHK_ISONIC_RT.----              : Isonic Shock, Real-Time                                         
 PDSHKRSK    .----              : PowerDrive Shock Risk 2hz                                       
 SHKPK_RT    .G                 : MWD SHK_PK 2hz                                                  
 ECD_ARC     .SG                : Equivalent Circulating Density                                  
 APRS_ARC    .BAR               : ARC Annular Pressure                                            
 ATMP        .DEGC              : ARC Annular Temperature                                         
 #
 ~Parameter Information Block
 #MNEM.UNIT                       Value:Description
 #__________________________________________________________
 #
 ~Other Information Block
 
 #
 ~A    DEPT       ROP5 ARC_GR_UNC_RT       SWOB        TQA        RPM   Stick_RT    CRPM_RT       TFLO    TRPM_RT       SPPA  SHKRSK_RT    SHK2_RT SHK_ISONIC_RT   PDSHKRSK   SHKPK_RT    ECD_ARC   APRS_ARC       ATMP
# ...
 1131.1128     24.586       141.016      2.150      5.744    119.600      3.000    -999.25   4205.243   3125.000    137.303    -999.25      0.000         0.000      0.000    -999.25      1.231    136.240     32.000
 1131.2652     24.573       135.141      2.008      6.083    119.200    -999.25    -999.25   4205.243    -999.25    137.324    -999.25    -999.25       -999.25    -999.25    -999.25      1.231    136.240     32.000
 1131.4176     24.593       156.250      2.167      7.464    119.400    -999.25    118.000   4205.243    -999.25    136.877      0.000    -999.25       -999.25    -999.25      0.000      1.231    136.240     32.000
 1131.5700     24.558       150.063      2.126      8.647    119.978      3.000    -999.25   4205.243   3125.000    137.021    -999.25      0.000         0.000      0.000    -999.25      1.230    136.172     32.000
 1131.7224     24.546       138.063      2.049      8.099    118.659    -999.25    118.000   4205.243    -999.25    136.853      0.000    -999.25       -999.25    -999.25      0.000      1.231    136.309     32.000
 1131.8748     24.593       141.016      2.007      6.523    119.578      3.000    -999.25   4205.243   3125.000    137.216    -999.25      0.000         0.000      0.000    -999.25      1.231    136.309     32.000
 1132.0272     24.608       -999.25      2.151      5.607    119.659    -999.25    118.000   4205.243    -999.25    137.202      0.000    -999.25       -999.25    -999.25      0.000      1.231    136.378     32.000
 1132.1796     24.598       147.016      2.248      6.379    119.000      6.000    -999.25   4205.243   3125.000    136.888    -999.25      0.000         0.000      0.000    -999.25      1.229    136.172     32.000
 1132.3320     24.601       147.016      2.043      8.049    119.000    -999.25    118.000   4205.243    -999.25    136.812      0.000    -999.25       -999.25    -999.25      0.000      1.231    136.378     32.000
 1132.4844     24.636       156.250      2.061      8.831    119.578      6.000    -999.25   4205.243   3125.000    137.104    -999.25      0.000       -999.25      0.000    -999.25      1.231    136.378     32.000
 1132.6368     24.691       159.391      1.933      8.343    119.091    -999.25    -999.25   4205.243    -999.25    137.517    -999.25    -999.25         0.000    -999.25    -999.25      1.230    136.309     32.000
 1132.7892     24.752       144.000      2.034      6.497    120.000    -999.25    118.000   4205.243    -999.25    137.443      0.000    -999.25       -999.25    -999.25      0.000      1.230    136.309     31.000
 1132.9416     24.772       150.063      1.987      5.797    120.000      3.000    -999.25   4205.243   3125.000    137.622    -999.25      0.000         0.000      0.000    -999.25      1.230    136.378     32.000
 1133.0940     24.827       150.063      2.027      7.052    119.341    -999.25    118.000   4205.243    -999.25    137.610      0.000    -999.25       -999.25    -999.25      0.000      1.231    136.516     31.000
 1133.2464     24.861       -999.25      2.017      7.905    119.000      3.000    -999.25   4205.243   3125.000    137.658    -999.25      0.000         0.000      0.000    -999.25      1.231    136.516     32.000
 1133.3988     24.878       147.016      1.926      8.529    119.568    -999.25    119.000   4205.243    -999.25    138.048      0.000    -999.25       -999.25    -999.25      0.000      1.232    136.585     31.000
 1133.5512     24.891       153.141      2.071      8.276    119.568      6.000    -999.25   4205.243   3125.000    138.006    -999.25      0.000         0.000      0.000    -999.25      1.231    136.516     31.000
 1133.7036     24.902       150.063      2.064      5.883    119.364    -999.25    118.000   4205.243    -999.25    138.254      0.000    -999.25       -999.25    -999.25      0.000      1.231    136.516     32.000
 1133.8560     24.910       156.250      2.168      5.582    120.000      3.000    -999.25   4205.243   3125.000    138.378    -999.25      0.000       -999.25      0.000    -999.25      1.231    136.585     31.000
 1134.0084     24.917       156.250      2.059      6.689    119.500    -999.25    -999.25   4205.243    -999.25    139.260    -999.25    -999.25         0.000    -999.25    -999.25      1.231    136.585     32.000
 1134.1608     24.919       141.016      2.024      8.002    119.000    -999.25    118.000   4205.243    -999.25    139.086      0.000    -999.25       -999.25    -999.25      0.000      1.231    136.585     32.000
 1134.3132     24.921       156.250      2.031      8.711    119.000      3.000    -999.25   4205.243   3125.000    139.234    -999.25      0.000         0.000      0.000    -999.25      1.231    136.585     32.000
 1134.4656     24.920       -999.25      1.862      8.264    119.000    -999.25    119.000   4205.243    -999.25    139.870      0.000    -999.25       -999.25    -999.25      0.000      1.231    136.654     32.000
 1134.6180     24.920       159.391      1.995      6.271    119.568      3.000    -999.25   4078.883   2929.688    130.791    -999.25      0.000         0.000      0.000    -999.25      1.231    136.654     32.000
 1134.7704     24.923       150.063      1.988      5.757    119.000    -999.25    118.000   3954.037    -999.25    128.092      0.000    -999.25       -999.25    -999.25      0.000      1.231    136.654     32.000
 1134.9228     24.921       144.000      1.960      6.770    119.568      3.000    -999.25   4004.993   2968.750    129.809    -999.25      0.000         0.000      0.000    -999.25      1.231    136.723     32.000
 1135.0752     24.918       156.250      1.921      7.881    119.364    -999.25    118.000   3983.343    -999.25    128.843    -999.25    -999.25       -999.25    -999.25    -999.25      1.231    136.723     32.000
 1135.2276     24.920       153.141      1.933      8.065    119.386    -999.25    -999.25   4000.463   2968.750    129.198      0.000      0.000       -999.25      0.000      0.000      1.231    136.723     32.000
 1135.3800     24.920       138.063      1.805      7.800    120.000      3.000    -999.25   4004.993    -999.25    128.888    -999.25    -999.25       -999.25    -999.25    -999.25      1.231    136.723     32.000
 1135.5324     24.918       150.063      2.004      5.866    118.545    -999.25    118.000   4004.993    -999.25    129.201      0.000    -999.25       -999.25    -999.25      0.000      1.231    136.792     32.000
 1135.6848     24.919       147.016      1.952      5.898    119.045      3.000    -999.25   4004.993   2968.750    129.410    -999.25      0.000         0.000      0.000    -999.25      1.231    136.792     32.000
 1135.8372     24.922       -999.25      2.025      6.589    119.591    -999.25    118.000   4004.993    -999.25    129.366      0.000    -999.25       -999.25    -999.25      0.000      1.231    136.792     32.000
 1135.9896     24.916       150.063      2.094      7.793    119.000      3.000    -999.25   4004.993   2968.750    129.217    -999.25      0.000       -999.25      0.000    -999.25      1.232    136.930     32.000
 1136.1420     24.918       147.016      2.122      8.697    119.227    -999.25    118.000   4105.343    -999.25    132.941      0.000    -999.25         0.000    -999.25      0.000      1.231    136.861     32.000
 1136.2944     24.922       153.141      2.084      8.798    120.000      3.000    -999.25   4178.991   3085.938    141.394    -999.25      0.000       -999.25      0.000    -999.25      1.232    136.930     32.000
 1136.4468     24.916       147.016      1.942      6.268    120.000    -999.25    -999.25   4195.791    -999.25    139.746    -999.25    -999.25       -999.25    -999.25    -999.25      1.232    136.930     32.000
 1136.5992     24.919       135.141      1.976      5.584    119.864    -999.25    118.000   4186.616    -999.25    140.331      0.000    -999.25         0.000    -999.25      0.000      1.231    136.930     32.000
 1136.7516     24.922       150.063      2.141      6.546    119.000      6.000    -999.25   4205.243   3125.000    140.691    -999.25      0.000       -999.25      0.000    -999.25      1.231    136.930     32.000
