~Version Information
VERS.             2.0 : CWLS log ASCII standard - Version 2.0
WRAP.             NO  : One line per depth step
#
~Well Information Block
#MNEM.UNIT                   Data Type:Information
#__________________________________________________________
 STRT .M           2778.09960  :START INDEX                  
  STOP.M           3749.9544 : STOP INDEX                    
  STEP.M              0.1524 : STEP                          
  NULL.              -999.25 : NULL VALUE                    
  COMP.           StatoilHydro : COMPANY                       
  WELL.            15/9-F-14 : WELL                          
   FLD.                Volve : FIELD                         
   LOC.            North Sea : LOCATION                      
  PROV.                      : PROVINCE                      
  CNTY.                      : COUNTY                        
  STAT.                      : STATE                         
  CTRY.               Norway : COUNTRY                       
  SRVC.              SLB D&M : SERVICE COMPANY               
  DATE.                      : LOG DATE                      
   UWI.                      : UNIQUE WELL ID                
   API.                      : API NUMBER                    
#
~Curve Information Block
#MNEM.UNIT                     : Curve Description
#---------                     --------------------
DEPT        .M                 : Bit Depth 2hz                                                   
ROP5        .M/HR              : 5ft ROP 2hz                                                     
GRMA_ECO_RT .GAPI              : Gamma Ray, Average, Real-Time                                   
Stick_RT    .RPM               : MWD PKtoPK RPM 2hz                                              
SWOB        .KKGF              : Surface Weight on Bit 2hz                                       
SHKRSK_RT   .----              : MWD SHKRSK 2hz                                                  
SHKPK_RT    .G                 : MWD SHK_PK 2hz                                                  
RPM         .RPM               : SRF SRPM 2hz                                                    
TRPM_RT     .RPM               : MWD TUR_RPM 2hz                                                 
CRPM_RT     .RPM               : MWD CRPM 2hz                                                    
TFLO        .LPM               : HSPM Total Pump Flow 2hz                                        
DHAT        .DEGC              : Downhole Annulus Temperature                                    
DHAP        .BAR               : Downhole Annulus Pressure                                       
TQA         .KMN               : SRF STOR 2hz                                                    
ECD         .G/C3              : Equivalent Circulating Density                                  
SPPA        .BAR               : SRF PUMPRS 2hz                                                  
SPM1        .----              : SRF SPM1 2hz                                                    
SPM2        .----              : SRF SPM2 2hz                                                    
SPM3        .----              : SRF SPM3 2hz                                                    
#
~Parameter Information Block
#MNEM.UNIT                       Value:Description
#__________________________________________________________
#
~Other Information Block

#
~A    DEPT       ROP5 GRMA_ECO_RT   Stick_RT       SWOB  SHKRSK_RT   SHKPK_RT        RPM    TRPM_RT    CRPM_RT       TFLO       DHAT       DHAP        TQA        ECD       SPPA       SPM1       SPM2       SPM3
# ...
 3099.0540      12.53       24.61    -999.25       7.26       0.00       0.00     170.00    -999.25    -999.25    1940.78      77.00     418.24      12.64       1.47     172.58       0.00      44.00      44.00
 3099.2064      13.65     -999.25    -999.25       7.20    -999.25    -999.25     169.31    -999.25    -999.25    1940.78      77.00     419.62      12.61       1.48     173.30       0.00      44.00      44.00
 3099.3588      14.99       20.42      24.00       7.23    -999.25    -999.25     169.49    2734.38    -999.25    1940.78      77.00     419.41      13.18       1.48     173.28       0.00      44.00      44.00
 3099.5112      16.62     -999.25    -999.25       7.27    -999.25    -999.25     169.73    -999.25     158.00    1940.78      77.00     419.68      13.17       1.48     173.58       0.00      44.00      44.00
 3099.6636      18.65       24.61    -999.25       7.31       0.00       0.00     169.32    -999.25    -999.25    1940.78      77.00     418.72      14.41       1.47     173.24       0.00      44.00      44.00
 3099.8160      21.25     -999.25    -999.25       7.32    -999.25    -999.25     170.00    -999.25    -999.25    1940.78      77.00     419.06      13.53       1.48     173.79       0.00      44.00      44.00
 3099.9684      24.70     -999.25      36.00       7.01    -999.25    -999.25     169.11    -999.25    -999.25    1940.78      77.00     419.34      13.71       1.48     174.19       0.00      44.00      44.00
 3100.1208      29.47       37.22    -999.25       6.96    -999.25    -999.25     169.00    2734.38     163.00    1940.78      78.00     419.27      13.40       1.48     173.83       0.00      44.00      44.00
 3100.2732      29.85     -999.25    -999.25       6.91    -999.25    -999.25     169.59    -999.25    -999.25    1940.78      78.00     419.41      13.62       1.48     173.78       0.00      44.00      44.00
 3100.4256      29.85       38.95    -999.25       6.74       0.00       0.00     169.84    -999.25    -999.25    1940.78      78.00     419.44      12.07       1.48     173.39       0.00      44.00      44.00
 3100.5780      29.86     -999.25    -999.25       6.50    -999.25    -999.25     169.89    -999.25    -999.25    1940.78      78.00     419.27      12.74       1.48     173.80       0.00      44.00      44.00
 3100.7304      29.86       48.07      36.00       6.93    -999.25    -999.25     170.30    2734.38    -999.25    1940.78      78.00     418.86      12.73       1.48     173.29       0.00      44.00      44.00
 3100.8828      29.86     -999.25    -999.25       7.36    -999.25    -999.25     170.00    -999.25     167.00    1940.78      78.00     419.41      12.28       1.48     173.32       0.00      44.00      44.00
 3101.0352      29.86       29.09    -999.25       7.15       0.00       0.00     170.00    -999.25    -999.25    1940.78      78.00     418.79      12.07       1.47     173.32       0.00      44.00      44.00
 3101.1876      29.87     -999.25    -999.25       6.96    -999.25    -999.25     169.95    -999.25    -999.25    1940.78      78.00     418.89      11.67       1.48     173.94       0.00      44.00      44.00
 3101.3400      29.87       28.21      48.00       7.24    -999.25    -999.25     168.59    2734.38    -999.25    1940.78      78.00     418.72      13.02       1.47     173.56       0.00      44.00      44.00
 3101.4924      29.87     -999.25    -999.25       6.98    -999.25    -999.25     170.00    -999.25     166.00    1940.78      78.00     419.48      13.38       1.48     173.76       0.00      44.00      44.00
 3101.6448      29.87       20.12    -999.25       7.30       0.00       0.00     169.94    -999.25    -999.25    1940.78      78.00     419.48      13.41       1.48     173.69       0.00      44.00      44.00
 3101.7972      29.88     -999.25    -999.25       7.34    -999.25    -999.25     169.65    -999.25    -999.25    1940.78      78.00     419.20      12.87       1.48     173.47       0.00      44.00      44.00
 3101.9496      29.88     -999.25      36.00       7.35    -999.25    -999.25     169.76    -999.25    -999.25    1940.78      78.00     419.17      13.21       1.48     173.91       0.00      44.00      44.00
 3102.1020      29.87       17.79    -999.25       7.54    -999.25    -999.25     169.86    2734.38     166.00    1940.78      78.00     419.48      13.28       1.48     173.60       0.00      44.00      44.00
 3102.2544      29.87     -999.25    -999.25       7.45    -999.25    -999.25     169.28    -999.25    -999.25    1940.78      78.00     419.20      13.96       1.48     173.81       0.00      44.00      44.00
 3102.4068      29.88       15.29    -999.25       7.52       0.00       0.00     168.65    -999.25    -999.25    1940.78      78.00     418.51      14.35       1.47     173.86       0.00      44.00      44.00
 3102.5592      29.88     -999.25    -999.25       6.92    -999.25    -999.25     169.92    -999.25    -999.25    1940.78      78.00     419.62      13.82       1.48     173.86       0.00      44.00      44.00
 3102.7116      29.86       15.29      48.00       7.33    -999.25    -999.25     170.00    2734.38    -999.25    1940.78      78.00     418.37      14.26       1.47     174.64       0.00      44.00      44.00
 3102.8640      29.85     -999.25    -999.25       7.47    -999.25    -999.25     170.00    -999.25     169.00    1940.78      78.00     418.75      13.99       1.47     174.70       0.00      44.00      44.00
 3103.0164      29.86       16.52    -999.25       7.70       0.00       0.00     170.51    -999.25    -999.25    1940.78      78.00     420.17      14.50       1.48     174.13       0.00      44.00      44.00
 3103.1688      29.87     -999.25    -999.25       7.45    -999.25    -999.25     169.00    -999.25    -999.25    1940.78      78.00     419.41      14.76       1.48     174.33       0.00      44.00      44.00
 3103.3212      29.85       17.79      39.00       7.26    -999.25    -999.25     169.00    2734.38    -999.25    1940.78      78.00     418.44      14.34       1.47     174.11       0.00      44.00      44.00
 3103.4736      29.83     -999.25    -999.25       7.47    -999.25    -999.25     169.00    -999.25     166.00    1940.78      78.00     419.27      14.92       1.48     174.11       0.00      44.00      44.00
 3103.6260      29.85       15.29    -999.25       7.16       0.00       0.00     169.61    -999.25    -999.25    1940.78      78.00     419.48      14.40       1.48     174.20       0.00      44.00      44.00
 3103.7784      29.84     -999.25    -999.25       7.52    -999.25    -999.25     169.16    -999.25    -999.25    1940.78      78.00     419.48      13.93       1.48     173.98       0.00      44.00      44.00
 3103.9308      29.83     -999.25      42.00       7.45    -999.25    -999.25     169.00    -999.25    -999.25    1940.78      78.00     418.99      13.87       1.48     174.45       0.00      44.00      44.00
 3104.0832      29.83       20.12    -999.25       7.25    -999.25    -999.25     169.00    2734.38     165.00    1940.78      78.00     419.27      14.44       1.48     174.38       0.00      44.00      44.00
 3104.2356      29.85     -999.25    -999.25       7.51    -999.25    -999.25     169.94    -999.25    -999.25    1940.78      78.00     419.17      13.83       1.48     174.17       0.00      44.00      44.00
 3104.3880      29.85       16.53    -999.25       7.50       0.00       0.00     169.51    -999.25    -999.25    1940.78      78.00     419.55      14.04       1.48     173.93       0.00      44.00      44.00
 3104.5404      29.83     -999.25    -999.25       7.28    -999.25    -999.25     169.14    -999.25    -999.25    1940.78      78.00     419.34      14.79       1.48     174.05       0.00      44.00      44.00
 3104.6928      29.84       17.69      30.00       7.58    -999.25    -999.25     169.49    2734.38    -999.25    1940.78      78.00     419.20      13.58       1.48     174.10       0.00      44.00      44.00
 3104.8452      29.85     -999.25    -999.25       7.39    -999.25    -999.25     169.03    -999.25     166.00    1940.78      78.00     419.68      13.19       1.48     174.14       0.00      44.00      44.00
