~Version Information
 VERS.             2.0 : CWLS log ASCII standard - Version 2.0
 WRAP.             NO  : One line per depth step
 #
 ~Well Information Block
 #MNEM.UNIT                   Data Type:Information
 #__________________________________________________________
 STRT  .M           1050.03600  :START INDEX                  
   2281.M           2281.5804 : STOP INDEX                    
 STEP  .M              0.15240  :STEP                         
 NULL  .              -999.25000  :NULL VALUE                 
   COMP.           StatoilHydro : COMPANY                       
   WELL.            15/9-F-14 : WELL                          
    FLD.                Volve : FIELD                         
    LOC.           Norwegian North Sea : LOCATION                      
   PROV.                      : PROVINCE                      
   CNTY.                      : COUNTY                        
   STAT.                      : STATE                         
   CTRY.               Norway : COUNTRY                       
   SRVC.           Schlumberger : SERVICE COMPANY               
   DATE.            14-May-08 : LOG DATE                      
    UWI.                      : UNIQUE WELL ID                
    API.                      : API NUMBER                    
 #
 STOP  .M      2281.58040     :STOP Depth
 ~Curve Information Block
 #MNEM.UNIT                     : Curve Description
 #---------                     --------------------
 DEPT        .M                 :Bit Depth 2hz                                                    
 ROP5        .M/HR              : 5ft ROP 2hz                                                     
 ARC_GR_UNC_RT.GAPI              : ARC Raw Gamma Ray, Real-Time                                    
 SWOB        .KKGF              : Surface Weight on Bit 2hz                                       
 TQA         .KMN               : SRF STOR 2hz                                                    
 RPM         .RPM               : SRF SRPM 2hz                                                    
 Stick_RT    .RPM               : MWD PKtoPK RPM 2hz                                              
 CRPM_RT     .RPM               : MWD CRPM 2hz                                                    
 TFLO        .LPM               : HSPM Total Pump Flow 2hz                                        
 TRPM_RT     .RPM               : MWD TUR_RPM 2hz                                                 
 SPPA        .BAR               : SRF PUMPRS 2hz                                                  
 SHKRSK_RT   .----              : MWD SHKRSK 2hz                                                  
 SHK2_RT     .----              : ARC Shock Level, Real-Time                                      
 SHK_ISONIC_RT.----              : Isonic Shock, Real-Time                                         
 PDSHKRSK    .----              : PowerDrive Shock Risk 2hz                                       
 SHKPK_RT    .G                 : MWD SHK_PK 2hz                                                  
 ECD_ARC     .SG                : Equivalent Circulating Density                                  
 APRS_ARC    .BAR               : ARC Annular Pressure                                            
 ATMP        .DEGC              : ARC Annular Temperature                                         
 #
 ~Parameter Information Block
 #MNEM.UNIT                       Value:Description
 #__________________________________________________________
 #
 ~Other Information Block
 
 #
 ~A    DEPT       ROP5 ARC_GR_UNC_RT       SWOB        TQA        RPM   Stick_RT    CRPM_RT       TFLO    TRPM_RT       SPPA  SHKRSK_RT    SHK2_RT SHK_ISONIC_RT   PDSHKRSK   SHKPK_RT    ECD_ARC   APRS_ARC       ATMP
# ...
 1866.5952     26.403       141.016      3.873      7.489    160.000    -999.25    -999.25   4271.843    -999.25    175.890    -999.25    -999.25       -999.25    -999.25    -999.25      1.330    243.178     50.000
 1866.7476     26.416       -999.25      4.005     10.229    160.000    -999.25    158.000   4271.843    -999.25    175.888      0.000    -999.25       -999.25    -999.25     16.000      1.331    243.247     50.000
 1866.9000     26.419       150.063      3.886     12.528    159.792    -999.25    -999.25   4271.843    -999.25    175.853    -999.25    -999.25       -999.25    -999.25    -999.25      1.331    243.247     50.000
 1867.0524     26.435       -999.25      3.910     11.898    159.320     36.000    -999.25   4271.843   3242.188    175.997    -999.25      0.000         0.000      0.000    -999.25      1.331    243.316     50.000
 1867.2048     26.447       147.016      4.164     11.678    159.708    -999.25    -999.25   4271.843    -999.25    175.800    -999.25    -999.25       -999.25    -999.25    -999.25      1.331    243.316     50.000
 1867.3572     26.350       -999.25      5.215     12.139    159.296    -999.25    156.000   4271.843    -999.25    175.694      0.000    -999.25       -999.25    -999.25     16.000      1.331    243.385     50.000
 1867.5096     25.614       129.391      6.366     12.127    160.000    -999.25    -999.25   4271.843   3242.188    176.038    -999.25      0.000       -999.25      0.000    -999.25      1.331    243.454     50.000
 1867.6620     25.091       -999.25      9.061     13.689    159.837     39.000    -999.25   4271.843    -999.25    176.215    -999.25    -999.25         0.000    -999.25    -999.25      1.331    243.454     50.000
 1867.8144     37.157       -999.25      3.534     13.866    159.000    -999.25    141.000   4271.843    -999.25    176.074      0.000    -999.25       -999.25    -999.25     24.000      1.331    243.523     50.000
 1867.9668     36.253       141.016      3.264     14.379    159.437      6.000    -999.25   4271.843   3242.188    175.845    -999.25      0.000       -999.25      0.000    -999.25      1.331    243.523     50.000
 1868.1192     35.927       147.016      3.513     11.577    158.333    -999.25    -999.25   4271.843    -999.25    176.004    -999.25    -999.25       -999.25    -999.25    -999.25      1.331    243.523     50.000
 1868.2716     35.718       -999.25      3.629     10.800    159.000    -999.25    157.000   4271.843    -999.25    175.740      0.000    -999.25         0.000    -999.25     32.000      1.332    243.592     50.000
 1868.4240     35.711       -999.25      3.641     11.370    159.000    -999.25    -999.25   4271.843    -999.25    176.071    -999.25    -999.25       -999.25    -999.25    -999.25      1.331    243.592     50.000
 1868.5764     35.698       138.063      3.724     11.847    159.120     48.000    -999.25   4271.843   3242.188    175.814    -999.25      0.000       -999.25      0.000    -999.25      1.332    243.661     50.000
 1868.7288     35.695       -999.25      3.872     11.284    159.958    -999.25    -999.25   4271.843    -999.25    175.438    -999.25    -999.25       -999.25    -999.25    -999.25      1.332    243.661     50.000
 1868.8812     35.969       141.016      3.819     11.356    159.000    -999.25    157.000   4271.843    -999.25    176.061      0.000    -999.25         0.000    -999.25     24.000      1.332    243.730     50.000
 1869.0336     37.362       -999.25      5.615     11.728    159.000    -999.25    -999.25   4271.843    -999.25    175.968    -999.25    -999.25       -999.25    -999.25    -999.25      1.332    243.730     50.000
 1869.1860     37.414       132.250      9.176     11.449    159.279      6.000    -999.25   4271.843   3242.188    175.883    -999.25      0.000       -999.25      0.000    -999.25      1.332    243.868     50.000
 1869.3384     37.229       -999.25      3.997     13.309    160.000    -999.25    147.000   4271.843    -999.25    176.470      0.000    -999.25         0.000    -999.25     24.000      1.332    243.799     50.000
 1869.4908     37.059       135.141      3.159     16.672    159.455      6.000    -999.25   4271.843   3242.188    175.809    -999.25      0.000       -999.25      0.000    -999.25      1.332    243.868     50.000
 1869.6432     37.047       -999.25      3.723     11.392    158.333    -999.25    -999.25   4271.843    -999.25    176.250    -999.25    -999.25       -999.25    -999.25    -999.25      1.332    243.868     50.000
 1869.7956     37.180       138.063      3.747     10.436    159.240    -999.25    158.000   4271.843    -999.25    176.452      0.000    -999.25       -999.25    -999.25     24.000      1.332    243.937     50.000
 1869.9480     37.157       -999.25      3.823     10.553    160.000    -999.25    -999.25   4271.843    -999.25    176.426    -999.25    -999.25         0.000    -999.25    -999.25      1.332    243.937     50.000
 1870.1004     37.137       150.063      3.779     11.790    160.000     30.000    -999.25   4271.843   3242.188    176.183    -999.25      0.000       -999.25      0.000    -999.25      1.332    243.937     50.000
 1870.2528     37.096       -999.25      3.924     11.367    160.000    -999.25    -999.25   4271.843    -999.25    176.283    -999.25    -999.25       -999.25    -999.25    -999.25      1.332    244.006     50.000
 1870.4052     37.092       132.250      3.967     11.169    160.000    -999.25    157.000   4271.843    -999.25    176.785      0.000    -999.25       -999.25    -999.25     24.000      1.333    244.075     50.000
 1870.5576     37.233       -999.25      5.136     11.303    160.000    -999.25    -999.25   4271.843    -999.25    175.896    -999.25    -999.25       -999.25    -999.25    -999.25      1.333    244.075     50.000
 1870.7100     37.841       126.563      7.668     11.240    160.000     12.000    -999.25   4271.843   3242.188    176.241    -999.25      0.000         0.000      0.000    -999.25      1.333    244.143     50.000
 1870.8624     38.579       -999.25      3.870     14.004    160.000    -999.25    164.000   4271.843    -999.25    176.142      0.000    -999.25       -999.25    -999.25     32.000      1.333    244.143     50.000
 1871.0148     39.464       123.766      3.669     15.887    160.000    -999.25    -999.25   4271.843    -999.25    175.942    -999.25    -999.25       -999.25    -999.25    -999.25      1.333    244.143     50.000
 1871.1672     39.856       -999.25      3.870     13.615    159.458     15.000    -999.25   4271.843   3242.188    176.352    -999.25      0.000       -999.25      0.000    -999.25      1.333    244.212     50.000
 1871.3196     39.958       150.063      3.960     10.982    159.000    -999.25    -999.25   4271.843    -999.25    176.534    -999.25    -999.25         0.000    -999.25    -999.25      1.333    244.212     50.000
 1871.4720     39.999       -999.25      3.880     11.449    159.000    -999.25    157.000   4271.843    -999.25    176.538      0.000    -999.25       -999.25    -999.25     24.000      1.333    244.281     51.000
 1871.6244     40.026       144.000      3.898     12.224    159.280    -999.25    -999.25   4271.843    -999.25    176.585    -999.25    -999.25       -999.25    -999.25    -999.25      1.333    244.281     51.000
 1871.7768     40.090       -999.25      4.079     11.938    159.917     21.000    -999.25   4271.843   3242.188    176.061    -999.25      0.000       -999.25      0.000    -999.25      1.333    244.350     50.000
 1871.9292     40.090       141.016      3.995     11.729    159.000    -999.25    -999.25   4271.843    -999.25    176.537    -999.25    -999.25         0.000    -999.25    -999.25      1.333    244.350     51.000
 1872.0816     40.189       147.016      3.948     11.943    160.000    -999.25    157.000   4271.843    -999.25    176.518      0.000    -999.25       -999.25    -999.25      0.000      1.334    244.488     50.000
 1872.2340     42.277       147.016      4.141     11.929    159.083    -999.25    -999.25   4271.843    -999.25    176.104    -999.25    -999.25       -999.25    -999.25    -999.25      1.334    244.488     51.000
