~Version Information
VERS.             2.0 : CWLS log ASCII standard - Version 2.0
WRAP.             NO  : One line per depth step
#
~Well Information Block
#MNEM.UNIT                   Data Type:Information
#__________________________________________________________
 STRT .M           2250.03360  :START INDEX                  
  STOP.M           2787.8532 : STOP INDEX                    
  STEP.M              0.1524 : STEP                          
  NULL.              -999.25 : NULL VALUE                    
  COMP.           StatoilHydro : COMPANY                       
  WELL.            15_9_F_14 : WELL                          
   FLD.                Volve : FIELD                         
   LOC.           Maersk Inspirer : LOCATION                      
  PROV.                      : PROVINCE                      
  CNTY.                      : COUNTY                        
  STAT.                      : STATE                         
  CTRY.                      : COUNTRY                       
  SRVC.              SLB D&M : SERVICE COMPANY               
  DATE.                      : LOG DATE                      
   UWI.                      : UNIQUE WELL ID                
   API.                      : API NUMBER                    
#
~Curve Information Block
#MNEM.UNIT                     : Curve Description
#---------                     --------------------
DEPT        .M                 : Bit Depth 2hz                                                   
ROP5        .M/HR              : 5ft ROP 2hz                                                     
ARC_GR_RT   .GAPI              : ARC Gamma Ray, Real-Time                                        
SWOB        .KKGF              : Surface Weight on Bit 2hz                                       
TQA         .KMN               : SRF STOR 2hz                                                    
Stick_RT    .RPM               : MWD PKtoPK RPM 2hz                                              
SPPA        .BAR               : SRF PUMPRS 2hz                                                  
TRPM_RT     .RPM               : MWD TUR_RPM 2hz                                                 
TFLO        .LPM               : HSPM Total Pump Flow 2hz                                        
RPM         .RPM               : SRF SRPM 2hz                                                    
CRPM_RT     .RPM               : MWD CRPM 2hz                                                    
SHKRSK_RT   .----              : MWD SHKRSK 2hz                                                  
SHK2_RT     .----              : ARC Shock Level, Real-Time                                      
ECD_ARC     .G/C3              : Equivalent Circulating Density                                  
APRS_ARC    .BAR               : ARC Annular Pressure                                            
ATMP        .DEGC              : ARC Annular Temperature                                         
SPM1        .----              : SRF SPM1 2hz                                                    
SPM2        .----              : SRF SPM2 2hz                                                    
SPM3        .----              : SRF SPM3 2hz                                                    
#
~Parameter Information Block
#MNEM.UNIT                       Value:Description
#__________________________________________________________
#
~Other Information Block

#
~A    DEPT       ROP5  ARC_GR_RT       SWOB        TQA   Stick_RT       SPPA    TRPM_RT       TFLO        RPM    CRPM_RT  SHKRSK_RT    SHK2_RT    ECD_ARC   APRS_ARC       ATMP       SPM1       SPM2       SPM3
# ...
 2321.3568    14.5298    75.1190     2.6858     7.9058    84.0000   233.1626  2578.1250  3557.4937    44.3738    43.0000     0.0000     0.0000     1.3257   301.2321    55.0000    90.0000     0.0000    70.0000
 2321.5092    14.6701    64.1684     5.1420     7.1232    60.0000   229.7070    -999.25  3557.4937    44.0000    44.0000    -999.25     0.0000     1.3257   301.2321    55.0000    90.0000     0.0000    70.0000
 2321.6616    14.5918    72.8599     4.2756    10.3982    -999.25   234.8673    -999.25  3557.4937    44.4576    -999.25    -999.25    -999.25     1.3259   301.3010    56.0000    90.0000     0.0000    70.0000
 2321.8140    14.5821    70.6353     5.0398    10.0556    -999.25   235.4997    -999.25  3557.4937    44.4407    44.0000     0.0000     0.0000     1.3258   301.3010    56.0000    90.0000     0.0000    70.0000
 2321.9664    14.5523    68.4452     4.1278    10.1148    15.0000   236.0536  2578.1250  3557.4937    44.3731    -999.25    -999.25    -999.25     1.3260   301.3700    56.0000    90.0000     0.0000    70.0000
 2322.1188    14.3754    64.1684     4.6477    10.0477    45.0000   235.8053    -999.25  3557.4937    44.4310    50.0000     0.0000     0.0000     1.3262   301.4389    56.0000    90.0000     0.0000    70.0000
 2322.2712    14.3452    -999.25     4.2535    10.4462    -999.25   236.0202    -999.25  3557.4937    44.0625    -999.25    -999.25    -999.25     1.3261   301.4389    56.0000    90.0000     0.0000    70.0000
 2322.4236    14.3293    -999.25     5.3108     9.6446    48.0000   234.5724    -999.25  3557.4937    44.2985    45.0000     0.0000     0.0000     1.3260   301.4389    56.0000    90.0000     0.0000    70.0000
 2322.5760    13.8425    -999.25     5.1579     9.4269    -999.25   234.7224  2578.1250  3557.4937    44.4342    -999.25    -999.25    -999.25     1.3260   301.4389    56.0000    90.0000     0.0000    70.0000
 2322.7284    13.7022    -999.25     5.0784     9.8053    27.0000   235.3293    -999.25  3557.4937    44.3205    45.0000    -999.25     0.0000     1.3259   301.4389    56.0000    90.0000     0.0000    70.0000
 2322.8808    16.6561    -999.25     4.9020    10.5006    -999.25   235.1334    -999.25  3557.4937    44.4583    45.0000     0.0000    -999.25     1.3261   301.5079    56.0000    90.0000     0.0000    70.0000
 2323.0332    16.3129    -999.25     4.6610    10.3111    27.0000   234.7538    -999.25  3557.4937    50.9178    -999.25    -999.25     0.0000     1.3260   301.5079    56.0000    90.0000     0.0000    70.0000
 2323.1856    16.0215    -999.25     5.3544    10.0073    36.0000   235.2332    -999.25  3557.4937    54.1571    53.0000     0.0000     0.0000     1.3262   301.5768    56.0000    90.0000     0.0000    70.0000
 2323.3380    15.5806    -999.25     5.8645     9.8093    -999.25   235.1197  2578.1250  3557.4937    54.8861    -999.25    -999.25    -999.25     1.3264   301.6457    56.0000    90.0000     0.0000    70.0000
 2323.4904    15.4061    -999.25     5.0709    10.7005    -999.25   236.6507    -999.25  3557.4937    54.4133    -999.25    -999.25     0.0000     1.3264   301.6457    56.0000    90.0000     0.0000    70.0000
 2323.6428    15.1816    -999.25     4.7477    10.0921    -999.25   236.1512  2578.1250  3557.4937    54.3478    52.0000     0.0000    -999.25     1.3263   301.6457    56.0000    90.0000     0.0000    70.0000
 2323.7952    15.2094    -999.25     4.7695    10.0280    21.0000   234.7893    -999.25  3557.4937    54.8413    -999.25    -999.25     0.0000     1.3262   301.6457    56.0000    90.0000     0.0000    70.0000
 2323.9476    15.2717    -999.25     4.8516     9.8445    -999.25   234.5082  2578.1250  3557.4937    54.0000    61.0000     0.0000    -999.25     1.3261   301.6457    56.0000    90.0000     0.0000    70.0000
 2324.1000    15.4567    -999.25     4.8793     9.4965    -999.25   234.2005    -999.25  3557.4937    54.3824    -999.25    -999.25    -999.25     1.3260   301.6457    56.0000    90.0000     0.0000    70.0000
 2324.2524    15.6858    -999.25     4.8051     9.6839    39.0000   233.7967  2578.1250  3557.4937    54.2941    53.0000     0.0000     0.0000     1.3265   301.7836    56.0000    90.0000     0.0000    70.0000
 2324.4048    15.7592    -999.25     4.7980     9.2656    -999.25   233.7452  2578.1250  3557.4937    54.5362    -999.25    -999.25    -999.25     1.3264   301.7836    56.0000    90.0000     0.0000    70.0000
 2324.5572    15.8356    -999.25     4.5122     9.3860    -999.25   233.8659    -999.25  3557.4937    54.4058    55.0000    -999.25     0.0000     1.3267   301.8526    56.0000    90.0000     0.0000    70.0000
 2324.7096    15.9385    -999.25     4.3910     9.3179    -999.25   233.6117    -999.25  3557.4937    54.9394    -999.25     0.0000    -999.25     1.3266   301.8526    56.0000    90.0000     0.0000    70.0000
 2324.8620    16.2633    -999.25     4.2438     9.1805    -999.25   233.0473    -999.25  3557.4937    55.0000    -999.25    -999.25    -999.25     1.3268   301.9215    56.0000    90.0000     0.0000    70.0000
 2325.0144    16.6439    -999.25     4.3672     9.4397    -999.25   233.6848  2578.1250  3557.4937    54.1667    -999.25     0.0000    -999.25     1.3267   301.9215    56.0000    90.0000     0.0000    70.0000
 2325.1668    16.7503    -999.25     4.5147     9.0349    21.0000   233.8195    -999.25  3557.4937    54.5469    61.0000    -999.25     0.0000     1.3269   301.9905    57.0000    90.0000     0.0000    70.0000
 2325.3192    16.9335    -999.25     4.1501     9.1613    -999.25   233.5266  2578.1250  3557.4937    54.5000    -999.25     0.0000    -999.25     1.3271   302.0594    57.0000    90.0000     0.0000    70.0000
 2325.4716    17.0552    -999.25     4.2040     9.0944    -999.25   233.2729    -999.25  3557.4937    54.7627    55.0000    -999.25     0.0000     1.3271   302.0594    57.0000    90.0000     0.0000    70.0000
 2325.6240    17.4241    -999.25     3.8463     9.1460    -999.25   233.1095    -999.25  3557.4937    54.2593    -999.25     0.0000    -999.25     1.3273   302.1284    57.0000    90.0000     0.0000    70.0000
 2325.7764    18.0990    -999.25     3.9703     8.8759    15.0000   233.6978    -999.25  3557.4937    54.2955    54.0000    -999.25     0.0000     1.3272   302.1284    57.0000    90.0000     0.0000    70.0000
 2325.9288    18.7882    -999.25     4.1083     9.5268    -999.25   233.4745    -999.25  3557.4937    54.5106    -999.25    -999.25    -999.25     1.3274   302.1973    57.0000    90.0000     0.0000    70.0000
 2326.0812    19.2887    -999.25     4.6348     9.3925    -999.25   233.2269   703.1250  3557.4937    54.5370    61.0000    -999.25    -999.25     1.3273   302.1973    57.0000    90.0000     0.0000    70.0000
 2326.2336    19.4727    -999.25     4.7039    10.3023    -999.25   234.2593    -999.25  3557.4937    54.4500    -999.25    -999.25     0.0000     1.3272   302.1973    57.0000    90.0000     0.0000    70.0000
 2326.3860    19.7705    79.7406     4.1354    10.1793    -999.25   234.7555  2578.1250  3557.4937    54.1053    -999.25     0.0000    -999.25     1.3274   302.2663    57.0000    90.0000     0.0000    70.0000
 2326.5384    19.9983    94.4333     4.2737    10.0310    -999.25   233.7483    -999.25  3557.4937    55.0000    -999.25    -999.25     0.0000     1.3274   302.2663    57.0000    90.0000     0.0000    70.0000
 2326.6908    20.2522    -999.25     4.2635    10.0644    -999.25   233.8579    -999.25  3557.4937    54.5000    -999.25     0.0000    -999.25     1.3273   302.2663    57.0000    90.0000     0.0000    70.0000
 2326.8432    20.3194    -999.25     4.0574    10.3596    27.0000   234.8539    -999.25  3557.4937    54.3333    53.0000    -999.25     0.0000     1.3278   302.4042    57.0000    90.0000     0.0000    70.0000
 2326.9956    20.6825    -999.25     4.1788     9.6703    -999.25   234.2643  2578.1250  3557.4937    54.0816    -999.25     0.0000    -999.25     1.3277   302.4042    57.0000    90.0000     0.0000    70.0000
 2327.1480    20.6574    -999.25     4.2288    10.0686    18.0000   234.1499    -999.25  3557.4937    54.9273    53.0000    -999.25     0.0000     1.3279   302.4731    57.0000    90.0000     0.0000    70.0000
