~Version Information
VERS.             2.0 : CWLS log ASCII standard - Version 2.0
WRAP.             NO  : One line per depth step
#
~Well Information Block
#MNEM.UNIT                   Data Type:Information
#__________________________________________________________
 STRT .M           2778.09960  :START INDEX                  
  STOP.M           3749.9544 : STOP INDEX                    
  STEP.M              0.1524 : STEP                          
  NULL.              -999.25 : NULL VALUE                    
  COMP.           StatoilHydro : COMPANY                       
  WELL.            15/9-F-14 : WELL                          
   FLD.                Volve : FIELD                         
   LOC.            North Sea : LOCATION                      
  PROV.                      : PROVINCE                      
  CNTY.                      : COUNTY                        
  STAT.                      : STATE                         
  CTRY.               Norway : COUNTRY                       
  SRVC.              SLB D&M : SERVICE COMPANY               
  DATE.                      : LOG DATE                      
   UWI.                      : UNIQUE WELL ID                
   API.                      : API NUMBER                    
#
~Curve Information Block
#MNEM.UNIT                     : Curve Description
#---------                     --------------------
DEPT        .M                 : Bit Depth 2hz                                                   
ROP5        .M/HR              : 5ft ROP 2hz                                                     
GRMA_ECO_RT .GAPI              : Gamma Ray, Average, Real-Time                                   
Stick_RT    .RPM               : MWD PKtoPK RPM 2hz                                              
SWOB        .KKGF              : Surface Weight on Bit 2hz                                       
SHKRSK_RT   .----              : MWD SHKRSK 2hz                                                  
SHKPK_RT    .G                 : MWD SHK_PK 2hz                                                  
RPM         .RPM               : SRF SRPM 2hz                                                    
TRPM_RT     .RPM               : MWD TUR_RPM 2hz                                                 
CRPM_RT     .RPM               : MWD CRPM 2hz                                                    
TFLO        .LPM               : HSPM Total Pump Flow 2hz                                        
DHAT        .DEGC              : Downhole Annulus Temperature                                    
DHAP        .BAR               : Downhole Annulus Pressure                                       
TQA         .KMN               : SRF STOR 2hz                                                    
ECD         .G/C3              : Equivalent Circulating Density                                  
SPPA        .BAR               : SRF PUMPRS 2hz                                                  
SPM1        .----              : SRF SPM1 2hz                                                    
SPM2        .----              : SRF SPM2 2hz                                                    
SPM3        .----              : SRF SPM3 2hz                                                    
#
~Parameter Information Block
#MNEM.UNIT                       Value:Description
#__________________________________________________________
#
~Other Information Block

#
~A    DEPT       ROP5 GRMA_ECO_RT   Stick_RT       SWOB  SHKRSK_RT   SHKPK_RT        RPM    TRPM_RT    CRPM_RT       TFLO       DHAT       DHAP        TQA        ECD       SPPA       SPM1       SPM2       SPM3
# ...
 3550.7676      21.24       40.58      39.00       9.09    -999.25    -999.25     179.07    2812.50    -999.25    1962.83      89.00     433.61      12.53       1.46     173.10       0.00      44.00      45.00
 3550.9200      21.25     -999.25    -999.25       9.45    -999.25    -999.25     179.73    -999.25     177.00    1962.83      89.00     433.89      14.17       1.46     173.41       0.00      44.00      45.00
 3551.0724      21.24       44.18    -999.25      10.17       0.00       0.00     180.00    -999.25    -999.25    1962.83      89.00     433.47      14.46       1.46     172.93       0.00      44.00      45.00
 3551.2248      21.23       44.18      24.00       9.49    -999.25    -999.25     179.75    -999.25    -999.25    1962.83      89.00     433.40      15.28       1.46     172.96       0.00      44.00      45.00
 3551.3772      21.24     -999.25    -999.25       9.85    -999.25    -999.25     179.59    2812.50     174.00    1962.83      89.00     433.68      16.65       1.46     172.95       0.00      44.00      45.00
 3551.5296      21.22       42.36    -999.25       8.84       0.00       0.00     179.00    -999.25    -999.25    1962.83      89.00     433.13      16.83       1.46     171.90       0.00      44.00      45.00
 3551.6820      21.19     -999.25    -999.25      10.22    -999.25    -999.25     179.00    -999.25    -999.25    1962.83      89.00     433.68      18.16       1.46     171.46       0.00      44.00      45.00
 3551.8344      21.19       40.58     138.00       8.75    -999.25    -999.25     179.64    2812.50    -999.25    1962.83      89.00     432.99      14.54       1.46     171.12       0.00      44.00      45.00
 3551.9868      21.16       42.36    -999.25       9.69    -999.25    -999.25     179.42    -999.25     172.00    1962.83      89.00     434.09      13.99       1.46     170.68       0.00      44.00      45.00
 3552.1392      24.72     -999.25    -999.25      10.14       0.00       0.00     180.22    -999.25    -999.25    1962.83      89.00     433.27      14.75       1.46     170.92       0.00      44.00      45.00
 3552.2916      24.70       46.03     171.00       9.00    -999.25    -999.25     180.93    -999.25    -999.25    1962.83      89.00     433.61      13.53       1.46     170.85       0.00      44.00      45.00
 3552.4440      24.62     -999.25    -999.25      10.32    -999.25    -999.25     178.36    2812.50     174.00    1962.83      89.00     434.58      15.20       1.46     171.19       0.00      44.00      45.00
 3552.5964      24.56       46.03    -999.25      10.28    -999.25    -999.25     179.39    -999.25    -999.25    1962.83      89.00     433.68      16.21       1.46     170.68       0.00      44.00      45.00
 3552.7488      24.54       42.36    -999.25       8.69       0.00       0.00     180.39    -999.25    -999.25    1962.83      89.00     434.99      15.03       1.46     170.76       0.00      44.00      45.00
 3552.9012      24.53     -999.25     162.00       9.67    -999.25    -999.25     179.44    2812.50    -999.25    1962.83      89.00     432.72      14.76       1.46     170.28       0.00      44.00      45.00
 3553.0536      24.53       42.36    -999.25       8.98    -999.25    -999.25     180.64    -999.25     170.00    1962.83      89.00     434.92      15.10       1.46     170.36       0.00      44.00      45.00
 3553.2060      21.31     -999.25       9.00       8.23       0.00       0.00     179.63    -999.25    -999.25    1962.83      89.00     434.03      13.09       1.46     173.08       0.00      44.00      45.00
 3553.3584      21.34       42.36    -999.25       9.05    -999.25    -999.25     179.61    2812.50     177.00    1962.83      89.00     433.96      13.10       1.46     174.21       0.00      44.00      45.00
 3553.5108      21.39       40.58    -999.25       9.14       0.00       0.00     180.00    -999.25    -999.25    1962.83      90.00     434.16      14.41       1.46     173.89       0.00      44.00      45.00
 3553.6632      21.42       40.58    -999.25       9.34    -999.25    -999.25     179.23    -999.25    -999.25    1962.83      90.00     434.16      15.17       1.46     174.04       0.00      44.00      45.00
 3553.8156      21.43       42.36      15.00       9.53    -999.25    -999.25     179.00    2812.50    -999.25    1962.83      90.00     433.75      14.40       1.46     173.69       0.00      44.00      45.00
 3553.9680      21.49     -999.25    -999.25       9.45    -999.25    -999.25     179.00    -999.25     176.00    1962.83      90.00     434.23      14.24       1.46     173.60       0.00      44.00      45.00
 3554.1204      21.55       46.03    -999.25       9.92       0.00       0.00     179.00    -999.25    -999.25    1962.83      90.00     433.89      14.01       1.46     173.66       0.00      44.00      45.00
 3554.2728      21.58     -999.25      33.00       9.41    -999.25    -999.25     179.00    -999.25    -999.25    1962.83      90.00     435.13      14.14       1.46     173.44       0.00      44.00      45.00
 3554.4252      21.59       46.03    -999.25      10.21    -999.25    -999.25     179.61    2812.50     176.00    1962.83      90.00     433.27      14.29       1.46     173.63       0.00      44.00      45.00
 3554.5776      21.59     -999.25    -999.25       9.00       0.00       0.00     179.02    -999.25    -999.25    1962.83      90.00     433.96      15.08       1.46     173.47       0.00      44.00      45.00
 3554.7300      24.90       51.52    -999.25       9.92    -999.25    -999.25     179.58    -999.25    -999.25    1962.83      90.00     434.23      15.27       1.46     172.82       0.00      44.00      45.00
 3554.8824      24.85     -999.25      81.00       9.93    -999.25    -999.25     179.00    2812.50    -999.25    1962.83      90.00     434.30      15.70       1.46     172.39       0.00      44.00      45.00
 3555.0348      24.84       51.52    -999.25       9.17    -999.25    -999.25     179.59    -999.25     173.00    1962.83      90.00     434.65      15.76       1.46     172.35       0.00      44.00      45.00
 3555.1872      24.81       49.83    -999.25      10.04       0.00       0.00     179.61    -999.25    -999.25    1962.83      90.00     434.03      14.46       1.46     171.61       0.00      44.00      45.00
 3555.3396      24.79     -999.25     102.00       9.39    -999.25    -999.25     179.44    -999.25    -999.25    1962.83      90.00     434.92      13.74       1.46     171.61       0.00      44.00      45.00
 3555.4920      24.76       49.83    -999.25      10.30    -999.25    -999.25     178.57    2812.50     173.00    1962.83      90.00     434.37      14.24       1.46     172.02       0.00      44.00      45.00
 3555.6444      24.65     -999.25    -999.25      11.00    -999.25    -999.25     179.39    -999.25    -999.25    1962.83      90.00     435.68      15.57       1.46     172.11       0.00      44.00      45.00
 3555.7968      24.47       61.43    -999.25      10.43       0.00       0.00     179.09    -999.25    -999.25    1962.83      90.00     434.30      16.17       1.46     171.82       0.00      44.00      45.00
 3555.9492      24.06     -999.25     147.00      11.26    -999.25    -999.25     179.31    2812.50    -999.25    1962.83      90.00     434.37      15.20       1.46     171.48       0.00      44.00      45.00
 3556.1016      23.76       67.77    -999.25       5.99    -999.25    -999.25     179.76    -999.25     168.00    1962.83      90.00     434.85      16.67       1.46     171.47       0.00      44.00      45.00
 3556.2540      23.40     -999.25    -999.25       5.86       0.00       0.00     179.42    -999.25    -999.25    1962.83      90.00     434.92      16.38       1.46     170.81       0.00      44.00      45.00
 3556.4064      23.12       62.02     186.00       5.74    -999.25    -999.25     180.34    2812.50    -999.25    1962.83      90.00     434.92      16.39       1.46     171.01       0.00      44.00      45.00
 3556.5588      22.81       59.91    -999.25       4.70    -999.25    -999.25     178.90    -999.25     164.00    1962.83      90.00     434.85      16.01       1.46     170.59       0.00      44.00      45.00
