~Version Information
VERS.             2.0 : CWLS log ASCII standard - Version 2.0
WRAP.             NO  : One line per depth step
#
~Well Information Block
#MNEM.UNIT                   Data Type:Information
#__________________________________________________________
 STRT .M           2250.03360  :START INDEX                  
  STOP.M           2787.8532 : STOP INDEX                    
  STEP.M              0.1524 : STEP                          
  NULL.              -999.25 : NULL VALUE                    
  COMP.           StatoilHydro : COMPANY                       
  WELL.            15_9_F_14 : WELL                          
   FLD.                Volve : FIELD                         
   LOC.           Maersk Inspirer : LOCATION                      
  PROV.                      : PROVINCE                      
  CNTY.                      : COUNTY                        
  STAT.                      : STATE                         
  CTRY.                      : COUNTRY                       
  SRVC.              SLB D&M : SERVICE COMPANY               
  DATE.                      : LOG DATE                      
   UWI.                      : UNIQUE WELL ID                
   API.                      : API NUMBER                    
#
~Curve Information Block
#MNEM.UNIT                     : Curve Description
#---------                     --------------------
DEPT        .M                 : Bit Depth 2hz                                                   
ROP5        .M/HR              : 5ft ROP 2hz                                                     
ARC_GR_RT   .GAPI              : ARC Gamma Ray, Real-Time                                        
SWOB        .KKGF              : Surface Weight on Bit 2hz                                       
TQA         .KMN               : SRF STOR 2hz                                                    
Stick_RT    .RPM               : MWD PKtoPK RPM 2hz                                              
SPPA        .BAR               : SRF PUMPRS 2hz                                                  
TRPM_RT     .RPM               : MWD TUR_RPM 2hz                                                 
TFLO        .LPM               : HSPM Total Pump Flow 2hz                                        
RPM         .RPM               : SRF SRPM 2hz                                                    
CRPM_RT     .RPM               : MWD CRPM 2hz                                                    
SHKRSK_RT   .----              : MWD SHKRSK 2hz                                                  
SHK2_RT     .----              : ARC Shock Level, Real-Time                                      
ECD_ARC     .G/C3              : Equivalent Circulating Density                                  
APRS_ARC    .BAR               : ARC Annular Pressure                                            
ATMP        .DEGC              : ARC Annular Temperature                                         
SPM1        .----              : SRF SPM1 2hz                                                    
SPM2        .----              : SRF SPM2 2hz                                                    
SPM3        .----              : SRF SPM3 2hz                                                    
#
~Parameter Information Block
#MNEM.UNIT                       Value:Description
#__________________________________________________________
#
~Other Information Block

#
~A    DEPT       ROP5  ARC_GR_RT       SWOB        TQA   Stick_RT       SPPA    TRPM_RT       TFLO        RPM    CRPM_RT  SHKRSK_RT    SHK2_RT    ECD_ARC   APRS_ARC       ATMP       SPM1       SPM2       SPM3
# ...
 2600.7060    49.9757    43.1124     6.2277    12.0651    12.0000   238.2736    -999.25  3561.2438   140.0000    -999.25    -999.25     0.0000     1.3344   337.6364    75.0000    65.0000    50.0000    45.0000
 2600.8584    49.9846    38.0941     6.5479    11.3936    -999.25   237.8285    -999.25  3561.2438   140.0000    -999.25    -999.25    -999.25     1.3329   337.2917    75.0000    65.0000    50.0000    45.0000
 2601.0108    49.9864    48.4410     5.5444    11.8324    -999.25   238.3613    -999.25  3561.2438   140.0000    -999.25    -999.25    -999.25     1.3334   337.4296    75.0000    65.0000    50.0000    45.0000
 2601.1632    49.9793    48.4410     5.7608    11.9807    -999.25   238.9810    -999.25  3561.2438   140.0000    -999.25     0.0000    -999.25     1.3344   337.7053    75.0000    65.0000    50.0000    45.0000
 2601.3156    49.9775    -999.25     5.8474    11.6318    -999.25   238.5282    -999.25  3561.2438   139.6818    -999.25    -999.25    -999.25     1.3341   337.6364    75.0000    65.0000    50.0000    45.0000
 2601.4680    49.9722    48.4410     5.5728    10.9739    -999.25   236.8243    -999.25  3561.2438   139.1364   138.0000    -999.25     0.0000     1.3343   337.7053    76.0000    65.0000    50.0000    45.0000
 2601.6204    49.9775    46.6303     5.8072    11.3588    12.0000   236.9257    -999.25  3561.2438   140.0000    -999.25    -999.25    -999.25     1.3342   337.7053    76.0000    65.0000    50.0000    45.0000
 2601.7728    49.9757    41.4051     7.2211    10.9427    -999.25   236.8119    -999.25  3561.2438   140.8182    -999.25    -999.25    -999.25     1.3342   337.7053    76.0000    65.0000    50.0000    45.0000
 2601.9252    49.9775    43.1124     8.7249    11.0838    -999.25   236.7665    -999.25  3561.2438   141.0000    -999.25    -999.25    -999.25     1.3344   337.7743    76.0000    65.0000    50.0000    45.0000
 2602.0776    49.9829    41.4051     5.7570    12.0057    -999.25   237.7392  2617.1875  3561.2438   140.3636    -999.25     0.0000    -999.25     1.3343   337.7743    76.0000    65.0000    50.0000    45.0000
 2602.2300    49.9935    -999.25     5.4974    13.4321    -999.25   240.0747    -999.25  3561.2438   139.0000   136.0000    -999.25    -999.25     1.3339   337.7053    76.0000    65.0000    50.0000    45.0000
 2602.3824    49.9811    41.4051     5.7874    12.1492    18.0000   241.4764    -999.25  3561.2438   139.0000    -999.25    -999.25     0.0000     1.3344   337.8432    76.0000    65.0000    50.0000    45.0000
 2602.5348    49.9775    43.1124     5.8273    11.1869    -999.25   237.5811    -999.25  3561.2438   139.9091    -999.25    -999.25    -999.25     1.3344   337.8432    76.0000    65.0000    50.0000    45.0000
 2602.6872    49.9775    41.4051     5.8033    11.3260    -999.25   236.6048    -999.25  3561.2438   139.2727    -999.25    -999.25    -999.25     1.3343   337.8432    76.0000    65.0000    50.0000    45.0000
 2602.8396    49.9900    44.8541     5.6400    11.0134    -999.25   236.8259  2617.1875  3561.2438   139.4545    -999.25     0.0000    -999.25     1.3345   337.9122    76.0000    65.0000    50.0000    45.0000
 2602.9920    49.9829    39.7323     6.1076    10.5612    -999.25   237.3871    -999.25  3561.2438   139.7727    -999.25    -999.25    -999.25     1.3347   337.9811    76.0000    65.0000    50.0000    45.0000
 2603.1444    49.9829    43.1124     5.5208    10.6590    -999.25   237.4946    -999.25  3561.2438   139.0000    -999.25    -999.25     0.0000     1.3341   337.8432    76.0000    65.0000    50.0000    45.0000
 2603.2968    49.9083    41.4051     5.1012    11.9019    72.0000   236.6919    -999.25  3561.2438   139.0000    -999.25    -999.25    -999.25     1.3343   337.9122    76.0000    65.0000    50.0000    45.0000
 2603.4492    49.7456    46.6303     5.1684    10.8220    -999.25   236.5593    -999.25  3561.2438   139.0000    -999.25    -999.25    -999.25     1.3342   337.9122    76.0000    65.0000    50.0000    45.0000
 2603.6016    49.5351    46.6303     5.0720    10.5420    -999.25   236.1962    -999.25  3561.2438   139.0000    -999.25    -999.25    -999.25     1.3344   337.9811    76.0000    65.0000    50.0000    45.0000
 2603.7540    49.3212    39.7323     5.1779    10.3944    -999.25   235.8141  2617.1875  3561.2438   139.0000    -999.25     0.0000    -999.25     1.3338   337.8432    76.0000    65.0000    50.0000    45.0000
 2603.9064    49.1279    44.8541     5.1873    10.2745    -999.25   235.5464    -999.25  3561.2438   139.2609   138.0000    -999.25    -999.25     1.3335   337.7743    76.0000    65.0000    50.0000    45.0000
 2604.0588    48.9294    41.4051     5.1274    10.3971     9.0000   235.3061    -999.25  3561.2438   139.9091    -999.25    -999.25     0.0000     1.3350   338.1880    76.0000    65.0000    50.0000    45.0000
 2604.2112    48.8443    46.6303     5.1792     9.7337    -999.25   235.3707    -999.25  3561.2438   139.0000    -999.25    -999.25    -999.25     1.3355   338.3259    76.0000    65.0000    50.0000    45.0000
 2604.3636    48.8494    -999.25     5.1524     9.7840    -999.25   235.2721    -999.25  3561.2438   139.0000    -999.25    -999.25    -999.25     1.3338   337.9122    76.0000    65.0000    50.0000    45.0000
 2604.5160    48.8732    43.1124     5.0022     9.9845    -999.25   235.6633  2617.1875  3561.2438   139.0000    -999.25     0.0000    -999.25     1.3335   337.8432    76.0000    65.0000    50.0000    45.0000
 2604.6684    48.8749    43.1124     5.1573    10.0889    -999.25   235.9457    -999.25  3561.2438   139.3333    -999.25    -999.25    -999.25     1.3345   338.1190    76.0000    65.0000    50.0000    45.0000
 2604.8208    48.9738    -999.25     4.6981    10.0226    -999.25   236.0430    -999.25  3561.2438   140.0000   137.0000    -999.25     0.0000     1.3355   338.3948    76.0000    65.0000    50.0000    45.0000
 2604.9732    49.1468    39.7323     4.7361     9.7578     9.0000   236.0632    -999.25  3561.2438   140.0000    -999.25    -999.25    -999.25     1.3352   338.3259    76.0000    65.0000    50.0000    45.0000
 2605.1256    49.3471    43.1124     4.7551    10.4997    -999.25   235.9733    -999.25  3561.2438   139.0909    -999.25    -999.25    -999.25     1.3351   338.3259    76.0000    65.0000    50.0000    45.0000
 2605.2780    49.5683    -999.25     6.1728     9.5501    -999.25   236.3780    -999.25  3561.2438   139.0000    -999.25    -999.25    -999.25     1.3342   338.1190    76.0000    65.0000    50.0000    45.0000
 2605.4304    49.7862    44.8541     8.6724     9.8358    -999.25   236.3624  2617.1875  3561.2438   139.4091    -999.25     0.0000    -999.25     1.3350   338.3259    76.0000    65.0000    50.0000    45.0000
 2605.5828    45.1048    48.4410     8.2732    12.4757    15.0000   237.1499    -999.25  3561.2438   139.3913   138.0000    -999.25     0.0000     1.3355   338.4638    76.0000    65.0000    50.0000    45.0000
 2605.7352    39.7982    -999.25     7.2908    14.2871    -999.25   242.6939    -999.25  3561.2438   140.0000    -999.25    -999.25    -999.25     1.3357   338.5327    76.0000    65.0000    50.0000    45.0000
 2605.8876    37.1036    -999.25     9.3835    10.3567    -999.25   238.0767  2617.1875  3561.2438   139.5714   132.0000     0.0000    -999.25     1.3351   338.3948    76.0000    65.0000    50.0000    45.0000
 2606.0400    35.3516    75.1190     9.9094    10.3867    18.0000   238.2803    -999.25  3561.2438   139.7298    -999.25    -999.25     0.0000     1.3347   338.3259    76.0000    65.0000    50.0000    45.0000
 2606.1924    33.7706    -999.25    11.4667    14.6222    -999.25   240.8007    -999.25  3561.2438   139.7778    -999.25    -999.25    -999.25     1.3352   338.4638    76.0000    65.0000    50.0000    45.0000
 2606.3448    32.3086    75.1190    10.3985    15.2642    -999.25   243.4084  2617.1875  3561.2438   140.0811    -999.25     0.0000    -999.25     1.3359   338.6706    76.0000    65.0000    50.0000    45.0000
 2606.4972    31.0569    -999.25     9.0274    17.2756    45.0000   248.2412    -999.25  3561.2438   139.8889    -999.25    -999.25     0.0000     1.3361   338.7396    76.0000    65.0000    50.0000    45.0000
