~Version Information
VERS.             2.0 : CWLS log ASCII standard - Version 2.0
WRAP.             NO  : One line per depth step
#
~Well Information Block
#MNEM.UNIT                   Data Type:Information
#__________________________________________________________
 STRT .M           2778.09960  :START INDEX                  
  STOP.M           3749.9544 : STOP INDEX                    
  STEP.M              0.1524 : STEP                          
  NULL.              -999.25 : NULL VALUE                    
  COMP.           StatoilHydro : COMPANY                       
  WELL.            15/9-F-14 : WELL                          
   FLD.                Volve : FIELD                         
   LOC.            North Sea : LOCATION                      
  PROV.                      : PROVINCE                      
  CNTY.                      : COUNTY                        
  STAT.                      : STATE                         
  CTRY.               Norway : COUNTRY                       
  SRVC.              SLB D&M : SERVICE COMPANY               
  DATE.                      : LOG DATE                      
   UWI.                      : UNIQUE WELL ID                
   API.                      : API NUMBER                    
#
~Curve Information Block
#MNEM.UNIT                     : Curve Description
#---------                     --------------------
DEPT        .M                 : Bit Depth 2hz                                                   
ROP5        .M/HR              : 5ft ROP 2hz                                                     
GRMA_ECO_RT .GAPI              : Gamma Ray, Average, Real-Time                                   
Stick_RT    .RPM               : MWD PKtoPK RPM 2hz                                              
SWOB        .KKGF              : Surface Weight on Bit 2hz                                       
SHKRSK_RT   .----              : MWD SHKRSK 2hz                                                  
SHKPK_RT    .G                 : MWD SHK_PK 2hz                                                  
RPM         .RPM               : SRF SRPM 2hz                                                    
TRPM_RT     .RPM               : MWD TUR_RPM 2hz                                                 
CRPM_RT     .RPM               : MWD CRPM 2hz                                                    
TFLO        .LPM               : HSPM Total Pump Flow 2hz                                        
DHAT        .DEGC              : Downhole Annulus Temperature                                    
DHAP        .BAR               : Downhole Annulus Pressure                                       
TQA         .KMN               : SRF STOR 2hz                                                    
ECD         .G/C3              : Equivalent Circulating Density                                  
SPPA        .BAR               : SRF PUMPRS 2hz                                                  
SPM1        .----              : SRF SPM1 2hz                                                    
SPM2        .----              : SRF SPM2 2hz                                                    
SPM3        .----              : SRF SPM3 2hz                                                    
#
~Parameter Information Block
#MNEM.UNIT                       Value:Description
#__________________________________________________________
#
~Other Information Block

#
~A    DEPT       ROP5 GRMA_ECO_RT   Stick_RT       SWOB  SHKRSK_RT   SHKPK_RT        RPM    TRPM_RT    CRPM_RT       TFLO       DHAT       DHAP        TQA        ECD       SPPA       SPM1       SPM2       SPM3
# ...
 3491.3316      23.88     -999.25    -999.25       8.90    -999.25    -999.25     179.00    2812.50     176.00    1962.83      85.00     437.75      14.59       1.49     178.31       0.00      44.00      45.00
 3491.4840      23.82       14.03    -999.25       7.56    -999.25    -999.25     178.40    -999.25    -999.25    1962.83      85.00     437.33      14.63       1.49     178.02       0.00      44.00      45.00
 3491.6364      23.75     -999.25    -999.25       8.34       0.00       0.00     179.00    -999.25    -999.25    1962.83      86.00     438.64      15.10       1.49     178.03       0.00      44.00      45.00
 3491.7888      23.65       18.83      96.00       8.37    -999.25    -999.25     179.00    2812.50    -999.25    1962.83      86.00     438.02      15.37       1.49     178.07       0.00      44.00      45.00
 3491.9412      23.65     -999.25    -999.25       8.39    -999.25    -999.25     179.49    -999.25     179.00    1962.83      86.00     437.89      14.89       1.49     178.42       0.00      44.00      45.00
 3492.0936      23.54       18.83    -999.25       8.72       0.00       0.00     179.13    -999.25    -999.25    1962.83      86.00     437.75      16.50       1.49     178.88       0.00      44.00      45.00
 3492.2460      23.47     -999.25      87.00       8.72    -999.25    -999.25     179.23    -999.25    -999.25    1962.83      86.00     437.92      15.89       1.49     178.16       0.00      44.00      45.00
 3492.3984      23.37       17.63    -999.25       7.46    -999.25    -999.25     179.43    2812.50     173.00    1962.83      86.00     437.61      14.96       1.49     178.08       0.00      44.00      45.00
 3492.5508      23.25     -999.25    -999.25       7.69       0.00       0.00     179.02    -999.25    -999.25    1962.83      86.00     438.47      15.95       1.49     178.23       0.00      44.00      45.00
 3492.7032      23.25       17.63    -999.25       7.60    -999.25    -999.25     178.98    -999.25    -999.25    1962.83      86.00     438.23      14.96       1.49     178.32       0.00      44.00      45.00
 3492.8556      23.17       12.87      93.00       8.71    -999.25    -999.25     179.85    2812.50    -999.25    1962.83      86.00     437.61      15.71       1.49     178.48       0.00      44.00      45.00
 3493.0080      23.10     -999.25    -999.25       8.30    -999.25    -999.25     178.62    -999.25     178.00    1962.83      86.00     437.82      14.55       1.49     178.27       0.00      44.00      45.00
 3493.1604      23.04       14.03    -999.25       8.75       0.00       0.00     179.14    -999.25    -999.25    1962.83      86.00     437.61      15.64       1.49     178.60       0.00      44.00      45.00
 3493.3128      23.01     -999.25      90.00       8.63    -999.25    -999.25     179.52    2812.50    -999.25    1962.83      86.00     437.89      13.87       1.49     178.29       0.00      44.00      45.00
 3493.4652      23.05       15.23    -999.25       8.43    -999.25    -999.25     179.32    -999.25     177.00    1962.83      86.00     437.89      13.75       1.49     178.54       0.00      44.00      45.00
 3493.6176      23.00     -999.25    -999.25       8.70       0.00       0.00     179.86    -999.25    -999.25    1962.83      86.00     437.99      14.75       1.49     178.70       0.00      44.00      45.00
 3493.7700      23.16       16.46      72.00       8.60    -999.25    -999.25     179.56    -999.25    -999.25    1962.83      86.00     438.02      14.03       1.49     178.65       0.00      44.00      45.00
 3493.9224      23.36     -999.25    -999.25       8.93    -999.25    -999.25     179.67    2812.50     177.00    1962.83      86.00     438.37      13.90       1.49     178.82       0.00      44.00      45.00
 3494.0748      23.65       10.64    -999.25       9.02    -999.25    -999.25     179.05    -999.25    -999.25    1962.83      87.00     437.40      13.61       1.49     178.74       0.00      44.00      45.00
 3494.2272      23.97     -999.25    -999.25       8.56       0.00       0.00     180.00    -999.25    -999.25    1962.83      87.00     438.51      15.56       1.49     178.83       0.00      44.00      45.00
 3494.3796      24.16       11.74      75.00       9.23    -999.25    -999.25     179.82    -999.25    -999.25    1962.83      87.00     437.75      16.90       1.49     179.09       0.00      44.00      45.00
 3494.5320      24.75     -999.25    -999.25       9.24    -999.25    -999.25     179.46    2812.50     174.00    1962.83      87.00     438.16      15.84       1.49     178.91       0.00      44.00      45.00
 3494.6844      25.20       16.47    -999.25       8.53       0.00       0.00     180.00    -999.25    -999.25    1962.83      87.00     438.16      15.64       1.49     178.42       0.00      44.00      45.00
 3494.8368      25.19     -999.25    -999.25       8.32    -999.25    -999.25     178.96    -999.25    -999.25    1962.83      87.00     438.58      15.48       1.49     178.00       0.00      44.00      45.00
 3494.9892      25.17       17.63     141.00       8.29    -999.25    -999.25     179.49    2812.50    -999.25    1962.83      87.00     437.54      14.39       1.49     177.75       0.00      44.00      45.00
 3495.1416      25.33       16.46    -999.25       9.15    -999.25    -999.25     180.32    -999.25     176.00    1962.83      87.00     438.54      13.33       1.49     177.58       0.00      44.00      45.00
 3495.2940      25.31     -999.25    -999.25       8.49       0.00       0.00     180.00    -999.25    -999.25    1962.83      87.00     438.30      14.50       1.49     178.10       0.00      44.00      45.00
 3495.4464      25.15       14.03      90.00       9.55    -999.25    -999.25     179.40    -999.25    -999.25    1962.83      87.00     438.64      14.67       1.49     178.44       0.00      44.00      45.00
 3495.5988      24.86     -999.25    -999.25       8.53    -999.25    -999.25     179.53    2812.50     162.00    1962.83      87.00     437.75      14.27       1.49     178.51       0.00      44.00      45.00
 3495.7512      24.36       15.23    -999.25       8.86       0.00       0.00     179.37    -999.25    -999.25    1962.83      87.00     438.44      15.93       1.49     178.50       0.00      44.00      45.00
 3495.9036      24.09     -999.25    -999.25       8.57    -999.25    -999.25     179.16    -999.25    -999.25    1962.83      87.00     438.30      16.01       1.49     178.80       0.00      44.00      45.00
 3496.0560      23.42       15.23     102.00       9.35    -999.25    -999.25     179.18    2812.50     174.00    1962.83      87.00     439.06      15.99       1.49     178.06       0.00      44.00      45.00
 3496.2084      22.86       15.23    -999.25       8.74       0.00       0.00     179.50    -999.25    -999.25    1962.83      87.00     438.27      15.30       1.49     177.99       0.00      44.00      45.00
 3496.3608      22.76     -999.25    -999.25       9.52    -999.25    -999.25     179.46    -999.25    -999.25    1962.83      87.00     438.78      15.21       1.49     177.93       0.00      44.00      45.00
 3496.5132      22.40       15.23     102.00       8.67    -999.25    -999.25     180.00    2812.50    -999.25    1962.83      87.00     438.09      14.45       1.49     178.27       0.00      44.00      45.00
 3496.6656      22.07     -999.25    -999.25       8.87       0.00       0.00     179.52    -999.25     179.00    1962.83      87.00     439.13      14.38       1.49     178.50       0.00      44.00      45.00
 3496.8180      21.79       17.63    -999.25       8.88    -999.25    -999.25     179.49    -999.25    -999.25    1962.83      87.00     438.02      14.27       1.49     179.23       0.00      44.00      45.00
 3496.9704      10.93     -999.25      24.00       6.38       0.00       0.00     179.50    2812.50     177.00    1962.83      87.00     437.89      12.75       1.49     179.53       0.00      44.00      45.00
 3497.1228      10.30       18.83      30.00       6.50    -999.25    -999.25     179.75    2773.44     177.00    1962.83      88.00     438.78      12.67       1.49     180.05       0.00      44.00      45.00
