~Version Information
VERS.             2.0 : CWLS log ASCII standard - Version 2.0
WRAP.             NO  : One line per depth step
#
~Well Information Block
#MNEM.UNIT                   Data Type:Information
#__________________________________________________________
 STRT .M           2778.09960  :START INDEX                  
  STOP.M           3749.9544 : STOP INDEX                    
  STEP.M              0.1524 : STEP                          
  NULL.              -999.25 : NULL VALUE                    
  COMP.           StatoilHydro : COMPANY                       
  WELL.            15/9-F-14 : WELL                          
   FLD.                Volve : FIELD                         
   LOC.            North Sea : LOCATION                      
  PROV.                      : PROVINCE                      
  CNTY.                      : COUNTY                        
  STAT.                      : STATE                         
  CTRY.               Norway : COUNTRY                       
  SRVC.              SLB D&M : SERVICE COMPANY               
  DATE.                      : LOG DATE                      
   UWI.                      : UNIQUE WELL ID                
   API.                      : API NUMBER                    
#
~Curve Information Block
#MNEM.UNIT                     : Curve Description
#---------                     --------------------
DEPT        .M                 : Bit Depth 2hz                                                   
ROP5        .M/HR              : 5ft ROP 2hz                                                     
GRMA_ECO_RT .GAPI              : Gamma Ray, Average, Real-Time                                   
Stick_RT    .RPM               : MWD PKtoPK RPM 2hz                                              
SWOB        .KKGF              : Surface Weight on Bit 2hz                                       
SHKRSK_RT   .----              : MWD SHKRSK 2hz                                                  
SHKPK_RT    .G                 : MWD SHK_PK 2hz                                                  
RPM         .RPM               : SRF SRPM 2hz                                                    
TRPM_RT     .RPM               : MWD TUR_RPM 2hz                                                 
CRPM_RT     .RPM               : MWD CRPM 2hz                                                    
TFLO        .LPM               : HSPM Total Pump Flow 2hz                                        
DHAT        .DEGC              : Downhole Annulus Temperature                                    
DHAP        .BAR               : Downhole Annulus Pressure                                       
TQA         .KMN               : SRF STOR 2hz                                                    
ECD         .G/C3              : Equivalent Circulating Density                                  
SPPA        .BAR               : SRF PUMPRS 2hz                                                  
SPM1        .----              : SRF SPM1 2hz                                                    
SPM2        .----              : SRF SPM2 2hz                                                    
SPM3        .----              : SRF SPM3 2hz                                                    
#
~Parameter Information Block
#MNEM.UNIT                       Value:Description
#__________________________________________________________
#
~Other Information Block

#
~A    DEPT       ROP5 GRMA_ECO_RT   Stick_RT       SWOB  SHKRSK_RT   SHKPK_RT        RPM    TRPM_RT    CRPM_RT       TFLO       DHAT       DHAP        TQA        ECD       SPPA       SPM1       SPM2       SPM3
# ...
 3229.8132      22.07     -999.25     174.00       4.92       0.00       0.00     159.00    -999.25    -999.25    1962.83      80.00     426.03      15.06       1.48     176.96       0.00      44.00      45.00
 3229.9656      20.52       32.59    -999.25       5.18    -999.25    -999.25     159.55    2773.44     160.00    1962.83      81.00     425.96      13.42       1.48     176.43       0.00      44.00      45.00
 3230.1180      19.53     -999.25    -999.25       4.58       0.00       0.00     159.17    -999.25    -999.25    1962.83      81.00     426.17      13.36       1.48     176.95       0.00      44.00      45.00
 3230.2704      15.71       35.74     126.00       1.43       0.00       0.00     159.29    2773.44     158.00    1962.83      81.00     426.23      11.72       1.48     178.53       0.00      44.00      45.00
 3230.4228      15.71     -999.25    -999.25       2.60       0.00       0.00     159.81    -999.25    -999.25    1962.83      81.00     426.20      10.40       1.48     179.36       0.00      44.00      45.00
 3230.5752      15.71       47.78    -999.25       3.46    -999.25    -999.25     159.50    -999.25    -999.25    1962.83      81.00     425.27      11.01       1.48     179.40       0.00      44.00      45.00
 3230.7276      15.71     -999.25      21.00       3.74    -999.25    -999.25     160.00    2773.44    -999.25    1962.83      81.00     426.10      12.04       1.48     179.19       0.00      44.00      45.00
 3230.8800      15.83       59.91    -999.25       3.97    -999.25    -999.25     160.00    -999.25     156.00    1962.83      81.00     425.96      12.68       1.48     179.65       0.00      44.00      45.00
 3231.0324      16.33     -999.25    -999.25       4.50       0.00       0.00     159.42    -999.25    -999.25    1962.83      81.00     426.58      13.18       1.49     179.62       0.00      44.00      45.00
 3231.1848      17.14       59.91    -999.25       3.79    -999.25    -999.25     160.68    -999.25    -999.25    1962.83      81.00     426.44      12.94       1.49     179.63       0.00      44.00      45.00
 3231.3372      19.21       65.62      51.00       4.37    -999.25    -999.25     160.19    -999.25    -999.25    1962.83      81.00     427.13      13.00       1.49     179.22       0.00      44.00      45.00
 3231.4896      20.45     -999.25    -999.25       4.92    -999.25    -999.25     159.00    2773.44     156.00    1962.83      81.00     427.06      12.23       1.49     178.75       0.00      44.00      45.00
 3231.6420      21.34     -999.25    -999.25       4.68       0.00       0.00     159.00    -999.25    -999.25    1962.83      81.00     426.85      13.62       1.49     178.92       0.00      44.00      45.00
 3231.7944      28.66       57.37    -999.25       4.76    -999.25    -999.25     159.62    -999.25    -999.25    1962.83      81.00     427.13      12.96       1.49     179.27       0.00      44.00      45.00
 3231.9468      28.37     -999.25      72.00       4.80    -999.25    -999.25     159.00    2773.44    -999.25    1962.83      81.00     426.20      13.33       1.48     179.06       0.00      44.00      45.00
 3232.0992      28.20       47.92    -999.25       3.81    -999.25    -999.25     159.65    -999.25     154.00    1962.83      81.00     426.44      13.25       1.49     179.33       0.00      44.00      45.00
 3232.2516      28.22     -999.25    -999.25       3.99       0.00       0.00     159.58    -999.25    -999.25    1962.83      81.00     426.34      13.41       1.48     178.93       0.00      44.00      45.00
 3232.4040      28.22       35.42    -999.25       3.61    -999.25    -999.25     160.08    -999.25    -999.25    1962.83      81.00     426.51      12.66       1.49     178.96       0.00      44.00      45.00
 3232.5564      28.20     -999.25      93.00       4.75    -999.25    -999.25     160.21    -999.25    -999.25    1962.83      81.00     426.72      13.27       1.49     179.22       0.00      44.00      45.00
 3232.7088      28.06       40.70    -999.25       4.07    -999.25    -999.25     159.67    2773.44     157.00    1962.83      81.00     426.30      13.34       1.48     179.11       0.00      44.00      45.00
 3232.8612      27.96     -999.25    -999.25       4.78    -999.25    -999.25     159.00    -999.25    -999.25    1962.83      81.00     427.20      13.37       1.49     178.35       0.00      44.00      45.00
 3233.0136      27.99       34.15    -999.25       4.76       0.00       0.00     159.00    -999.25    -999.25    1962.83      81.00     427.13      12.99       1.49     178.41       0.00      44.00      45.00
 3233.1660      28.10     -999.25      63.00       4.56    -999.25    -999.25     159.00    -999.25    -999.25    1962.83      81.00     426.51      13.34       1.49     178.73       0.00      44.00      45.00
 3233.3184      28.33       37.36    -999.25       4.15    -999.25    -999.25     159.00    2773.44     157.00    1962.83      81.00     426.92      13.39       1.49     178.59       0.00      44.00      45.00
 3233.4708      28.40     -999.25    -999.25       4.01    -999.25    -999.25     159.70    -999.25    -999.25    1962.83      81.00     427.54      13.04       1.49     178.74       0.00      44.00      45.00
 3233.6232      28.39       39.02    -999.25       4.15       0.00       0.00     159.51    -999.25    -999.25    1962.83      81.00     427.13      13.04       1.49     178.59       0.00      44.00      45.00
 3233.7756      28.35     -999.25      78.00       3.47    -999.25    -999.25     159.32    -999.25    -999.25    1962.83      81.00     427.48      13.89       1.49     179.11       0.00      44.00      45.00
 3233.9280      28.36       44.18    -999.25       3.77    -999.25    -999.25     160.00    2773.44     155.00    1962.83      81.00     426.92      12.71       1.49     179.20       0.00      44.00      45.00
 3234.0804      28.43     -999.25    -999.25       3.95    -999.25    -999.25     159.35    -999.25    -999.25    1962.83      81.00     425.27      12.94       1.48     178.73       0.00      44.00      45.00
 3234.2328      28.53      166.62    -999.25       4.07       0.00       0.00     159.00    -999.25    -999.25    1962.83      81.00     424.10      13.87       1.48     179.03       0.00      44.00      45.00
 3234.3852      28.55     -999.25    -999.25       4.02    -999.25    -999.25     159.00    -999.25    -999.25    1962.83      81.00     426.10      13.27       1.48     179.24       0.00      44.00      45.00
 3234.5376      28.74       63.51      93.00       4.19    -999.25    -999.25     159.00    2773.44    -999.25    1962.83      81.00     426.92      13.17       1.49     179.33       0.00      44.00      45.00
 3234.6900      28.92     -999.25    -999.25       4.11    -999.25    -999.25     159.00    -999.25     156.00    1962.83      81.00     426.48      14.05       1.49     179.53       0.00      44.00      45.00
 3234.8424      29.01       61.43    -999.25       4.32       0.00       0.00     160.51    -999.25    -999.25    1962.83      81.00     425.96      13.49       1.48     180.16       0.00      44.00      45.00
 3234.9948      29.15     -999.25    -999.25       4.68    -999.25    -999.25     159.39    -999.25    -999.25    1962.83      81.00     426.85      14.21       1.49     180.14       0.00      44.00      45.00
 3235.1472      29.35       53.77      84.00       3.50    -999.25    -999.25     159.38    2773.44    -999.25    1962.83      81.00     426.23      12.87       1.48     180.09       0.00      44.00      45.00
 3235.2996      29.41     -999.25    -999.25       3.45    -999.25    -999.25     159.76    -999.25     165.00    1962.83      81.00     425.30      13.50       1.48     179.54       0.00      44.00      45.00
 3235.4520      29.44       51.78    -999.25       4.26       0.00       0.00     159.00    -999.25    -999.25    1962.83      81.00     424.44      12.10       1.48     179.78       0.00      44.00      45.00
 3235.6044      29.49     -999.25    -999.25       4.54    -999.25    -999.25     159.65    -999.25    -999.25    1962.83      81.00     424.30      12.45       1.48     179.65       0.00      44.00      45.00
