~Version Information
VERS.             2.0 : CWLS log ASCII standard - Version 2.0
WRAP.             NO  : One line per depth step
#
~Well Information Block
#MNEM.UNIT                   Data Type:Information
#__________________________________________________________
 STRT .M           2778.09960  :START INDEX                  
  STOP.M           3749.9544 : STOP INDEX                    
  STEP.M              0.1524 : STEP                          
  NULL.              -999.25 : NULL VALUE                    
  COMP.           StatoilHydro : COMPANY                       
  WELL.            15/9-F-14 : WELL                          
   FLD.                Volve : FIELD                         
   LOC.            North Sea : LOCATION                      
  PROV.                      : PROVINCE                      
  CNTY.                      : COUNTY                        
  STAT.                      : STATE                         
  CTRY.               Norway : COUNTRY                       
  SRVC.              SLB D&M : SERVICE COMPANY               
  DATE.                      : LOG DATE                      
   UWI.                      : UNIQUE WELL ID                
   API.                      : API NUMBER                    
#
~Curve Information Block
#MNEM.UNIT                     : Curve Description
#---------                     --------------------
DEPT        .M                 : Bit Depth 2hz                                                   
ROP5        .M/HR              : 5ft ROP 2hz                                                     
GRMA_ECO_RT .GAPI              : Gamma Ray, Average, Real-Time                                   
Stick_RT    .RPM               : MWD PKtoPK RPM 2hz                                              
SWOB        .KKGF              : Surface Weight on Bit 2hz                                       
SHKRSK_RT   .----              : MWD SHKRSK 2hz                                                  
SHKPK_RT    .G                 : MWD SHK_PK 2hz                                                  
RPM         .RPM               : SRF SRPM 2hz                                                    
TRPM_RT     .RPM               : MWD TUR_RPM 2hz                                                 
CRPM_RT     .RPM               : MWD CRPM 2hz                                                    
TFLO        .LPM               : HSPM Total Pump Flow 2hz                                        
DHAT        .DEGC              : Downhole Annulus Temperature                                    
DHAP        .BAR               : Downhole Annulus Pressure                                       
TQA         .KMN               : SRF STOR 2hz                                                    
ECD         .G/C3              : Equivalent Circulating Density                                  
SPPA        .BAR               : SRF PUMPRS 2hz                                                  
SPM1        .----              : SRF SPM1 2hz                                                    
SPM2        .----              : SRF SPM2 2hz                                                    
SPM3        .----              : SRF SPM3 2hz                                                    
#
~Parameter Information Block
#MNEM.UNIT                       Value:Description
#__________________________________________________________
#
~Other Information Block

#
~A    DEPT       ROP5 GRMA_ECO_RT   Stick_RT       SWOB  SHKRSK_RT   SHKPK_RT        RPM    TRPM_RT    CRPM_RT       TFLO       DHAT       DHAP        TQA        ECD       SPPA       SPM1       SPM2       SPM3
 2778.0996      19.76        8.34      69.00       1.07    -999.25    -999.25      69.14    2304.69      69.00    1689.10      57.00     369.08       7.66       1.38     133.01       0.00      38.00      38.00
 2778.2520      19.76       11.15    -999.25       0.80       0.00       0.00      69.49    -999.25    -999.25    1689.10      57.00     368.66       7.17       1.38     132.45       0.00      38.00      38.00
 2778.4044      19.76        9.25    -999.25       1.19    -999.25    -999.25      69.89    -999.25    -999.25    1689.10      57.00     368.59       7.57       1.38     130.93       0.00      38.00      38.00
 2778.5568      19.76        9.25     381.00       0.63    -999.25    -999.25      69.55    2304.69      70.00    1689.10      57.00     368.59       7.30       1.38     130.71       0.00      38.00      38.00
 2778.7092      19.76       10.18    -999.25       0.76       0.00       0.00      69.54    -999.25    -999.25    1689.10      57.00     368.66       7.00       1.38     131.17       0.00      38.00      38.00
 2778.8616      19.76        6.58     381.00       0.79    -999.25    -999.25      70.00    -999.25    -999.25    1689.10      57.00     368.52       7.41       1.38     129.92       0.00      38.00      38.00
 2779.0140      19.76        6.64    -999.25       0.53    -999.25    -999.25      69.44    2304.69      60.00    1689.10      57.00     368.46       6.90       1.38     130.35       0.00      38.00      38.00
 2779.1664      19.76        9.25    -999.25       0.39       0.00       0.00      69.00    -999.25    -999.25    1689.10      57.00     368.25       7.18       1.38     130.34       0.00      38.00      38.00
 2779.3188      19.76       10.18      69.00       1.23    -999.25    -999.25      69.09    -999.25    -999.25    1689.10      57.00     368.39       7.28       1.38     129.75       0.00      38.00      38.00
 2779.4712      19.76        9.25    -999.25       1.00    -999.25    -999.25      69.27    2265.63      71.00    1689.10      57.00     368.39       7.20       1.38     131.27       0.00      38.00      38.00
 2779.6236      19.76        5.84    -999.25       1.13       0.00       0.00      69.47    -999.25    -999.25    1689.10      57.00     368.52       7.18       1.38     131.46       0.00      38.00      38.00
 2779.7760      19.77       10.18     381.00       1.61    -999.25    -999.25      69.46    -999.25    -999.25    1689.10      57.00     368.04       7.14       1.38     132.09       0.00      38.00      38.00
 2779.9284      19.77       12.15    -999.25       2.14    -999.25    -999.25      69.00    2304.69      69.00    1689.10      58.00     368.39       6.94       1.38     132.74       0.00      38.00      38.00
 2780.0808      19.76       11.15    -999.25       2.82       0.00       0.00      69.46    -999.25    -999.25    1689.10      58.00     368.46       7.36       1.38     133.17       0.00      38.00      38.00
 2780.2332      19.76       11.15     381.00       3.46    -999.25    -999.25      69.44    2265.63    -999.25    1689.10      58.00     368.73       7.41       1.38     135.33       0.00      38.00      38.00
 2780.3856      19.77       12.15    -999.25       4.23    -999.25    -999.25      69.07    -999.25      71.00    1689.10      58.00     368.39       6.91       1.38     136.46       0.00      38.00      38.00
 2780.5380      19.77       10.18    -999.25       4.07       0.00       0.00      69.98    -999.25    -999.25    1689.10      58.00     368.56       7.57       1.38     139.48       0.00      38.00      38.00
 2780.6904      19.77       16.47     381.00       5.10    -999.25    -999.25      69.52    2265.63    -999.25    1689.10      58.00     368.18       6.91       1.38     140.49       0.00      38.00      38.00
 2780.8428      19.77       16.47    -999.25       3.85    -999.25    -999.25      69.45    -999.25      69.00    1689.10      58.00     368.59       7.49       1.38     140.19       0.00      38.00      38.00
 2780.9952      19.77       14.24    -999.25       4.94       0.00       0.00      69.59    -999.25    -999.25    1689.10      58.00     368.59       7.57       1.38     139.14       0.00      38.00      38.00
 2781.1476      19.77     -999.25      99.00       3.22    -999.25    -999.25      69.91    2343.75    -999.25    1689.10      58.00     372.11       7.05       1.39     140.03       0.00      38.00      38.00
 2781.3000      19.76       10.64    -999.25       1.80       0.00       0.00      69.00    -999.25      68.00    1689.10      58.00     372.25       7.14       1.39     137.86       0.00      38.00      38.00
 2781.4524      19.76       10.18    -999.25       2.23    -999.25    -999.25      69.00    -999.25    -999.25    1689.10      58.00     372.11       7.24       1.39     134.38       0.00      38.00      38.00
 2781.6048      19.76       14.24     213.00       4.16    -999.25    -999.25      69.52    2226.56      70.00    1689.10      58.00     372.73       6.80       1.40     133.83       0.00      38.00      38.00
 2781.7572      19.75       10.18    -999.25       2.45       0.00       0.00      69.00    -999.25    -999.25    1689.10      58.00     372.25       7.38       1.39     137.38       0.00      38.00      38.00
 2781.9096      19.75       11.15     381.00       5.48    -999.25    -999.25      69.25    -999.25    -999.25    1689.10      58.00     372.11       7.77       1.39     136.75       0.00      38.00      38.00
 2782.0620      18.57       10.18    -999.25       7.71    -999.25    -999.25      70.00    2304.69      67.00    1689.10      58.00     372.45      10.78       1.39     132.33       0.00      38.00      38.00
 2782.2144      13.64        5.65     108.00       7.53       0.00       0.00      69.51    2265.63      72.00    1689.10      58.00     371.83       9.79       1.39     139.39       0.00      38.00      38.00
 2782.3668      11.41        9.25      81.00      10.11       0.00       0.00      69.60    2265.63      68.00    1689.10      59.00     372.11       8.59       1.39     144.45       0.00      38.00      38.00
 2782.5192       8.53       11.15     243.00      -0.07       0.00       0.00      67.37    2324.22      71.00    1689.10      59.00     372.59       8.18       1.39     145.12       0.00      38.00      38.00
 2782.6716       8.19       16.47    -999.25       0.11       0.00       0.00      69.56    -999.25    -999.25    1689.10      59.00     372.25       8.41       1.39     131.71       0.00      38.00      38.00
 2782.8240       7.88       16.46     381.00       0.39       0.00       0.00      69.24    2304.69      69.00    1689.10      59.00     372.66       7.70       1.39     130.11       0.00      38.00      38.00
 2782.9764       7.59       14.12      66.00       0.36    -999.25    -999.25      69.51    2304.69      71.00    1689.10      59.00     372.32       7.47       1.39     130.06       0.00      38.00      38.00
 2783.1288       7.32       10.43      48.00       1.60       0.00       0.00      69.97    -999.25    -999.25    1689.10      59.00     372.18       7.71       1.39     129.89       0.00      38.00      38.00
 2783.2812       7.07       11.74    -999.25       1.24       0.00       0.00      69.50    2304.69      69.00    1689.10      59.00     372.52       7.93       1.39     131.10       0.00      38.00      38.00
 2783.4336       6.83       16.46      63.00       1.61    -999.25    -999.25      69.52    2304.69      68.00    1689.10      59.00     372.45       7.66       1.39     130.64       0.00      38.00      38.00
 2783.5860       6.76       15.34      39.00       1.43       0.00       0.00      70.00    -999.25    -999.25    1689.10      59.00     372.42       8.03       1.39     130.67       0.00      38.00      38.00
 2783.7384       7.43       18.83    -999.25       0.23       0.00       0.00      69.73    2304.69      76.00    1689.10      59.00     372.32       7.50       1.39     130.34       0.00      38.00      38.00
 2783.8908       6.80       12.86      48.00       0.11       0.00       0.00      62.38    2304.69      63.00    1689.10      59.00     372.28       7.22       1.39     129.78       0.00      38.00      38.00
