~Version Information
VERS.             2.0 : CWLS log ASCII standard - Version 2.0
WRAP.             NO  : One line per depth step
#
~Well Information Block
#MNEM.UNIT                   Data Type:Information
#__________________________________________________________
 STRT .M           2778.09960  :START INDEX                  
  STOP.M           3749.9544 : STOP INDEX                    
  STEP.M              0.1524 : STEP                          
  NULL.              -999.25 : NULL VALUE                    
  COMP.           StatoilHydro : COMPANY                       
  WELL.            15/9-F-14 : WELL                          
   FLD.                Volve : FIELD                         
   LOC.            North Sea : LOCATION                      
  PROV.                      : PROVINCE                      
  CNTY.                      : COUNTY                        
  STAT.                      : STATE                         
  CTRY.               Norway : COUNTRY                       
  SRVC.              SLB D&M : SERVICE COMPANY               
  DATE.                      : LOG DATE                      
   UWI.                      : UNIQUE WELL ID                
   API.                      : API NUMBER                    
#
~Curve Information Block
#MNEM.UNIT                     : Curve Description
#---------                     --------------------
DEPT        .M                 : Bit Depth 2hz                                                   
ROP5        .M/HR              : 5ft ROP 2hz                                                     
GRMA_ECO_RT .GAPI              : Gamma Ray, Average, Real-Time                                   
Stick_RT    .RPM               : MWD PKtoPK RPM 2hz                                              
SWOB        .KKGF              : Surface Weight on Bit 2hz                                       
SHKRSK_RT   .----              : MWD SHKRSK 2hz                                                  
SHKPK_RT    .G                 : MWD SHK_PK 2hz                                                  
RPM         .RPM               : SRF SRPM 2hz                                                    
TRPM_RT     .RPM               : MWD TUR_RPM 2hz                                                 
CRPM_RT     .RPM               : MWD CRPM 2hz                                                    
TFLO        .LPM               : HSPM Total Pump Flow 2hz                                        
DHAT        .DEGC              : Downhole Annulus Temperature                                    
DHAP        .BAR               : Downhole Annulus Pressure                                       
TQA         .KMN               : SRF STOR 2hz                                                    
ECD         .G/C3              : Equivalent Circulating Density                                  
SPPA        .BAR               : SRF PUMPRS 2hz                                                  
SPM1        .----              : SRF SPM1 2hz                                                    
SPM2        .----              : SRF SPM2 2hz                                                    
SPM3        .----              : SRF SPM3 2hz                                                    
#
~Parameter Information Block
#MNEM.UNIT                       Value:Description
#__________________________________________________________
#
~Other Information Block

#
~A    DEPT       ROP5 GRMA_ECO_RT   Stick_RT       SWOB  SHKRSK_RT   SHKPK_RT        RPM    TRPM_RT    CRPM_RT       TFLO       DHAT       DHAP        TQA        ECD       SPPA       SPM1       SPM2       SPM3
# ...
 3425.9520      19.57       51.52    -999.25       7.55       0.00       0.00     180.00    -999.25    -999.25    1940.78      88.00     433.27      14.30       1.48     174.27       0.00      44.00      44.00
 3426.1044      19.54     -999.25    -999.25       7.56    -999.25    -999.25     179.41    -999.25    -999.25    1940.78      88.00     432.89      15.15       1.48     174.82       0.00      44.00      44.00
 3426.2568      19.55       45.96      42.00       7.64    -999.25    -999.25     179.64    2773.44     176.00    1940.78      88.00     433.34      15.54       1.48     174.17       0.00      44.00      44.00
 3426.4092      18.42       45.96    -999.25       6.63       0.00       0.00     179.69    -999.25    -999.25    1940.78      88.00     433.34      14.83       1.48     174.14       0.00      44.00      44.00
 3426.5616      16.91       47.78      33.00       6.40    -999.25    -999.25     179.27    2773.44     175.00    1940.78      88.00     433.89      14.14       1.49     174.01       0.00      44.00      44.00
 3426.7140      15.65     -999.25      48.00       5.16       0.00       0.00     179.59    2617.19    -999.25    1924.79      88.00     433.13      13.87       1.48     166.90       0.00      40.53      44.00
 3426.8664      14.57       47.78    -999.25       5.21       0.00       0.00     179.42    -999.25     178.00    1794.89      88.00     433.34      13.41       1.48     153.30       0.00      35.07      44.00
 3427.0188      13.64       45.96      24.00       5.13       0.00       0.00     179.57    2460.94     177.00    1792.26      88.00     433.40      12.94       1.48     153.23       0.00      36.50      44.00
 3427.1712      12.80     -999.25      18.00       5.35    -999.25    -999.25     179.66    2500.00     177.00    1751.48      88.00     433.13      11.84       1.48     152.27       0.00      36.91      44.00
 3427.3236      12.06       45.96    -999.25       5.77       0.00       0.00     179.26    -999.25    -999.25    1840.62      88.00     432.99      12.24       1.48     156.88       0.00      41.82      44.00
 3427.4760      11.57       45.96      15.00       5.87    -999.25    -999.25     179.72    2734.38     178.00    1940.78      88.00     433.68      12.79       1.49     170.41       0.00      44.00      44.00
 3427.6284      11.64       45.96    -999.25       6.84       0.00       0.00     179.92    -999.25    -999.25    1940.78      88.00     433.54      13.53       1.49     173.34       0.00      44.00      44.00
 3427.7808      11.64     -999.25      66.00       7.49    -999.25    -999.25     179.57    2773.44    -999.25    1940.78      88.00     433.71      14.18       1.49     173.55       0.00      44.00      44.00
 3427.9332      12.05       44.18    -999.25       7.05       0.00       0.00     179.82    -999.25     179.00    1940.78      88.00     433.06      15.61       1.48     173.29       0.00      44.00      44.00
 3428.0856      12.76       40.58    -999.25       7.07    -999.25    -999.25     179.48    -999.25    -999.25    1940.78      88.00     433.47      15.19       1.48     173.54       0.00      44.00      44.00
 3428.2380      13.57       47.78      51.00       7.00    -999.25    -999.25     179.74    2773.44     174.00    1940.78      88.00     433.61      15.50       1.49     173.34       0.00      44.00      44.00
 3428.3904      14.57     -999.25    -999.25       7.04       0.00       0.00     180.00    -999.25    -999.25    1940.78      88.00     433.13      16.03       1.48     173.21       0.00      44.00      44.00
 3428.5428      15.68       49.63      57.00       7.50    -999.25    -999.25     179.20    -999.25    -999.25    1940.78      88.00     433.58      14.56       1.49     173.42       0.00      44.00      44.00
 3428.6952      16.97       47.92    -999.25       7.27    -999.25    -999.25     179.82    2773.44     179.00    1940.78      88.00     433.34      13.85       1.48     173.32       0.00      44.00      44.00
 3428.8476      18.52       47.92    -999.25       7.28       0.00       0.00     179.17    -999.25    -999.25    1940.78      88.00     434.09      14.05       1.49     173.30       0.00      44.00      44.00
 3429.0000      19.79     -999.25      60.00       6.72    -999.25    -999.25     179.46    -999.25    -999.25    1940.78      88.00     434.16      13.53       1.49     173.51       0.00      44.00      44.00
 3429.1524      19.58       42.36    -999.25       7.64    -999.25    -999.25     178.13    2773.44     175.00    1940.78      88.00     433.23      14.61       1.48     173.43       0.00      44.00      44.00
 3429.3048      19.60       46.03    -999.25       7.07       0.00       0.00     179.86    -999.25    -999.25    1940.78      88.00     434.09      14.14       1.49     172.90       0.00      44.00      44.00
 3429.4572      19.64       49.63      87.00       6.44    -999.25    -999.25     178.96    -999.25    -999.25    1940.78      88.00     433.61      14.44       1.49     173.29       0.00      44.00      44.00
 3429.6096      19.70     -999.25    -999.25       7.20    -999.25    -999.25     178.98    2773.44     176.00    1940.78      88.00     433.47      15.10       1.48     173.05       0.00      44.00      44.00
 3429.7620      19.77       49.63    -999.25       7.44       0.00       0.00     179.00    -999.25    -999.25    1940.78      88.00     433.44      14.41       1.48     172.89       0.00      44.00      44.00
 3429.9144      19.69       49.63     105.00       6.58    -999.25    -999.25     179.50    2773.44    -999.25    1940.78      88.00     433.82      14.50       1.49     173.09       0.00      44.00      44.00
 3430.0668      19.70       53.43    -999.25       6.50    -999.25    -999.25     179.00    -999.25     178.00    1940.78      88.00     434.09      13.88       1.49     173.12       0.00      44.00      44.00
 3430.2192      19.73     -999.25    -999.25       7.14       0.00       0.00     179.13    -999.25    -999.25    1940.78      88.00     434.37      13.92       1.49     173.16       0.00      44.00      44.00
 3430.3716      19.69       49.83      96.00       6.57    -999.25    -999.25     179.32    2773.44    -999.25    1940.78      88.00     433.61      13.91       1.48     173.68       0.00      44.00      44.18
 3430.5240      19.70       40.58    -999.25       7.00    -999.25    -999.25     179.68    -999.25     179.00    1956.92      88.00     433.47      14.05       1.48     175.68       0.00      44.00      45.00
 3430.6764      19.69       47.78    -999.25       7.27       0.00       0.00     179.77    -999.25    -999.25    1962.83      88.00     433.75      14.20       1.49     176.51       0.00      44.00      45.00
 3430.8288      19.65     -999.25      84.00       6.64    -999.25    -999.25     179.77    2812.50    -999.25    1962.83      88.00     434.16      14.46       1.49     176.52       0.00      44.00      45.00
 3430.9812      19.61       51.52    -999.25       6.39       0.00       0.00     179.00    -999.25     178.00    1962.83      88.00     433.99      13.65       1.49     176.43       0.00      44.00      45.00
 3431.1336      19.60       51.52    -999.25       7.23    -999.25    -999.25     178.61    -999.25    -999.25    1962.83      88.00     433.40      13.94       1.48     176.61       0.00      44.00      45.00
 3431.2860      19.46     -999.25      84.00       6.36    -999.25    -999.25     179.88    2812.50     179.00    1962.83      88.00     433.89      13.57       1.49     176.99       0.00      44.00      45.00
 3431.4384      19.34       49.63    -999.25       7.42       0.00       0.00     179.00    -999.25    -999.25    1962.83      88.00     433.89      14.14       1.49     176.47       0.00      44.00      45.00
 3431.5908      19.17       51.52      90.00       6.44    -999.25    -999.25     179.65    -999.25    -999.25    1962.83      88.00     434.30      13.52       1.49     176.34       0.00      44.00      45.00
 3431.7432      18.98     -999.25    -999.25       6.90    -999.25    -999.25     179.67    2812.50     174.00    1962.83      88.00     434.09      14.64       1.49     175.87       0.00      44.00      45.00
