~Version Information
 VERS.             2.0 : CWLS log ASCII standard - Version 2.0
 WRAP.             NO  : One line per depth step
 #
 ~Well Information Block
 #MNEM.UNIT                   Data Type:Information
 #__________________________________________________________
 STRT  .M           1050.03600  :START INDEX                  
   2281.M           2281.5804 : STOP INDEX                    
 STEP  .M              0.15240  :STEP                         
 NULL  .              -999.25000  :NULL VALUE                 
   COMP.           StatoilHydro : COMPANY                       
   WELL.            15/9-F-14 : WELL                          
    FLD.                Volve : FIELD                         
    LOC.           Norwegian North Sea : LOCATION                      
   PROV.                      : PROVINCE                      
   CNTY.                      : COUNTY                        
   STAT.                      : STATE                         
   CTRY.               Norway : COUNTRY                       
   SRVC.           Schlumberger : SERVICE COMPANY               
   DATE.            14-May-08 : LOG DATE                      
    UWI.                      : UNIQUE WELL ID                
    API.                      : API NUMBER                    
 #
 STOP  .M      2281.58040     :STOP Depth
 ~Curve Information Block
 #MNEM.UNIT                     : Curve Description
 #---------                     --------------------
 DEPT        .M                 :Bit Depth 2hz                                                    
 ROP5        .M/HR              : 5ft ROP 2hz                                                     
 ARC_GR_UNC_RT.GAPI              : ARC Raw Gamma Ray, Real-Time                                    
 SWOB        .KKGF              : Surface Weight on Bit 2hz                                       
 TQA         .KMN               : SRF STOR 2hz                                                    
 RPM         .RPM               : SRF SRPM 2hz                                                    
 Stick_RT    .RPM               : MWD PKtoPK RPM 2hz                                              
 CRPM_RT     .RPM               : MWD CRPM 2hz                                                    
 TFLO        .LPM               : HSPM Total Pump Flow 2hz                                        
 TRPM_RT     .RPM               : MWD TUR_RPM 2hz                                                 
 SPPA        .BAR               : SRF PUMPRS 2hz                                                  
 SHKRSK_RT   .----              : MWD SHKRSK 2hz                                                  
 SHK2_RT     .----              : ARC Shock Level, Real-Time                                      
 SHK_ISONIC_RT.----              : Isonic Shock, Real-Time                                         
 PDSHKRSK    .----              : PowerDrive Shock Risk 2hz                                       
 SHKPK_RT    .G                 : MWD SHK_PK 2hz                                                  
 ECD_ARC     .SG                : Equivalent Circulating Density                                  
 APRS_ARC    .BAR               : ARC Annular Pressure                                            
 ATMP        .DEGC              : ARC Annular Temperature                                         
 #
 ~Parameter Information Block
 #MNEM.UNIT                       Value:Description
 #__________________________________________________________
 #
 ~Other Information Block
 
 #
 ~A    DEPT       ROP5 ARC_GR_UNC_RT       SWOB        TQA        RPM   Stick_RT    CRPM_RT       TFLO    TRPM_RT       SPPA  SHKRSK_RT    SHK2_RT SHK_ISONIC_RT   PDSHKRSK   SHKPK_RT    ECD_ARC   APRS_ARC       ATMP
# ...
 1785.5184     44.145       -999.25      4.372     10.599    159.400     15.000    -999.25   4271.993   3242.188    173.245    -999.25      0.000       -999.25      0.000    -999.25      1.327    232.078     49.000
 1785.6708     44.079       144.000      4.349     10.684    159.000    -999.25    -999.25   4271.993    -999.25    173.418    -999.25    -999.25       -999.25    -999.25    -999.25      1.328    232.147     49.000
 1785.8232     44.103       -999.25      4.307     10.598    159.000    -999.25    156.000   4271.993    -999.25    173.769      0.000    -999.25         0.000    -999.25     24.000      1.328    232.216     49.000
 1785.9756     44.142       147.016      4.445     10.646    159.333    -999.25    -999.25   4271.993    -999.25    173.627    -999.25    -999.25       -999.25    -999.25    -999.25      1.327    232.147     49.000
 1786.1280     44.176       -999.25      4.522     11.630    159.833     21.000    -999.25   4271.993   3242.188    173.448    -999.25      0.000       -999.25      0.000    -999.25      1.328    232.216     49.000
 1786.2804     44.220       144.000      4.503     10.974    159.120    -999.25    -999.25   4271.993    -999.25    173.626    -999.25    -999.25       -999.25    -999.25    -999.25      1.328    232.216     49.000
 1786.4328     44.240       -999.25      5.941     10.481    160.000    -999.25    154.000   4271.993    -999.25    172.796    -999.25    -999.25         0.000    -999.25    -999.25      1.328    232.284     49.000
 1786.5852     42.970       121.000     10.797     11.215    159.813    -999.25    -999.25   4271.993    -999.25    173.150      0.000    -999.25       -999.25    -999.25     24.000      1.328    232.284     49.000
 1786.7376     26.074       -999.25     10.578     14.429    159.115     42.000    156.000   4271.993   3261.719    173.137      0.000      0.000       -999.25      0.000     16.000      1.328    232.353     49.000
 1786.8900     25.724       132.250      4.831     13.020    158.065    273.000    -999.25   4271.993   3203.125    172.339    -999.25      0.000       -999.25      0.000    -999.25      1.328    232.284     49.000
 1787.0424     25.798       -999.25      4.424     13.232    160.000    -999.25    -999.25   4271.993    -999.25    173.164    -999.25    -999.25         0.000    -999.25    -999.25      1.327    232.284     49.000
 1787.1948     25.834       126.563      4.458     11.426    160.000    -999.25    157.000   4271.993    -999.25    173.590      0.000    -999.25       -999.25    -999.25      0.000      1.328    232.353     49.000
 1787.3472     25.833       -999.25      4.343     11.274    159.500    -999.25    -999.25   4271.993    -999.25    173.744    -999.25    -999.25       -999.25    -999.25    -999.25      1.328    232.422     49.000
 1787.4996     25.830       129.391      4.387     11.570    159.360    261.000    -999.25   4271.993   3242.188    173.951    -999.25      0.000       -999.25      0.000    -999.25      1.328    232.353     49.000
 1787.6520     25.830       -999.25      4.465     11.308    159.667    -999.25    -999.25   4271.993    -999.25    173.838    -999.25    -999.25         0.000    -999.25    -999.25      1.328    232.422     49.000
 1787.8044     25.826       153.141      4.411     10.558    159.000    -999.25    155.000   4271.993    -999.25    173.555    -999.25    -999.25       -999.25    -999.25    -999.25      1.328    232.422     49.000
 1787.9568     25.831       -999.25      4.733     11.216    159.000    -999.25    -999.25   4271.993    -999.25    173.329      0.000    -999.25       -999.25    -999.25     24.000      1.328    232.422     49.000
 1788.1092     26.322       141.016      4.650     10.204    159.000     42.000    -999.25   4271.993   3242.188    172.920    -999.25      0.000       -999.25      0.000    -999.25      1.328    232.491     49.000
 1788.2616     43.839       -999.25      4.695     11.063    159.000    -999.25    -999.25   4271.993    -999.25    174.152    -999.25    -999.25         0.000    -999.25    -999.25      1.328    232.491     49.000
 1788.4140     45.098       141.016      4.779     10.977    159.000    -999.25    156.000   4271.993    -999.25    173.680    -999.25    -999.25       -999.25    -999.25    -999.25      1.328    232.560     49.000
 1788.5664     45.089       -999.25      4.767     11.122    159.000    -999.25    -999.25   4271.993    -999.25    173.597      0.000    -999.25       -999.25    -999.25     24.000      1.328    232.560     49.000
 1788.7188     45.098       147.016      4.750     10.872    159.000    -999.25    -999.25   4271.993   3242.188    173.562    -999.25      0.000       -999.25      0.000    -999.25      1.328    232.560     49.000
 1788.8712     45.092       144.000      4.624     11.073    159.000     18.000    -999.25   4271.993    -999.25    173.614    -999.25    -999.25         0.000    -999.25    -999.25      1.328    232.629     49.000
 1789.0236     45.098       150.063      4.825     11.258    159.000    -999.25    -999.25   4271.993    -999.25    173.585    -999.25    -999.25       -999.25    -999.25    -999.25      1.328    232.698     49.000
 1789.1760     45.100       150.063      4.855     11.130    159.000    -999.25    157.000   4271.993    -999.25    173.637      0.000    -999.25       -999.25    -999.25     24.000      1.328    232.698     49.000
 1789.3284     45.106       141.016      4.857     11.401    159.000    -999.25    -999.25   4271.993   3242.188    174.204    -999.25      0.000       -999.25      0.000    -999.25      1.328    232.698     49.000
 1789.4808     45.103       138.063      4.886     11.015    159.000     18.000    -999.25   4271.993    -999.25    173.888    -999.25    -999.25         0.000    -999.25    -999.25      1.328    232.698     49.000
 1789.6332     45.100       135.141      4.742     11.246    159.000    -999.25    -999.25   4271.993    -999.25    174.197    -999.25    -999.25         0.000    -999.25    -999.25      1.328    232.767     49.000
 1789.7856     45.100       135.141      4.748     11.491    159.000    -999.25    158.000   4271.993    -999.25    173.167      0.000    -999.25         0.000    -999.25     24.000      1.328    232.767     49.000
 1789.9380     45.095       156.250      5.083     11.550    159.000    -999.25    -999.25   4271.993    -999.25    173.800    -999.25    -999.25       -999.25    -999.25    -999.25      1.328    232.836     49.000
 1790.0904     45.098       141.016      4.785     11.183    159.875      6.000    -999.25   4271.993   3203.125    174.004    -999.25      0.000       -999.25      0.000    -999.25      1.328    232.767     49.000
 1790.2428     45.089       132.250      5.009     10.859    160.000    -999.25    -999.25   4271.993    -999.25    173.424    -999.25    -999.25         0.000    -999.25    -999.25      1.327    232.629     49.000
 1790.3952     45.098       141.016      5.117     11.171    159.125    -999.25    156.000   4271.993    -999.25    173.537      0.000    -999.25       -999.25    -999.25     24.000      1.327    232.629     49.000
 1790.5476     45.098       144.000      4.996     11.179    158.208    -999.25    -999.25   4271.993    -999.25    174.154    -999.25    -999.25       -999.25    -999.25    -999.25      1.326    232.560     49.000
 1790.7000     45.109       147.016      4.784     11.336    159.280     12.000    -999.25   4271.993   3242.188    174.364    -999.25      0.000       -999.25      0.000    -999.25      1.326    232.422     49.000
 1790.8524     45.098       141.016      4.757     11.072    159.375    -999.25    -999.25   4271.993    -999.25    174.396    -999.25    -999.25         0.000    -999.25    -999.25      1.326    232.491     49.000
 1791.0048     45.103       147.016      4.817     11.036    159.458    -999.25    157.000   4271.993    -999.25    174.169      0.000    -999.25       -999.25    -999.25      0.000      1.325    232.422     49.000
 1791.1572     45.098       135.141      5.056     11.107    159.680    -999.25    -999.25   4271.993    -999.25    174.001    -999.25    -999.25       -999.25    -999.25    -999.25      1.325    232.422     49.000
