~Version Information
VERS.             2.0 : CWLS log ASCII standard - Version 2.0
WRAP.             NO  : One line per depth step
#
~Well Information Block
#MNEM.UNIT                   Data Type:Information
#__________________________________________________________
 STRT .M           2778.09960  :START INDEX                  
  STOP.M           3749.9544 : STOP INDEX                    
  STEP.M              0.1524 : STEP                          
  NULL.              -999.25 : NULL VALUE                    
  COMP.           StatoilHydro : COMPANY                       
  WELL.            15/9-F-14 : WELL                          
   FLD.                Volve : FIELD                         
   LOC.            North Sea : LOCATION                      
  PROV.                      : PROVINCE                      
  CNTY.                      : COUNTY                        
  STAT.                      : STATE                         
  CTRY.               Norway : COUNTRY                       
  SRVC.              SLB D&M : SERVICE COMPANY               
  DATE.                      : LOG DATE                      
   UWI.                      : UNIQUE WELL ID                
   API.                      : API NUMBER                    
#
~Curve Information Block
#MNEM.UNIT                     : Curve Description
#---------                     --------------------
DEPT        .M                 : Bit Depth 2hz                                                   
ROP5        .M/HR              : 5ft ROP 2hz                                                     
GRMA_ECO_RT .GAPI              : Gamma Ray, Average, Real-Time                                   
Stick_RT    .RPM               : MWD PKtoPK RPM 2hz                                              
SWOB        .KKGF              : Surface Weight on Bit 2hz                                       
SHKRSK_RT   .----              : MWD SHKRSK 2hz                                                  
SHKPK_RT    .G                 : MWD SHK_PK 2hz                                                  
RPM         .RPM               : SRF SRPM 2hz                                                    
TRPM_RT     .RPM               : MWD TUR_RPM 2hz                                                 
CRPM_RT     .RPM               : MWD CRPM 2hz                                                    
TFLO        .LPM               : HSPM Total Pump Flow 2hz                                        
DHAT        .DEGC              : Downhole Annulus Temperature                                    
DHAP        .BAR               : Downhole Annulus Pressure                                       
TQA         .KMN               : SRF STOR 2hz                                                    
ECD         .G/C3              : Equivalent Circulating Density                                  
SPPA        .BAR               : SRF PUMPRS 2hz                                                  
SPM1        .----              : SRF SPM1 2hz                                                    
SPM2        .----              : SRF SPM2 2hz                                                    
SPM3        .----              : SRF SPM3 2hz                                                    
#
~Parameter Information Block
#MNEM.UNIT                       Value:Description
#__________________________________________________________
#
~Other Information Block

#
~A    DEPT       ROP5 GRMA_ECO_RT   Stick_RT       SWOB  SHKRSK_RT   SHKPK_RT        RPM    TRPM_RT    CRPM_RT       TFLO       DHAT       DHAP        TQA        ECD       SPPA       SPM1       SPM2       SPM3
# ...
 3360.5724      17.84     -999.25    -999.25       4.17       0.00       0.00     169.40    -999.25     166.00    1962.83      85.00     427.44      14.10       1.48     175.45       0.00      44.00      45.00
 3360.7248      17.85       47.78    -999.25       4.50    -999.25    -999.25     168.80    -999.25    -999.25    1962.83      85.00     427.20      13.13       1.47     175.51       0.00      44.00      45.00
 3360.8772      17.88       44.18      75.00       3.66    -999.25    -999.25     169.58    2812.50     167.00    1962.83      85.00     426.99      14.61       1.47     175.18       0.00      44.00      45.00
 3361.0296      17.91     -999.25    -999.25       3.68       0.00       0.00     169.00    -999.25    -999.25    1962.83      85.00     427.27      13.54       1.47     174.99       0.00      44.00      45.00
 3361.1820      16.61       37.10      69.00       2.40    -999.25    -999.25     169.06    2812.50     168.00    1962.83      85.00     426.44      13.65       1.47     175.35       0.00      44.00      45.00
 3361.3344      15.49       45.96      45.00       2.16       0.00       0.00     169.00    -999.25    -999.25    1805.01      85.00     427.13      12.63       1.47     160.53       0.00      35.78      45.00
 3361.4868      14.50       51.52    -999.25       2.33       0.00       0.00     169.34    2656.25     169.00    1946.19      85.00     427.68      12.14       1.48     155.49       0.00      37.35      45.00
 3361.6392      13.64     -999.25      18.00       2.17    -999.25    -999.25     169.75    2578.13     167.00    1900.48      85.00     427.75      11.75       1.48     154.63       0.00      38.52      45.00
 3361.7916      12.87       47.78      18.00       2.16       0.00       0.00     169.83    2460.94    -999.25    1816.75      85.00     426.99      11.24       1.47     153.37       0.00      35.98      45.00
 3361.9440      12.14       49.63    -999.25       2.82       0.00       0.00     169.44    -999.25     168.00    1884.37      85.00     427.20      11.38       1.47     160.79       0.00      41.19      45.00
 3362.0964      11.93       47.78      12.00       3.84    -999.25    -999.25     169.00    2812.50     167.00    1962.83      85.00     427.27      11.41       1.47     174.28       0.00      44.00      45.00
 3362.2488      11.95     -999.25    -999.25       3.99       0.00       0.00     169.00    -999.25    -999.25    1962.83      85.00     427.99      11.95       1.48     175.26       0.00      44.00      45.00
 3362.4012      11.93       45.96      39.00       3.54    -999.25    -999.25     169.00    2812.50    -999.25    1962.83      85.00     428.03      12.61       1.48     175.64       0.00      44.00      45.00
 3362.5536      11.93       44.18    -999.25       3.28    -999.25    -999.25     169.00    -999.25     170.00    1962.83      85.00     427.30      12.43       1.47     175.23       0.00      44.00      45.00
 3362.7060      12.59       45.96    -999.25       3.43       0.00       0.00     169.00    -999.25    -999.25    1962.83      85.00     428.10      13.82       1.48     175.27       0.00      44.00      45.00
 3362.8584      13.34     -999.25      72.00       3.83    -999.25    -999.25     169.00    2812.50     165.00    1962.83      85.00     428.65      13.96       1.48     175.24       0.00      44.00      45.00
 3363.0108      14.19       42.36    -999.25       3.72       0.00       0.00     169.38    -999.25    -999.25    1962.83      85.00     427.13      14.07       1.47     175.00       0.00      44.00      45.00
 3363.1632      15.15       40.58      57.00       3.95    -999.25    -999.25     169.85    -999.25    -999.25    1962.83      85.00     427.27      13.75       1.47     175.10       0.00      44.00      45.00
 3363.3156      16.21       40.70    -999.25       3.83    -999.25    -999.25     169.89    2812.50     166.00    1962.83      85.00     428.03      13.14       1.48     174.82       0.00      44.00      45.00
 3363.4680      17.56     -999.25    -999.25       3.79       0.00       0.00     169.00    -999.25    -999.25    1962.83      85.00     427.82      13.48       1.48     174.81       0.00      44.00      45.00
 3363.6204      18.04       40.70      63.00       3.96    -999.25    -999.25     169.00    2812.50    -999.25    1962.83      85.00     427.82      12.92       1.48     174.66       0.00      44.00      45.00
 3363.7728      18.01       40.70    -999.25       3.45    -999.25    -999.25     170.02    -999.25     166.00    1962.83      85.00     428.10      13.83       1.48     174.53       0.00      44.00      45.00
 3363.9252      18.00     -999.25    -999.25       3.94       0.00       0.00     169.30    -999.25    -999.25    1962.83      86.00     427.58      14.25       1.48     174.93       0.00      44.00      45.00
 3364.0776      18.01       40.70      51.00       4.05    -999.25    -999.25     169.43    2812.50     167.00    1962.83      86.00     427.54      14.83       1.48     175.14       0.00      44.00      45.00
 3364.2300      17.99       40.58    -999.25       3.87       0.00       0.00     169.00    -999.25    -999.25    1962.83      86.00     427.41      13.89       1.47     174.98       0.00      44.00      45.00
 3364.3824      17.99       40.70      51.00       3.93    -999.25    -999.25     169.46    -999.25    -999.25    1962.83      86.00     428.10      14.00       1.48     175.22       0.00      44.00      45.00
 3364.5348      17.95       40.70    -999.25       4.15    -999.25    -999.25     169.44    2812.50     172.00    1962.83      86.00     427.89      13.78       1.48     175.67       0.00      44.00      45.00
 3364.6872      17.98       35.42    -999.25       3.97       0.00       0.00     169.46    -999.25    -999.25    1962.83      86.00     427.82      13.54       1.48     175.32       0.00      44.00      45.00
 3364.8396      17.97     -999.25      39.00       3.76    -999.25    -999.25     169.00    2812.50     169.00    1962.83      86.00     428.03      13.73       1.48     175.44       0.00      44.00      45.00
 3364.9920      17.98       30.55    -999.25       4.02       0.00       0.00     169.78    -999.25    -999.25    1962.83      86.00     427.75      13.88       1.48     175.30       0.00      44.00      45.00
 3365.1444      18.00       39.02      57.00       3.93    -999.25    -999.25     169.53    -999.25    -999.25    1962.83      86.00     427.75      13.57       1.48     174.96       0.00      44.00      45.00
 3365.2968      18.02       40.70    -999.25       4.37    -999.25    -999.25     169.44    2812.50     169.00    1962.83      86.00     428.10      13.92       1.48     175.03       0.00      44.00      45.00
 3365.4492      18.05     -999.25    -999.25       4.76       0.00       0.00     169.22    -999.25    -999.25    1962.83      86.00     428.51      14.06       1.48     175.01       0.00      44.00      45.00
 3365.6016      18.02       30.55      69.00       4.29    -999.25    -999.25     169.57    2812.50    -999.25    1962.83      86.00     428.44      14.23       1.48     174.68       0.00      44.00      45.00
 3365.7540      18.03       35.42    -999.25       4.00    -999.25    -999.25     169.16    -999.25     166.00    1962.83      86.00     428.51      14.60       1.48     174.89       0.00      44.00      45.00
 3365.9064      18.09       39.02    -999.25       4.47       0.00       0.00     169.52    -999.25    -999.25    1962.83      84.00     428.85      14.42       1.48     174.86       0.00      44.00      45.00
 3366.0588      18.19       37.10      57.00       4.01    -999.25    -999.25     168.97    2812.50     168.00    1962.83      84.00     427.85      14.17       1.48     175.13       0.00      44.00      45.00
 3366.2112      18.31     -999.25    -999.25       4.81       0.00       0.00     170.18    -999.25    -999.25    1962.83      84.00     428.92      14.64       1.48     174.96       0.00      44.00      45.00
 3366.3636      18.44     -999.25      66.00       3.71    -999.25    -999.25     170.02    -999.25    -999.25    1962.83      84.00     428.51      14.53       1.48     174.93       0.00      44.00      45.00
