~Version Information
VERS.             2.0 : CWLS log ASCII standard - Version 2.0
WRAP.             NO  : One line per depth step
#
~Well Information Block
#MNEM.UNIT                   Data Type:Information
#__________________________________________________________
 STRT .M           2778.09960  :START INDEX                  
  STOP.M           3749.9544 : STOP INDEX                    
  STEP.M              0.1524 : STEP                          
  NULL.              -999.25 : NULL VALUE                    
  COMP.           StatoilHydro : COMPANY                       
  WELL.            15/9-F-14 : WELL                          
   FLD.                Volve : FIELD                         
   LOC.            North Sea : LOCATION                      
  PROV.                      : PROVINCE                      
  CNTY.                      : COUNTY                        
  STAT.                      : STATE                         
  CTRY.               Norway : COUNTRY                       
  SRVC.              SLB D&M : SERVICE COMPANY               
  DATE.                      : LOG DATE                      
   UWI.                      : UNIQUE WELL ID                
   API.                      : API NUMBER                    
#
~Curve Information Block
#MNEM.UNIT                     : Curve Description
#---------                     --------------------
DEPT        .M                 : Bit Depth 2hz                                                   
ROP5        .M/HR              : 5ft ROP 2hz                                                     
GRMA_ECO_RT .GAPI              : Gamma Ray, Average, Real-Time                                   
Stick_RT    .RPM               : MWD PKtoPK RPM 2hz                                              
SWOB        .KKGF              : Surface Weight on Bit 2hz                                       
SHKRSK_RT   .----              : MWD SHKRSK 2hz                                                  
SHKPK_RT    .G                 : MWD SHK_PK 2hz                                                  
RPM         .RPM               : SRF SRPM 2hz                                                    
TRPM_RT     .RPM               : MWD TUR_RPM 2hz                                                 
CRPM_RT     .RPM               : MWD CRPM 2hz                                                    
TFLO        .LPM               : HSPM Total Pump Flow 2hz                                        
DHAT        .DEGC              : Downhole Annulus Temperature                                    
DHAP        .BAR               : Downhole Annulus Pressure                                       
TQA         .KMN               : SRF STOR 2hz                                                    
ECD         .G/C3              : Equivalent Circulating Density                                  
SPPA        .BAR               : SRF PUMPRS 2hz                                                  
SPM1        .----              : SRF SPM1 2hz                                                    
SPM2        .----              : SRF SPM2 2hz                                                    
SPM3        .----              : SRF SPM3 2hz                                                    
#
~Parameter Information Block
#MNEM.UNIT                       Value:Description
#__________________________________________________________
#
~Other Information Block

#
~A    DEPT       ROP5 GRMA_ECO_RT   Stick_RT       SWOB  SHKRSK_RT   SHKPK_RT        RPM    TRPM_RT    CRPM_RT       TFLO       DHAT       DHAP        TQA        ECD       SPPA       SPM1       SPM2       SPM3
# ...
 2974.2384      16.85       61.08      51.00       7.77    -999.25    -999.25     169.31    -999.25    -999.25    2067.15      75.00     409.14      11.66       1.47     184.52       0.00      48.00      45.00
 2974.3908      16.76       63.15    -999.25       7.43    -999.25    -999.25     169.40    2929.69     169.00    2067.15      75.00     409.20      12.49       1.47     185.14       0.00      48.00      45.00
 2974.5432      16.56     -999.25    -999.25       7.23       0.00       0.00     169.61    -999.25    -999.25    2067.15      75.00     408.65      11.51       1.46     185.14       0.00      48.00      45.00
 2974.6956      18.44       59.55      54.00       6.95    -999.25    -999.25     169.62    2968.75     167.00    2067.15      75.00     409.20      11.13       1.47     184.40       0.00      48.00      45.00
 2974.8480      18.11     -999.25    -999.25       7.00       0.00       0.00     169.36    -999.25    -999.25    2067.15      75.00     408.86      12.68       1.46     184.86       0.00      48.00      45.00
 2975.0004      17.82       57.48      60.00       6.61    -999.25    -999.25     169.00    -999.25    -999.25    2067.15      75.00     409.41      12.53       1.47     185.12       0.00      48.00      45.00
 2975.1528      17.59       47.62    -999.25       6.42    -999.25    -999.25     169.43    2929.69     171.00    2067.15      75.00     409.62      12.25       1.47     184.98       0.00      48.00      45.00
 2975.3052      17.68     -999.25    -999.25       6.53       0.00       0.00     169.45    -999.25    -999.25    2067.15      75.00     409.17      11.95       1.47     185.55       0.00      48.00      45.00
 2975.4576      17.75       45.74      57.00       6.96    -999.25    -999.25     169.12    2968.75    -999.25    2067.15      75.00     409.69      13.32       1.47     185.61       0.00      48.00      45.00
 2975.6100      17.71       49.53    -999.25       7.38    -999.25    -999.25     170.02    -999.25     164.00    2067.15      75.00     409.41      13.02       1.47     185.91       0.00      48.00      45.00
 2975.7624      17.49     -999.25    -999.25       6.93       0.00       0.00     169.58    -999.25    -999.25    2067.15      75.00     409.07      13.67       1.47     184.97       0.00      48.00      45.00
 2975.9148      17.60       63.15      54.00       5.93    -999.25    -999.25     169.08    2929.69     158.00    2067.15      75.00     406.72      13.83       1.46     185.17       0.00      48.00      45.00
 2976.0672      18.19       67.38    -999.25       6.37       0.00       0.00     169.50    -999.25    -999.25    2067.15      75.00     408.65      13.96       1.46     185.17       0.00      48.00      45.00
 2976.2196      18.69       63.78      78.00       6.55    -999.25    -999.25     169.46    -999.25    -999.25    2067.15      75.00     407.41      12.84       1.46     185.74       0.00      48.00      45.00
 2976.3720      18.80       53.75    -999.25       6.69    -999.25    -999.25     169.02    2929.69     165.00    2067.15      75.00     407.14      13.39       1.46     185.43       0.00      48.00      45.00
 2976.5244      18.84       67.38    -999.25       6.02       0.00       0.00     170.00    -999.25    -999.25    2067.15      75.00     408.86      12.82       1.46     185.54       0.00      48.00      45.00
 2976.6768      19.08       61.65      93.00       6.15    -999.25    -999.25     170.00    -999.25    -999.25    2067.15      75.00     409.34      12.10       1.47     185.95       0.00      48.00      45.00
 2976.8292      19.00       67.38    -999.25       6.31    -999.25    -999.25     169.52    2968.75     177.00    2067.15      75.00     407.76      13.20       1.46     185.90       0.00      48.00      45.00
 2976.9816      19.16       63.78    -999.25       6.48       0.00       0.00     169.56    -999.25    -999.25    2067.15      75.00     406.20      12.47       1.45     186.33       0.00      48.00      45.00
 2977.1340      19.44       61.65      99.00       6.35    -999.25    -999.25     169.93    -999.25    -999.25    2067.15      75.00     409.27      13.21       1.47     185.28       0.00      48.00      45.00
 2977.2864      19.97       55.44    -999.25       6.07    -999.25    -999.25     169.09    2968.75     160.00    2067.15      75.00     409.14      13.28       1.46     185.11       0.00      48.00      45.00
 2977.4388      20.26       57.04    -999.25       6.54       0.00       0.00     170.38    -999.25    -999.25    2067.15      75.00     407.48      13.04       1.46     185.11       0.00      48.00      45.00
 2977.5912      20.16       57.04     129.00       5.66    -999.25    -999.25     170.00    -999.25    -999.25    2067.15      75.00     406.72      13.00       1.46     185.25       0.00      48.00      45.00
 2977.7436      17.37       51.46    -999.25       4.21       0.00       0.00     169.42    2968.75     141.00    2067.15      75.00     408.58      12.29       1.46     185.50       0.00      48.00      45.00
 2977.8960      18.18       51.46    -999.25       6.50    -999.25    -999.25     169.17    -999.25    -999.25    2067.15      75.00     408.31       9.60       1.46     188.17       0.00      48.00      45.00
 2978.0484      18.34       59.04      36.00       6.71    -999.25    -999.25     169.92    2968.75    -999.25    2067.15      75.00     408.38      12.39       1.46     186.48       0.00      48.00      45.00
 2978.2008      18.12       63.15    -999.25       7.21       0.00       0.00     169.48    -999.25     174.00    2067.15      75.00     408.00      12.25       1.46     185.96       0.00      48.00      45.00
 2978.3532      17.81     -999.25      75.00       6.64    -999.25    -999.25     169.31    -999.25    -999.25    2067.15      75.00     408.65      12.48       1.46     185.71       0.00      48.00      45.00
 2978.5056      17.71      100.69    -999.25       5.93    -999.25    -999.25     169.60    2929.69     164.00    2067.15      75.00     408.17      12.73       1.46     185.82       0.00      48.00      45.00
 2978.6580      17.84      162.63    -999.25       4.38       0.00       0.00     169.00    -999.25    -999.25    2067.15      75.00     408.93      12.31       1.46     186.60       0.00      48.00      45.00
 2978.8104      17.96      204.48    -999.25       4.40    -999.25    -999.25     169.86    -999.25    -999.25    2067.15      75.00     409.41      10.51       1.47     187.47       0.00      48.00      45.00
 2978.9628      18.07     -999.25      93.00       4.34    -999.25    -999.25     169.45    2968.75     170.00    2067.15      75.00     408.17       9.92       1.46     186.80       0.00      48.00      45.00
 2979.1152      18.19      197.18    -999.25       4.26       0.00       0.00     170.00    -999.25    -999.25    2067.15      75.00     408.93       9.62       1.46     187.28       0.00      48.00      45.00
 2979.2676      21.39      169.28    -999.25       4.44    -999.25    -999.25     168.84    -999.25    -999.25    2067.15      75.00     408.86       9.84       1.46     187.24       0.00      48.00      45.00
 2979.4200      20.57     -999.25      33.00       4.48    -999.25    -999.25     169.41    2968.75    -999.25    2067.15      75.00     409.14       9.43       1.46     187.17       0.00      48.00      45.00
 2979.5724      20.71      169.28    -999.25       4.65    -999.25    -999.25     169.52    -999.25     169.00    2067.15      75.00     408.93       9.81       1.46     187.31       0.00      48.00      45.00
 2979.7248      21.12      165.94    -999.25       4.69       0.00       0.00     169.00    -999.25    -999.25    2067.15      75.00     409.07      10.81       1.46     187.21       0.00      48.00      45.00
 2979.8772      21.75     -999.25      27.00       4.48    -999.25    -999.25     169.57    2968.75    -999.25    2067.15      75.00     408.89      11.26       1.46     186.62       0.00      48.00      45.00
 2980.0296      22.09      149.30    -999.25       4.46    -999.25    -999.25     169.88    -999.25     168.00    2067.15      75.00     408.89      11.40       1.46     187.10       0.00      48.00      45.00
