~Version Information
VERS.             2.0 : CWLS log ASCII standard - Version 2.0
WRAP.             NO  : One line per depth step
#
~Well Information Block
#MNEM.UNIT                   Data Type:Information
#__________________________________________________________
 STRT .M           2778.09960  :START INDEX                  
  STOP.M           3749.9544 : STOP INDEX                    
  STEP.M              0.1524 : STEP                          
  NULL.              -999.25 : NULL VALUE                    
  COMP.           StatoilHydro : COMPANY                       
  WELL.            15/9-F-14 : WELL                          
   FLD.                Volve : FIELD                         
   LOC.            North Sea : LOCATION                      
  PROV.                      : PROVINCE                      
  CNTY.                      : COUNTY                        
  STAT.                      : STATE                         
  CTRY.               Norway : COUNTRY                       
  SRVC.              SLB D&M : SERVICE COMPANY               
  DATE.                      : LOG DATE                      
   UWI.                      : UNIQUE WELL ID                
   API.                      : API NUMBER                    
#
~Curve Information Block
#MNEM.UNIT                     : Curve Description
#---------                     --------------------
DEPT        .M                 : Bit Depth 2hz                                                   
ROP5        .M/HR              : 5ft ROP 2hz                                                     
GRMA_ECO_RT .GAPI              : Gamma Ray, Average, Real-Time                                   
Stick_RT    .RPM               : MWD PKtoPK RPM 2hz                                              
SWOB        .KKGF              : Surface Weight on Bit 2hz                                       
SHKRSK_RT   .----              : MWD SHKRSK 2hz                                                  
SHKPK_RT    .G                 : MWD SHK_PK 2hz                                                  
RPM         .RPM               : SRF SRPM 2hz                                                    
TRPM_RT     .RPM               : MWD TUR_RPM 2hz                                                 
CRPM_RT     .RPM               : MWD CRPM 2hz                                                    
TFLO        .LPM               : HSPM Total Pump Flow 2hz                                        
DHAT        .DEGC              : Downhole Annulus Temperature                                    
DHAP        .BAR               : Downhole Annulus Pressure                                       
TQA         .KMN               : SRF STOR 2hz                                                    
ECD         .G/C3              : Equivalent Circulating Density                                  
SPPA        .BAR               : SRF PUMPRS 2hz                                                  
SPM1        .----              : SRF SPM1 2hz                                                    
SPM2        .----              : SRF SPM2 2hz                                                    
SPM3        .----              : SRF SPM3 2hz                                                    
#
~Parameter Information Block
#MNEM.UNIT                       Value:Description
#__________________________________________________________
#
~Other Information Block

#
~A    DEPT       ROP5 GRMA_ECO_RT   Stick_RT       SWOB  SHKRSK_RT   SHKPK_RT        RPM    TRPM_RT    CRPM_RT       TFLO       DHAT       DHAP        TQA        ECD       SPPA       SPM1       SPM2       SPM3
# ...
 3746.9064      20.35     -999.25    -999.25       4.47       0.00       0.00     179.84    -999.25    -999.25    1962.83    -999.25    -999.25      15.04    -999.25     182.14       0.00      44.00      45.00
 3747.0588      20.63     -999.25    -999.25       3.89    -999.25    -999.25     179.00    -999.25    -999.25    1962.83    -999.25    -999.25      15.10    -999.25     182.41       0.00      44.00      45.00
 3747.2112      20.95     -999.25      48.00       3.07    -999.25    -999.25     179.60    2812.50    -999.25    1962.83    -999.25    -999.25      15.34    -999.25     182.66       0.00      44.00      45.00
 3747.3636      21.28     -999.25    -999.25       3.82    -999.25    -999.25     179.65    -999.25     179.00    1962.83    -999.25    -999.25      14.67    -999.25     182.44       0.00      44.00      45.00
 3747.5160      21.68     -999.25    -999.25       3.26       0.00       0.00     179.57    -999.25    -999.25    1962.83    -999.25    -999.25      14.44    -999.25     181.96       0.00      44.00      45.00
 3747.6684      22.09     -999.25      36.00       3.16    -999.25    -999.25     180.00    -999.25    -999.25    1962.83    -999.25    -999.25      14.32    -999.25     182.68       0.00      44.00      45.00
 3747.8208      22.60     -999.25    -999.25       3.70    -999.25    -999.25     179.32    2812.50     182.00    1962.83    -999.25    -999.25      14.52    -999.25     182.41       0.00      44.00      45.00
 3747.9732      22.99     -999.25    -999.25       4.14    -999.25    -999.25     179.49    -999.25    -999.25    1962.83    -999.25    -999.25      14.32    -999.25     182.25       0.00      44.00      45.00
 3748.1256      23.46     -999.25    -999.25       4.13       0.00       0.00     179.04    -999.25    -999.25    1962.83    -999.25    -999.25      15.14    -999.25     182.28       0.00      44.00      45.00
 3748.2780      23.82     -999.25      36.00       4.68    -999.25    -999.25     179.22    2812.50    -999.25    1962.83    -999.25    -999.25      14.71    -999.25     182.01       0.00      44.00      45.00
 3748.4304      23.84     -999.25    -999.25       4.82    -999.25    -999.25     179.30    -999.25     178.00    1962.83    -999.25    -999.25      14.65    -999.25     182.13       0.00      44.00      45.00
 3748.5828      23.64     -999.25    -999.25       4.82       0.00       0.00     179.75    -999.25    -999.25    1962.83    -999.25    -999.25      13.30    -999.25     182.14       0.00      44.00      45.00
 3748.7352      23.42     -999.25      33.00       4.09    -999.25    -999.25     180.42    -999.25    -999.25    1962.83    -999.25    -999.25      15.11    -999.25     182.33       0.00      44.00      45.00
 3748.8876      23.34     -999.25    -999.25       4.15    -999.25    -999.25     179.04    2812.50     180.00    1962.83    -999.25    -999.25      14.95    -999.25     182.32       0.00      44.00      45.00
 3749.0400      23.24     -999.25    -999.25       4.01       0.00       0.00     179.80    -999.25    -999.25    1962.83    -999.25    -999.25      14.27    -999.25     182.35       0.00      44.00      45.00
 3749.1924      23.24     -999.25    -999.25       3.73    -999.25    -999.25     179.41    -999.25    -999.25    1962.83    -999.25    -999.25      14.33    -999.25     182.53       0.00      44.00      45.00
 3749.3448      23.23     -999.25      45.00       4.20    -999.25    -999.25     180.00    2812.50    -999.25    1962.83    -999.25    -999.25      14.41    -999.25     182.50       0.00      44.00      45.00
 3749.4972      23.20     -999.25    -999.25       4.72    -999.25    -999.25     179.40    -999.25     179.00    1962.83    -999.25    -999.25      15.14    -999.25     182.17       0.00      44.00      45.00
 3749.6496      22.90     -999.25    -999.25       5.22       0.00       0.00     179.49    -999.25    -999.25    1962.83    -999.25    -999.25      15.32    -999.25     182.35       0.00      44.00      45.00
 3749.8020      22.55     -999.25      36.00       5.12    -999.25    -999.25     179.50    2812.50    -999.25    1962.83    -999.25    -999.25      14.79    -999.25     182.28       0.00      44.00      45.00
 3749.9544      22.57     -999.25    -999.25       3.25    -999.25    -999.25     179.46    -999.25     176.00    1962.83    -999.25    -999.25      15.15    -999.25     182.50       0.00      44.00      45.00
