~Version Information
VERS.             2.0 : CWLS log ASCII standard - Version 2.0
WRAP.             NO  : One line per depth step
#
~Well Information Block
#MNEM.UNIT                   Data Type:Information
#__________________________________________________________
 STRT .M           2250.03360  :START INDEX                  
  STOP.M           2787.8532 : STOP INDEX                    
  STEP.M              0.1524 : STEP                          
  NULL.              -999.25 : NULL VALUE                    
  COMP.           StatoilHydro : COMPANY                       
  WELL.            15_9_F_14 : WELL                          
   FLD.                Volve : FIELD                         
   LOC.           Maersk Inspirer : LOCATION                      
  PROV.                      : PROVINCE                      
  CNTY.                      : COUNTY                        
  STAT.                      : STATE                         
  CTRY.                      : COUNTRY                       
  SRVC.              SLB D&M : SERVICE COMPANY               
  DATE.                      : LOG DATE                      
   UWI.                      : UNIQUE WELL ID                
   API.                      : API NUMBER                    
#
~Curve Information Block
#MNEM.UNIT                     : Curve Description
#---------                     --------------------
DEPT        .M                 : Bit Depth 2hz                                                   
ROP5        .M/HR              : 5ft ROP 2hz                                                     
ARC_GR_RT   .GAPI              : ARC Gamma Ray, Real-Time                                        
SWOB        .KKGF              : Surface Weight on Bit 2hz                                       
TQA         .KMN               : SRF STOR 2hz                                                    
Stick_RT    .RPM               : MWD PKtoPK RPM 2hz                                              
SPPA        .BAR               : SRF PUMPRS 2hz                                                  
TRPM_RT     .RPM               : MWD TUR_RPM 2hz                                                 
TFLO        .LPM               : HSPM Total Pump Flow 2hz                                        
RPM         .RPM               : SRF SRPM 2hz                                                    
CRPM_RT     .RPM               : MWD CRPM 2hz                                                    
SHKRSK_RT   .----              : MWD SHKRSK 2hz                                                  
SHK2_RT     .----              : ARC Shock Level, Real-Time                                      
ECD_ARC     .G/C3              : Equivalent Circulating Density                                  
APRS_ARC    .BAR               : ARC Annular Pressure                                            
ATMP        .DEGC              : ARC Annular Temperature                                         
SPM1        .----              : SRF SPM1 2hz                                                    
SPM2        .----              : SRF SPM2 2hz                                                    
SPM3        .----              : SRF SPM3 2hz                                                    
#
~Parameter Information Block
#MNEM.UNIT                       Value:Description
#__________________________________________________________
#
~Other Information Block

#
~A    DEPT       ROP5  ARC_GR_RT       SWOB        TQA   Stick_RT       SPPA    TRPM_RT       TFLO        RPM    CRPM_RT  SHKRSK_RT    SHK2_RT    ECD_ARC   APRS_ARC       ATMP       SPM1       SPM2       SPM3
# ...
 2779.0140    51.8540    -999.25    18.9699    26.8660    -999.25   232.9792    -999.25  3227.4944   142.1429    -999.25    -999.25    -999.25    -999.25    -999.25    -999.25    65.0000    40.0000    40.0000
 2779.1664    51.5874    -999.25    18.7317    25.9100    -999.25   232.4302    -999.25  3227.4944   145.8182    -999.25    -999.25    -999.25    -999.25    -999.25    -999.25    65.0000    40.0000    40.0000
 2779.3188    51.5874    -999.25    18.7075    28.0503    -999.25   232.5194  2382.8125  3227.4944   134.0000    -999.25    -999.25    -999.25    -999.25    -999.25    -999.25    65.0000    40.0000    40.0000
 2779.4712    51.3422    -999.25    18.6820    29.7068    -999.25   231.6340    -999.25  3227.4944   136.9091    -999.25     0.0000    -999.25    -999.25    -999.25    -999.25    65.0000    40.0000    40.0000
 2779.6236    51.1813    -999.25    18.8640    28.3707    -999.25   233.4664    -999.25  3227.4944   150.0000    96.0000    -999.25    -999.25    -999.25    -999.25    -999.25    65.0000    40.0000    40.0000
 2779.7760    51.0697    -999.25    18.9215    26.9002   276.0000   231.9454    -999.25  3227.4944   148.0000    -999.25    -999.25     0.0000    -999.25    -999.25    -999.25    65.0000    40.0000    40.0000
 2779.9284    51.0883    -999.25    18.2483    30.1479    -999.25   234.9340    -999.25  3227.4944   125.5455    -999.25    -999.25    -999.25    -999.25    -999.25    -999.25    65.0000    40.0000    40.0000
 2780.0808    51.2261    -999.25    17.7628    30.8720    -999.25   237.4257    -999.25  3227.4944   113.8571    -999.25    -999.25    -999.25    -999.25    -999.25    -999.25    65.0000    40.0000    40.0000
 2780.2332    51.6557    -999.25    18.1266    29.0062    -999.25   237.9386  2382.8125  3227.4944   120.4000    -999.25     0.0000    -999.25    -999.25    -999.25    -999.25    65.0000    40.0000    40.0000
 2780.3856    51.9692    -999.25    18.5196    32.1752    -999.25   236.9783    -999.25  3227.4944   147.0000    -999.25    -999.25    -999.25    -999.25    -999.25    -999.25    65.0000    40.0000    40.0000
 2780.5380    52.2203    -999.25    18.6743    29.6411    -999.25   235.6443    -999.25  3227.4944   153.4762    73.0000    -999.25    -999.25    -999.25    -999.25    -999.25    65.0000    40.0000    40.0000
 2780.6904    52.4348    -999.25    18.9201    27.6087   267.0000   233.9022    -999.25  3227.4944   151.5000    -999.25    -999.25     0.0000    -999.25    -999.25    -999.25    65.0000    40.0000    40.0000
 2780.8428    52.3761    -999.25    18.7138    26.7889    -999.25   232.8037    -999.25  3227.4944   147.4546    -999.25    -999.25    -999.25    -999.25    -999.25    -999.25    65.0000    40.0000    40.0000
 2780.9952    52.4387    -999.25    18.5785    28.4327    -999.25   233.6828    -999.25  3227.4944   146.0000    -999.25    -999.25    -999.25    -999.25    -999.25    -999.25    65.0000    40.0000    40.0000
 2781.1476    52.1738    -999.25    18.2653    27.2494    -999.25   232.3345  2421.8750  3227.4944   133.0455    -999.25     0.0000    -999.25    -999.25    -999.25    -999.25    65.0000    40.0000    40.0000
 2781.3000    52.1777    -999.25    17.7182    28.4990    -999.25   232.4452    -999.25  3227.4944   146.3333    -999.25    -999.25    -999.25    -999.25    -999.25    -999.25    65.0000    40.0000    40.0000
 2781.4524    52.4740    -999.25    17.9064    28.7923    -999.25   232.5377    -999.25  3227.4944   151.5500    68.0000    -999.25     0.0000    -999.25    -999.25    -999.25    65.0000    40.0000    40.0000
 2781.6048    52.3605    -999.25    18.1212    28.0050   273.0000   232.6161    -999.25  3227.4944   147.4762    -999.25    -999.25    -999.25    -999.25    -999.25    -999.25    65.0000    40.0000    40.0000
 2781.7572    52.2242    -999.25    17.3890    28.0247    -999.25   234.5824    -999.25  3227.4944   152.0000    -999.25    -999.25    -999.25    -999.25    -999.25    -999.25    65.0000    40.0000    40.0000
 2781.9096    52.1622    -999.25    17.9980    29.4462    -999.25   235.1147    -999.25  3227.4944   153.5238    -999.25    -999.25    -999.25    -999.25    -999.25    -999.25    65.0000    40.0000    40.0000
 2782.0620    52.1273    -999.25    17.3976    29.7107    -999.25   234.3130  2343.7500  3227.4944   142.5714    -999.25     0.0000    -999.25    -999.25    -999.25    -999.25    65.0000    40.0000    40.0000
 2782.2144    52.0539    -999.25    18.3032    29.3929    -999.25   233.4478    -999.25  3227.4944   136.5714    -999.25    -999.25    -999.25    -999.25    -999.25    -999.25    65.0000    40.0000    40.0000
 2782.3668    52.1428    -999.25    17.5312    28.2944    -999.25   232.6131    -999.25  3227.4944   152.0000    85.0000    -999.25     0.0000    -999.25    -999.25    -999.25    65.0000    40.0000    40.0000
 2782.5192    52.0269    -999.25    18.4742    27.5956   273.0000   231.3259    -999.25  3227.4944   149.2727    -999.25    -999.25    -999.25    -999.25    -999.25    -999.25    65.0000    40.0000    40.0000
 2782.6716    52.0423    -999.25    18.7991    28.9165    -999.25   232.6327    -999.25  3227.4944   146.9545    -999.25    -999.25    -999.25    -999.25    -999.25    -999.25    65.0000    40.0000    40.0000
 2782.8240    51.6633    -999.25    17.9428    28.3101    -999.25   233.2886    -999.25  3227.4944   132.5000    -999.25    -999.25    -999.25    -999.25    -999.25    -999.25    65.0000    40.0000    40.0000
 2782.9764    51.1851    -999.25    18.1732    27.8592    -999.25   233.9702  2421.8750  3227.4944   124.9091    -999.25     0.0000    -999.25    -999.25    -999.25    -999.25    65.0000    40.0000    40.0000
 2783.1288    51.1068    -999.25    17.9636    30.4984    -999.25   236.3645    -999.25  3227.4944   144.2727    63.0000    -999.25    -999.25    -999.25    -999.25    -999.25    65.0000    40.0000    40.0000
 2783.2812    51.1143    -999.25    17.8147    29.5320   270.0000   236.6568    -999.25  3227.4944   137.0000    -999.25    -999.25     0.0000    -999.25    -999.25    -999.25    65.0000    40.0000    40.0000
 2783.4336    50.9548    -999.25    18.7223    28.6986    -999.25   235.0339    -999.25  3227.4944   149.9524    -999.25    -999.25    -999.25    -999.25    -999.25    -999.25    65.0000    40.0000    40.0000
 2783.5860    50.2152    -999.25    20.8175    29.9227    -999.25   235.1199    -999.25  3227.4944   143.6000    -999.25    -999.25    -999.25    -999.25    -999.25    -999.25    65.0000    40.0000    40.0000
 2783.7384    39.8151    -999.25    11.2462    21.6104    -999.25   220.7898  2460.9375  3227.4944   151.0385    -999.25     0.0000    -999.25    -999.25    -999.25    -999.25    65.0000    40.0000    40.0000
 2783.8908    40.6376    -999.25    13.7751    14.6934    -999.25   207.0528    -999.25  3227.4944   155.0000    -999.25    -999.25    -999.25    -999.25    -999.25    -999.25    65.0000    40.0000    40.0000
 2784.0432    41.5169    -999.25    15.3584    16.2756    -999.25   209.2663    -999.25  3227.4944   155.0000    -999.25    -999.25    -999.25    -999.25    -999.25    -999.25    65.0000    40.0000    40.0000
 2784.1956    42.3967    -999.25    17.3049    20.1345    -999.25   214.7621  2265.6250  3227.4944   154.1875    -999.25     0.0000    -999.25    -999.25    -999.25    -999.25    65.0000    40.0000    40.0000
 2784.3480    42.8364    -999.25    18.1435    23.3125    -999.25   220.3203    -999.25  3227.4944   149.6000    -999.25    -999.25    -999.25    -999.25    -999.25    -999.25    65.0000    40.0000    40.0000
 2784.5004    42.9963    -999.25    18.4631    27.6339    -999.25   228.7102    -999.25  3227.4944   142.7273   106.0000    -999.25    -999.25    -999.25    -999.25    -999.25    65.0000    40.0000    40.0000
 2784.6528    43.0517    -999.25    18.5854    29.0924   168.0000   233.4328    -999.25  3227.4944   142.1429    -999.25    -999.25     0.0000    -999.25    -999.25    -999.25    65.0000    40.0000    40.0000
 2784.8052    42.9149    -999.25    18.5194    27.2267    -999.25   235.5315    -999.25  3227.4944   149.0000    -999.25    -999.25    -999.25    -999.25    -999.25    -999.25    65.0000    40.0000    40.0000
