~Version Information
 VERS.             2.0 : CWLS log ASCII standard - Version 2.0
 WRAP.             NO  : One line per depth step
 #
 ~Well Information Block
 #MNEM.UNIT                   Data Type:Information
 #__________________________________________________________
 STRT  .M           1050.03600  :START INDEX                  
   2281.M           2281.5804 : STOP INDEX                    
 STEP  .M              0.15240  :STEP                         
 NULL  .              -999.25000  :NULL VALUE                 
   COMP.           StatoilHydro : COMPANY                       
   WELL.            15/9-F-14 : WELL                          
    FLD.                Volve : FIELD                         
    LOC.           Norwegian North Sea : LOCATION                      
   PROV.                      : PROVINCE                      
   CNTY.                      : COUNTY                        
   STAT.                      : STATE                         
   CTRY.               Norway : COUNTRY                       
   SRVC.           Schlumberger : SERVICE COMPANY               
   DATE.            14-May-08 : LOG DATE                      
    UWI.                      : UNIQUE WELL ID                
    API.                      : API NUMBER                    
 #
 STOP  .M      2281.58040     :STOP Depth
 ~Curve Information Block
 #MNEM.UNIT                     : Curve Description
 #---------                     --------------------
 DEPT        .M                 :Bit Depth 2hz                                                    
 ROP5        .M/HR              : 5ft ROP 2hz                                                     
 ARC_GR_UNC_RT.GAPI              : ARC Raw Gamma Ray, Real-Time                                    
 SWOB        .KKGF              : Surface Weight on Bit 2hz                                       
 TQA         .KMN               : SRF STOR 2hz                                                    
 RPM         .RPM               : SRF SRPM 2hz                                                    
 Stick_RT    .RPM               : MWD PKtoPK RPM 2hz                                              
 CRPM_RT     .RPM               : MWD CRPM 2hz                                                    
 TFLO        .LPM               : HSPM Total Pump Flow 2hz                                        
 TRPM_RT     .RPM               : MWD TUR_RPM 2hz                                                 
 SPPA        .BAR               : SRF PUMPRS 2hz                                                  
 SHKRSK_RT   .----              : MWD SHKRSK 2hz                                                  
 SHK2_RT     .----              : ARC Shock Level, Real-Time                                      
 SHK_ISONIC_RT.----              : Isonic Shock, Real-Time                                         
 PDSHKRSK    .----              : PowerDrive Shock Risk 2hz                                       
 SHKPK_RT    .G                 : MWD SHK_PK 2hz                                                  
 ECD_ARC     .SG                : Equivalent Circulating Density                                  
 APRS_ARC    .BAR               : ARC Annular Pressure                                            
 ATMP        .DEGC              : ARC Annular Temperature                                         
 #
 ~Parameter Information Block
 #MNEM.UNIT                       Value:Description
 #__________________________________________________________
 #
 ~Other Information Block
 
 #
 ~A    DEPT       ROP5 ARC_GR_UNC_RT       SWOB        TQA        RPM   Stick_RT    CRPM_RT       TFLO    TRPM_RT       SPPA  SHKRSK_RT    SHK2_RT SHK_ISONIC_RT   PDSHKRSK   SHKPK_RT    ECD_ARC   APRS_ARC       ATMP
# ...
 1293.2664     38.062       138.063      2.843      9.219     99.241    -999.25     99.000   4338.742    -999.25    154.493    -999.25    -999.25       -999.25    -999.25    -999.25      1.269    160.648     38.000
 1293.4188     38.069       -999.25      3.010      9.127     99.690    -999.25    -999.25   4338.742    -999.25    154.043      0.000    -999.25         0.000    -999.25      0.000      1.269    160.648     38.000
 1293.5712     38.060       141.016      2.808      9.270     99.379     12.000    -999.25   4338.742   3281.250    153.354    -999.25      0.000       -999.25      0.000    -999.25      1.270    160.717     38.000
 1293.7236     38.053       -999.25      2.987      9.033     99.552    -999.25    -999.25   4338.742    -999.25    153.468    -999.25    -999.25         0.000    -999.25    -999.25      1.269    160.717     38.000
 1293.8760     38.022       132.250      2.939      9.125     99.586    -999.25     99.000   4338.742    -999.25    152.972      0.000    -999.25       -999.25    -999.25      0.000      1.270    160.786     38.000
 1294.0284     37.993       129.391      2.828      9.149    100.000    -999.25    -999.25   4338.742   3242.188    152.821    -999.25      0.000       -999.25      0.000    -999.25      1.270    160.855     38.000
 1294.1808     38.026       -999.25      2.964      9.120     99.357     12.000    -999.25   4338.742    -999.25    152.607    -999.25    -999.25       -999.25    -999.25    -999.25      1.270    160.855     38.000
 1294.3332     38.019       135.141      2.762      8.989     99.000    -999.25     99.000   4338.742    -999.25    152.269    -999.25    -999.25         0.000    -999.25    -999.25      1.270    160.924     38.000
 1294.4856     38.002       -999.25      3.033      9.225     99.000    -999.25    -999.25   4338.742    -999.25    152.112      0.000    -999.25       -999.25    -999.25      0.000      1.270    160.855     38.000
 1294.6380     38.049       144.000      2.727      8.434     99.828     12.000    -999.25   4338.742   3242.188    152.179    -999.25      0.000       -999.25      0.000    -999.25      1.271    160.993     38.000
 1294.7904     38.427       -999.25      2.884      9.198     99.077    -999.25    -999.25   4338.742    -999.25    151.715    -999.25    -999.25       -999.25    -999.25    -999.25      1.271    160.993     38.000
 1294.9428     38.770       141.016      2.909      9.316     99.000    -999.25     98.000   4338.742    -999.25    151.741      0.000    -999.25         0.000    -999.25      0.000      1.270    160.993     38.000
 1295.0952     39.179       -999.25      3.123      9.845     99.000    -999.25    -999.25   4338.742    -999.25    152.039    -999.25    -999.25       -999.25    -999.25    -999.25      1.270    160.993     38.000
 1295.2476     39.613       126.563      3.168      9.579     99.769      9.000    -999.25   4338.742   3242.188    151.925    -999.25      0.000       -999.25      0.000    -999.25      1.270    160.993     38.000
 1295.4000     40.094       -999.25      3.316     10.175     99.240    -999.25    -999.25   4338.742    -999.25    151.727    -999.25    -999.25       -999.25    -999.25    -999.25      1.270    161.062     38.000
 1295.5524     40.665       135.141      3.128     10.268     99.654    -999.25     99.000   4338.742    -999.25    152.130      0.000    -999.25         0.000    -999.25      0.000      1.270    161.062     38.000
 1295.7048     41.144       126.563      3.181     10.239    100.000    -999.25    -999.25   4338.742    -999.25    152.467    -999.25    -999.25       -999.25    -999.25    -999.25      1.271    161.131     38.000
 1295.8572     41.702       -999.25      3.140     10.236     99.480      9.000    -999.25   4338.742   3242.188    152.233    -999.25      0.000       -999.25      0.000    -999.25      1.271    161.131     38.000
 1296.0096     42.241       147.016      3.035     10.205     99.462    -999.25    -999.25   4338.742    -999.25    152.026    -999.25    -999.25         0.000    -999.25    -999.25      1.270    161.131     38.000
 1296.1620     42.715       -999.25      3.076      9.959    100.000    -999.25     99.000   4338.742    -999.25    151.978      0.000    -999.25       -999.25    -999.25      0.000      1.270    161.131     38.000
 1296.3144     42.788       135.141      2.996      9.500    100.000    -999.25    -999.25   4338.742    -999.25    151.829    -999.25    -999.25       -999.25    -999.25    -999.25      1.271    161.199     38.000
 1296.4668     42.888       -999.25      3.055      9.536     99.692     12.000    -999.25   4338.742   3242.188    151.977    -999.25      0.000       -999.25      0.000    -999.25      1.271    161.199     38.000
 1296.6192     42.937       147.016      2.924      9.828     99.308    -999.25    -999.25   4338.742    -999.25    152.155    -999.25    -999.25         0.000    -999.25    -999.25      1.271    161.268     38.000
 1296.7716     42.986       -999.25      3.078      9.694    100.000    -999.25     99.000   4338.742    -999.25    152.023      0.000    -999.25       -999.25    -999.25      0.000      1.271    161.268     38.000
 1296.9240     42.995       141.016      2.924      9.845    100.000    -999.25    -999.25   4338.742   3242.188    151.654    -999.25      0.000       -999.25      0.000    -999.25      1.271    161.268     38.000
 1297.0764     42.951       -999.25      3.036     10.397    100.000     12.000    -999.25   4338.742    -999.25    151.573    -999.25    -999.25         0.000    -999.25    -999.25      1.270    161.268     38.000
 1297.2288     42.902       132.250      3.014      9.556    100.000    -999.25    -999.25   4338.742    -999.25    152.053    -999.25    -999.25       -999.25    -999.25    -999.25      1.271    161.337     38.000
 1297.3812     42.821       -999.25      3.048      9.852     99.615    -999.25     98.000   4338.742    -999.25    152.466      0.000    -999.25       -999.25    -999.25      0.000      1.271    161.337     38.000
 1297.5336     42.828       135.141      3.147      9.920     99.000    -999.25    -999.25   4338.742   3242.188    153.056    -999.25      0.000       -999.25      0.000    -999.25      1.271    161.337     38.000
 1297.6860     42.892       -999.25      3.130     10.209     99.000      9.000    -999.25   4338.742    -999.25    152.582    -999.25    -999.25         0.000    -999.25    -999.25      1.270    161.337     38.000
 1297.8384     42.946       147.016      3.126      9.918     99.000    -999.25    -999.25   4338.742    -999.25    152.252    -999.25    -999.25       -999.25    -999.25    -999.25      1.270    161.337     38.000
 1297.9908     43.003       -999.25      3.217      9.843     99.000    -999.25     98.000   4338.742    -999.25    152.640      0.000    -999.25       -999.25    -999.25      0.000      1.271    161.406     38.000
 1298.1432     43.021       144.000      3.062     10.247     99.000     15.000    -999.25   4338.742   3242.188    152.870    -999.25      0.000       -999.25      0.000    -999.25      1.271    161.475     38.000
 1298.2956     42.948       -999.25      3.154     10.116     99.000    -999.25    -999.25   4338.742    -999.25    152.959    -999.25    -999.25         0.000    -999.25    -999.25      1.271    161.475     38.000
 1298.4480     42.936       144.000      3.191     10.103     99.320    -999.25     98.000   4338.742    -999.25    152.932    -999.25    -999.25       -999.25    -999.25    -999.25      1.271    161.475     38.000
 1298.6004     42.923       -999.25      3.123      9.954     99.769    -999.25    -999.25   4338.742    -999.25    152.661      0.000    -999.25       -999.25    -999.25      0.000      1.271    161.475     38.000
 1298.7528     42.850       141.016      3.185      9.734     99.231      9.000    -999.25   4338.742   3242.188    153.003    -999.25      0.000         0.000      0.000    -999.25      1.270    161.475     38.000
 1298.9052     42.906       -999.25      2.780      9.880     99.840    -999.25    -999.25   4338.742    -999.25    153.473    -999.25    -999.25       -999.25    -999.25    -999.25      1.271    161.544     38.000
