~Version Information
VERS.             2.0 : CWLS log ASCII standard - Version 2.0
WRAP.             NO  : One line per depth step
#
~Well Information Block
#MNEM.UNIT                   Data Type:Information
#__________________________________________________________
 STRT .M           2250.03360  :START INDEX                  
  STOP.M           2787.8532 : STOP INDEX                    
  STEP.M              0.1524 : STEP                          
  NULL.              -999.25 : NULL VALUE                    
  COMP.           StatoilHydro : COMPANY                       
  WELL.            15_9_F_14 : WELL                          
   FLD.                Volve : FIELD                         
   LOC.           Maersk Inspirer : LOCATION                      
  PROV.                      : PROVINCE                      
  CNTY.                      : COUNTY                        
  STAT.                      : STATE                         
  CTRY.                      : COUNTRY                       
  SRVC.              SLB D&M : SERVICE COMPANY               
  DATE.                      : LOG DATE                      
   UWI.                      : UNIQUE WELL ID                
   API.                      : API NUMBER                    
#
~Curve Information Block
#MNEM.UNIT                     : Curve Description
#---------                     --------------------
DEPT        .M                 : Bit Depth 2hz                                                   
ROP5        .M/HR              : 5ft ROP 2hz                                                     
ARC_GR_RT   .GAPI              : ARC Gamma Ray, Real-Time                                        
SWOB        .KKGF              : Surface Weight on Bit 2hz                                       
TQA         .KMN               : SRF STOR 2hz                                                    
Stick_RT    .RPM               : MWD PKtoPK RPM 2hz                                              
SPPA        .BAR               : SRF PUMPRS 2hz                                                  
TRPM_RT     .RPM               : MWD TUR_RPM 2hz                                                 
TFLO        .LPM               : HSPM Total Pump Flow 2hz                                        
RPM         .RPM               : SRF SRPM 2hz                                                    
CRPM_RT     .RPM               : MWD CRPM 2hz                                                    
SHKRSK_RT   .----              : MWD SHKRSK 2hz                                                  
SHK2_RT     .----              : ARC Shock Level, Real-Time                                      
ECD_ARC     .G/C3              : Equivalent Circulating Density                                  
APRS_ARC    .BAR               : ARC Annular Pressure                                            
ATMP        .DEGC              : ARC Annular Temperature                                         
SPM1        .----              : SRF SPM1 2hz                                                    
SPM2        .----              : SRF SPM2 2hz                                                    
SPM3        .----              : SRF SPM3 2hz                                                    
#
~Parameter Information Block
#MNEM.UNIT                       Value:Description
#__________________________________________________________
#
~Other Information Block

#
~A    DEPT       ROP5  ARC_GR_RT       SWOB        TQA   Stick_RT       SPPA    TRPM_RT       TFLO        RPM    CRPM_RT  SHKRSK_RT    SHK2_RT    ECD_ARC   APRS_ARC       ATMP       SPM1       SPM2       SPM3
# ...
 2464.0032    31.9841    94.4333    -0.1326    12.5736    -999.25   239.7538  2656.2500  3561.2438   139.7812    -999.25     0.0000    -999.25     1.3335   321.0890    68.0000    65.0000    50.0000    45.0000
 2464.1556    32.0783    -999.25    -0.8219    11.5537    -999.25   237.7791    -999.25  3561.2438   139.9677   138.0000    -999.25    -999.25     1.3337   321.1579    68.0000    65.0000    50.0000    45.0000
 2464.3080    32.3943    91.8983    -0.6164     9.7072    21.0000   234.8997    -999.25  3561.2438   139.1563    -999.25    -999.25     0.0000     1.3336   321.1579    68.0000    65.0000    50.0000    45.0000
 2464.4604    32.6723    -999.25    -0.5640     9.3653    -999.25   232.7936    -999.25  3561.2438   140.0000    -999.25    -999.25    -999.25     1.3338   321.2269    68.0000    65.0000    50.0000    45.0000
 2464.6128    32.8320    -999.25     0.5210     8.9342    -999.25   232.4898  2617.1875  3561.2438   140.0000    -999.25     0.0000    -999.25     1.3337   321.2269    68.0000    65.0000    50.0000    45.0000
 2464.7652    33.0880    79.7406     1.0883     9.3247    -999.25   232.8500    -999.25  3561.2438   139.3548   138.0000    -999.25     0.0000     1.3336   321.2269    68.0000    65.0000    50.0000    45.0000
 2464.9176    33.8781    -999.25     0.3046    10.3803    18.0000   232.8147    -999.25  3561.2438   139.0000    -999.25    -999.25    -999.25     1.3339   321.2958    68.0000    65.0000    50.0000    45.0000
 2465.0700    34.9105    94.4333     0.2615    10.5948    -999.25   234.9958    -999.25  3561.2438   139.7857    -999.25    -999.25    -999.25     1.3341   321.3648    68.0000    65.0000    50.0000    45.0000
 2465.2224    35.9074    -999.25     0.4935    10.1106    -999.25   234.9956  2617.1875  3561.2438   140.0000    -999.25     0.0000    -999.25     1.3340   321.3648    68.0000    65.0000    50.0000    45.0000
 2465.3748    36.7310    -999.25     0.5494    10.1037    -999.25   234.2178    -999.25  3561.2438   140.0000   138.0000    -999.25    -999.25     1.3339   321.3648    68.0000    65.0000    50.0000    45.0000
 2465.5272    37.2719    -999.25     0.8601    10.3808    21.0000   235.2079    -999.25  3561.2438   139.2222    -999.25    -999.25     0.0000     1.3335   321.2958    68.0000    65.0000    50.0000    45.0000
 2465.6796    37.6749    -999.25     2.0725    10.4573    -999.25   235.5315    -999.25  3561.2438   139.8276    -999.25    -999.25    -999.25     1.3337   321.3648    68.0000    65.0000    50.0000    45.0000
 2465.8320    37.9354    86.9317     1.0877    10.2285    -999.25   234.6600  2617.1875  3561.2438   139.1379    -999.25    -999.25    -999.25     1.3337   321.3648    68.0000    65.0000    50.0000    45.0000
 2465.9844    38.4515    -999.25     0.3880    11.8752    -999.25   236.8948    -999.25  3561.2438   139.0000    -999.25     0.0000    -999.25     1.3347   321.6406    68.0000    65.0000    50.0000    45.0000
 2466.1368    39.0177    -999.25     0.4171    11.3892    33.0000   237.4230    -999.25  3561.2438   139.9286   137.0000    -999.25     0.0000     1.3344   321.5716    68.0000    65.0000    50.0000    45.0000
 2466.2892    39.4229   104.9182     0.5024    10.1975    -999.25   235.3738    -999.25  3561.2438   140.0000    -999.25    -999.25    -999.25     1.3337   321.4337    68.0000    65.0000    50.0000    45.0000
 2466.4416    39.4229    -999.25     0.8862    10.5670    -999.25   236.4574    -999.25  3561.2438   139.0714    -999.25    -999.25    -999.25     1.3342   321.5716    68.0000    65.0000    50.0000    45.0000
 2466.5940    39.4262   113.1441     0.8766     9.9797    -999.25   235.6796  2617.1875  3561.2438   140.0000    -999.25     0.0000    -999.25     1.3341   321.5716    68.0000    65.0000    50.0000    45.0000
 2466.7464    39.4195    -999.25     0.8611    10.5882    -999.25   234.7992    -999.25  3561.2438   140.0000   136.0000    -999.25    -999.25     1.3340   321.5716    68.0000    65.0000    50.0000    45.0000
 2466.8988    39.4184    -999.25     0.9185    10.7361    30.0000   234.9534    -999.25  3561.2438   139.8889    -999.25    -999.25     0.0000     1.3340   321.5716    68.0000    65.0000    50.0000    45.0000
 2467.0512    39.4063   104.9182     0.9692    10.7300    -999.25   235.7995    -999.25  3561.2438   139.0000    -999.25    -999.25    -999.25     1.3339   321.5716    68.0000    65.0000    50.0000    45.0000
 2467.2036    39.5472    -999.25     0.9202    11.0952    -999.25   236.3324  2617.1875  3561.2438   139.0741    -999.25     0.0000    -999.25     1.3341   321.6406    68.0000    65.0000    50.0000    45.0000
 2467.3560    39.8468    86.9317     0.5989    10.0382    -999.25   234.6200    -999.25  3561.2438   140.0000   135.0000    -999.25    -999.25     1.3337   321.5716    68.0000    65.0000    50.0000    45.0000
 2467.5084    39.8830    -999.25     1.1805    10.5176    18.0000   234.3901    -999.25  3561.2438   140.0000    -999.25    -999.25     0.0000     1.3337   321.5716    68.0000    65.0000    50.0000    45.0000
 2467.6608    39.8106    -999.25     1.0087    10.1318    -999.25   235.5041    -999.25  3561.2438   140.0000    -999.25    -999.25    -999.25     1.3344   321.7784    68.0000    65.0000    50.0000    45.0000
 2467.8132    39.7892    -999.25     1.7699    10.7568    -999.25   235.8090    -999.25  3561.2438   140.0000    -999.25    -999.25    -999.25     1.3344   321.7784    68.0000    65.0000    50.0000    45.0000
 2467.9656    39.6667    -999.25     0.7464    11.8419    -999.25   236.6050  2578.1250  3561.2438   140.0000    -999.25     0.0000    -999.25     1.3346   321.8474    68.0000    65.0000    50.0000    45.0000
 2468.1180    39.4727    79.7406     3.0099    11.0657    -999.25   236.0947    -999.25  3561.2438   140.0000   139.0000    -999.25     0.0000     1.3342   321.7784    68.0000    65.0000    50.0000    45.0000
 2468.2704    38.9657    -999.25     1.3952    10.4972    24.0000   235.9277    -999.25  3561.2438   139.5484    -999.25    -999.25    -999.25     1.3344   321.8474    68.0000    65.0000    50.0000    45.0000
 2468.4228    38.8740    -999.25     0.1980    12.0767    -999.25   237.7419    -999.25  3561.2438   139.0000    -999.25    -999.25    -999.25     1.3343   321.8474    68.0000    65.0000    50.0000    45.0000
 2468.5752    38.8751    -999.25     0.3034    11.2193    -999.25   237.2512  2617.1875  3561.2438   139.0000    -999.25     0.0000    -999.25     1.3348   321.9853    68.0000    65.0000    50.0000    45.0000
 2468.7276    38.8654    -999.25     0.2158     9.5394    -999.25   234.6286    -999.25  3561.2438   139.0000   136.0000    -999.25    -999.25     1.3347   321.9853    68.0000    65.0000    50.0000    45.0000
 2468.8800    38.8611    99.6068     0.4994     9.6972    84.0000   234.0733    -999.25  3561.2438   139.6667    -999.25    -999.25     0.0000     1.3347   321.9853    68.0000    65.0000    50.0000    45.0000
 2469.0324    38.7528    -999.25     0.8033     9.5785    -999.25   233.5578    -999.25  3561.2438   140.0000    -999.25    -999.25    -999.25     1.3346   321.9853    68.0000    65.0000    50.0000    45.0000
 2469.1848    38.6941    -999.25     1.3525     9.9644    -999.25   233.3325  2617.1875  3561.2438   140.0000    -999.25     0.0000    -999.25     1.3348   322.0542    68.0000    65.0000    50.0000    45.0000
 2469.3372    38.5444    94.4333     0.4000    10.0557    -999.25   234.0477    -999.25  3561.2438   140.0000   139.0000    -999.25    -999.25     1.3350   322.1232    68.0000    65.0000    50.0000    45.0000
 2469.4896    38.5889    -999.25     0.3856     9.9508    87.0000   234.7681    -999.25  3561.2438   140.0000    -999.25    -999.25     0.0000     1.3349   322.1232    68.0000    65.0000    50.0000    45.0000
 2469.6420    38.6451    86.9317     0.5505     9.5060    -999.25   234.2211    -999.25  3561.2438   139.1429    -999.25    -999.25    -999.25     1.3348   322.1232    68.0000    65.0000    50.0000    45.0000
 2469.7944    38.9776    -999.25     1.2435     9.7172    -999.25   233.9829    -999.25  3561.2438   139.9310    -999.25    -999.25    -999.25     1.3351   322.1921    68.0000    65.0000    50.0000    45.0000
