~Version Information
 VERS.             2.0 : CWLS log ASCII standard - Version 2.0
 WRAP.             NO  : One line per depth step
 #
 ~Well Information Block
 #MNEM.UNIT                   Data Type:Information
 #__________________________________________________________
 STRT  .M           1050.03600  :START INDEX                  
   2281.M           2281.5804 : STOP INDEX                    
 STEP  .M              0.15240  :STEP                         
 NULL  .              -999.25000  :NULL VALUE                 
   COMP.           StatoilHydro : COMPANY                       
   WELL.            15/9-F-14 : WELL                          
    FLD.                Volve : FIELD                         
    LOC.           Norwegian North Sea : LOCATION                      
   PROV.                      : PROVINCE                      
   CNTY.                      : COUNTY                        
   STAT.                      : STATE                         
   CTRY.               Norway : COUNTRY                       
   SRVC.           Schlumberger : SERVICE COMPANY               
   DATE.            14-May-08 : LOG DATE                      
    UWI.                      : UNIQUE WELL ID                
    API.                      : API NUMBER                    
 #
 STOP  .M      2281.58040     :STOP Depth
 ~Curve Information Block
 #MNEM.UNIT                     : Curve Description
 #---------                     --------------------
 DEPT        .M                 :Bit Depth 2hz                                                    
 ROP5        .M/HR              : 5ft ROP 2hz                                                     
 ARC_GR_UNC_RT.GAPI              : ARC Raw Gamma Ray, Real-Time                                    
 SWOB        .KKGF              : Surface Weight on Bit 2hz                                       
 TQA         .KMN               : SRF STOR 2hz                                                    
 RPM         .RPM               : SRF SRPM 2hz                                                    
 Stick_RT    .RPM               : MWD PKtoPK RPM 2hz                                              
 CRPM_RT     .RPM               : MWD CRPM 2hz                                                    
 TFLO        .LPM               : HSPM Total Pump Flow 2hz                                        
 TRPM_RT     .RPM               : MWD TUR_RPM 2hz                                                 
 SPPA        .BAR               : SRF PUMPRS 2hz                                                  
 SHKRSK_RT   .----              : MWD SHKRSK 2hz                                                  
 SHK2_RT     .----              : ARC Shock Level, Real-Time                                      
 SHK_ISONIC_RT.----              : Isonic Shock, Real-Time                                         
 PDSHKRSK    .----              : PowerDrive Shock Risk 2hz                                       
 SHKPK_RT    .G                 : MWD SHK_PK 2hz                                                  
 ECD_ARC     .SG                : Equivalent Circulating Density                                  
 APRS_ARC    .BAR               : ARC Annular Pressure                                            
 ATMP        .DEGC              : ARC Annular Temperature                                         
 #
 ~Parameter Information Block
 #MNEM.UNIT                       Value:Description
 #__________________________________________________________
 #
 ~Other Information Block
 
 #
 ~A    DEPT       ROP5 ARC_GR_UNC_RT       SWOB        TQA        RPM   Stick_RT    CRPM_RT       TFLO    TRPM_RT       SPPA  SHKRSK_RT    SHK2_RT SHK_ISONIC_RT   PDSHKRSK   SHKPK_RT    ECD_ARC   APRS_ARC       ATMP
# ...
 2196.6936     20.014        95.063      2.373      9.862    119.093    -999.25    119.000   4472.092    -999.25    196.290      0.000    -999.25         0.000    -999.25      0.000      1.316    283.030     55.000
 2196.8460     20.012        92.641      2.393     10.679    119.000      9.000    -999.25   4472.092   3437.500    196.750    -999.25      0.000       -999.25      0.000    -999.25      1.316    283.168     55.000
 2196.9984     20.010        97.516      2.648     10.344    119.073    -999.25    118.000   4472.092    -999.25    196.070      0.000    -999.25         0.000    -999.25      0.000      1.316    283.168     55.000
 2197.1508     20.014        90.250      2.557      9.304    120.000      9.000    -999.25   4472.092   3437.500    196.110    -999.25      0.000       -999.25      0.000    -999.25      1.316    283.168     55.000
 2197.3032     20.015        90.250      2.629     10.500    119.873    -999.25    119.000   4472.092    -999.25    195.737      0.000    -999.25         0.000    -999.25      0.000      1.316    283.237     55.000
 2197.4556     20.019       105.063      2.846     11.553    119.109      9.000    -999.25   4472.092   3437.500    196.125    -999.25      0.000         0.000      0.000    -999.25      1.316    283.237     55.000
 2197.6080     20.012       100.000      2.483     12.505    120.000    -999.25    118.000   4472.092    -999.25    196.453      0.000    -999.25         0.000    -999.25     16.000      1.316    283.306     55.000
 2197.7604     20.014        95.063      2.473     10.892    119.833      6.000    -999.25   4472.092   3398.438    195.562    -999.25      0.000         0.000      0.000    -999.25      1.317    283.375     55.000
 2197.9128     20.013        87.891      2.710      9.674    119.673     15.000    118.000   4472.092   3437.500    195.761      0.000      0.000         0.000      0.000     16.000      1.317    283.375     55.000
 2198.0652     20.015        95.063      2.695     10.750    119.800    -999.25    119.000   4472.092    -999.25    196.016      0.000    -999.25         0.000    -999.25      0.000      1.316    283.375     55.000
 2198.2176     20.007        85.563      2.689     11.530    119.218     12.000    -999.25   4472.092   3437.500    196.017    -999.25      0.000         0.000      0.000    -999.25      1.317    283.444     55.000
 2198.3700     20.014        97.516      2.752     11.619    119.782    -999.25    117.000   4472.092    -999.25    196.434      0.000    -999.25         0.000    -999.25      0.000      1.317    283.444     55.000
 2198.5224     20.019        97.516      2.425      9.811    119.222     12.000    -999.25   4472.092   3437.500    195.937    -999.25      0.000         0.000      0.000    -999.25      1.317    283.513     55.000
 2198.6748     20.017        97.516      2.496      8.713    119.745    -999.25    119.000   4472.092    -999.25    196.137      0.000    -999.25         0.000    -999.25      0.000      1.317    283.581     55.000
 2198.8272     20.015        95.063      2.550      9.718    119.000     12.000    -999.25   4472.092   3437.500    196.323    -999.25      0.000         0.000      0.000    -999.25      1.317    283.581     55.000
 2198.9796     20.015        85.563      2.426     11.663    119.473    -999.25    118.000   4472.092    -999.25    195.799      0.000    -999.25         0.000    -999.25      0.000      1.317    283.650     55.000
 2199.1320     20.015       100.000      2.528     11.949    119.455     12.000    -999.25   4472.092   3398.438    195.884    -999.25      0.000         0.000      0.000    -999.25      1.317    283.719     56.000
 2199.2844     20.012        87.891      2.608     10.082    119.000    -999.25    118.000   4472.092   3398.438    195.442      0.000      0.000         0.000      0.000      0.000      1.317    283.719     56.000
 2199.4368     20.012        92.641      2.414     10.269    119.000     12.000    -999.25   4472.092    -999.25    195.706    -999.25    -999.25         0.000    -999.25    -999.25      1.318    283.788     56.000
 2199.5892     20.011        95.063      2.630     11.299    119.491      9.000    118.000   4472.092   3437.500    196.367      0.000      0.000         0.000      0.000      0.000      1.317    283.788     56.000
 2199.7416     20.018       102.516      2.669     12.329    119.491    -999.25    117.000   4472.092    -999.25    196.241      0.000    -999.25         0.000    -999.25      0.000      1.318    283.857     56.000
 2199.8940     20.015       100.000      2.957     11.642    119.509      9.000    -999.25   4472.092   3437.500    196.168    -999.25      0.000         0.000      0.000    -999.25      1.318    283.995     56.000
 2200.0464     20.011       100.000      2.843     10.325    119.073    -999.25    118.000   4472.092    -999.25    196.039      0.000    -999.25         0.000    -999.25      0.000      1.318    283.926     56.000
 2200.1988     20.012       100.000      2.818     10.333    119.400      9.000    -999.25   4472.092   3398.438    195.751    -999.25      0.000         0.000      0.000    -999.25      1.318    284.064     56.000
 2200.3512     20.012        95.063      3.440     11.703    119.593    -999.25    117.000   4472.092    -999.25    196.119      0.000    -999.25         0.000    -999.25      0.000      1.318    283.995     56.000
 2200.5036     20.007       102.516      3.247     14.101    119.909      9.000    -999.25   4472.092   3398.438    195.521    -999.25      0.000         0.000      0.000    -999.25      1.317    283.857     56.000
 2200.6560     20.011        95.063      3.211     13.064    119.127    -999.25    117.000   4472.092    -999.25    196.591      0.000    -999.25         0.000    -999.25      0.000      1.318    284.064     56.000
 2200.8084     20.015        90.250      3.144     11.649    119.855      9.000    -999.25   4472.092   3398.438    196.099    -999.25      0.000         0.000      0.000    -999.25      1.318    283.995     56.000
 2200.9608     20.015        97.516      2.953     12.566    119.000    -999.25    120.000   4472.092   3437.500    196.167      0.000      0.000         0.000      0.000      0.000      1.319    284.271     56.000
 2201.1132     20.015        97.516      2.932     13.402    119.481     12.000    118.000   4472.092    -999.25    196.225    -999.25    -999.25         0.000    -999.25    -999.25      1.318    284.202     56.000
 2201.2656     20.013        97.516      3.018     13.433    119.000      6.000    -999.25   4472.092   3437.500    196.816      0.000      0.000         0.000      0.000      0.000      1.319    284.340     56.000
 2201.4180     20.011        95.063      3.409     11.583    119.000    -999.25    118.000   4472.092    -999.25    196.673      0.000    -999.25         0.000    -999.25      0.000      1.319    284.340     56.000
 2201.5704     20.011        97.516      3.228     11.922    119.000      6.000    -999.25   4472.092   3437.500    196.809    -999.25      0.000         0.000      0.000    -999.25      1.319    284.409     56.000
 2201.7228     20.014       107.641      3.238     13.387    119.891    -999.25    117.000   4472.092    -999.25    196.934      0.000    -999.25         0.000    -999.25      0.000      1.319    284.409     56.000
 2201.8752     20.014        97.516      3.062     13.970    119.582      9.000    -999.25   4472.092   3437.500    196.333    -999.25      0.000         0.000      0.000    -999.25      1.319    284.409     56.000
 2202.0276     20.019        95.063      3.393     13.129    119.426    -999.25    117.000   4472.092    -999.25    196.502      0.000    -999.25         0.000    -999.25      0.000      1.319    284.478     56.000
 2202.1800     20.014       102.516      3.252     12.613    119.600      9.000    -999.25   4472.092   3437.500    196.486    -999.25      0.000         0.000      0.000    -999.25      1.319    284.547     56.000
 2202.3324     20.013        90.250      3.578     13.128    119.400    -999.25    117.000   4472.092    -999.25    196.441      0.000    -999.25         0.000    -999.25      0.000      1.319    284.547     56.000
