~Version Information
 VERS.             2.0 : CWLS log ASCII standard - Version 2.0
 WRAP.             NO  : One line per depth step
 #
 ~Well Information Block
 #MNEM.UNIT                   Data Type:Information
 #__________________________________________________________
 STRT  .M           1050.03600  :START INDEX                  
   2281.M           2281.5804 : STOP INDEX                    
 STEP  .M              0.15240  :STEP                         
 NULL  .              -999.25000  :NULL VALUE                 
   COMP.           StatoilHydro : COMPANY                       
   WELL.            15/9-F-14 : WELL                          
    FLD.                Volve : FIELD                         
    LOC.           Norwegian North Sea : LOCATION                      
   PROV.                      : PROVINCE                      
   CNTY.                      : COUNTY                        
   STAT.                      : STATE                         
   CTRY.               Norway : COUNTRY                       
   SRVC.           Schlumberger : SERVICE COMPANY               
   DATE.            14-May-08 : LOG DATE                      
    UWI.                      : UNIQUE WELL ID                
    API.                      : API NUMBER                    
 #
 STOP  .M      2281.58040     :STOP Depth
 ~Curve Information Block
 #MNEM.UNIT                     : Curve Description
 #---------                     --------------------
 DEPT        .M                 :Bit Depth 2hz                                                    
 ROP5        .M/HR              : 5ft ROP 2hz                                                     
 ARC_GR_UNC_RT.GAPI              : ARC Raw Gamma Ray, Real-Time                                    
 SWOB        .KKGF              : Surface Weight on Bit 2hz                                       
 TQA         .KMN               : SRF STOR 2hz                                                    
 RPM         .RPM               : SRF SRPM 2hz                                                    
 Stick_RT    .RPM               : MWD PKtoPK RPM 2hz                                              
 CRPM_RT     .RPM               : MWD CRPM 2hz                                                    
 TFLO        .LPM               : HSPM Total Pump Flow 2hz                                        
 TRPM_RT     .RPM               : MWD TUR_RPM 2hz                                                 
 SPPA        .BAR               : SRF PUMPRS 2hz                                                  
 SHKRSK_RT   .----              : MWD SHKRSK 2hz                                                  
 SHK2_RT     .----              : ARC Shock Level, Real-Time                                      
 SHK_ISONIC_RT.----              : Isonic Shock, Real-Time                                         
 PDSHKRSK    .----              : PowerDrive Shock Risk 2hz                                       
 SHKPK_RT    .G                 : MWD SHK_PK 2hz                                                  
 ECD_ARC     .SG                : Equivalent Circulating Density                                  
 APRS_ARC    .BAR               : ARC Annular Pressure                                            
 ATMP        .DEGC              : ARC Annular Temperature                                         
 #
 ~Parameter Information Block
 #MNEM.UNIT                       Value:Description
 #__________________________________________________________
 #
 ~Other Information Block
 
 #
 ~A    DEPT       ROP5 ARC_GR_UNC_RT       SWOB        TQA        RPM   Stick_RT    CRPM_RT       TFLO    TRPM_RT       SPPA  SHKRSK_RT    SHK2_RT SHK_ISONIC_RT   PDSHKRSK   SHKPK_RT    ECD_ARC   APRS_ARC       ATMP
# ...
 1380.1344     44.828       144.000      1.706     10.071    159.208      9.000    -999.25   4472.092   3359.375    163.968    -999.25      0.000       -999.25      0.000    -999.25      1.276    172.369     41.000
 1380.2868     44.833       -999.25      1.754      9.930    159.720    -999.25    -999.25   4472.092    -999.25    163.884    -999.25    -999.25       -999.25    -999.25    -999.25      1.276    172.438     41.000
 1380.4392     44.823       150.063      1.768      9.831    159.417    -999.25    157.000   4472.092    -999.25    163.703      0.000    -999.25       -999.25    -999.25     32.000      1.276    172.438     41.000
 1380.5916     44.828       -999.25      1.794      9.893    158.440    -999.25    -999.25   4472.092    -999.25    163.994    -999.25    -999.25       -999.25    -999.25    -999.25      1.277    172.507     41.000
 1380.7440     44.757       132.250      1.602      9.713    158.000      9.000    -999.25   4472.092   3359.375    164.096    -999.25      0.000         0.000      0.000    -999.25      1.276    172.507     41.000
 1380.8964     44.592       -999.25      1.595      9.538    158.769    -999.25    -999.25   4472.092    -999.25    163.925    -999.25    -999.25       -999.25    -999.25    -999.25      1.276    172.507     41.000
 1381.0488     44.412       132.250      1.426      9.708    160.000    -999.25    157.000   4472.092    -999.25    164.081      0.000    -999.25       -999.25    -999.25     24.000      1.277    172.576     41.000
 1381.2012     44.220       -999.25      1.469      9.353    160.000    -999.25    -999.25   4472.092    -999.25    164.159    -999.25    -999.25       -999.25    -999.25    -999.25      1.277    172.576     41.000
 1381.3536     44.180       132.250      1.497      9.252    159.880      6.000    -999.25   4472.092   3359.375    164.579    -999.25      0.000         0.000      0.000    -999.25      1.276    172.576     41.000
 1381.5060     44.216       -999.25      1.579      8.656    159.000    -999.25    -999.25   4472.092    -999.25    164.738    -999.25    -999.25       -999.25    -999.25    -999.25      1.277    172.645     41.000
 1381.6584     44.241       138.063      1.436      9.562    159.000    -999.25    157.000   4472.092    -999.25    164.279      0.000    -999.25       -999.25    -999.25     16.000      1.277    172.714     41.000
 1381.8108     44.267       -999.25      1.432      9.636    159.000    -999.25    -999.25   4472.092    -999.25    163.562    -999.25    -999.25       -999.25    -999.25    -999.25      1.277    172.714     41.000
 1381.9632     44.307       141.016      1.426      9.512    159.840      9.000    -999.25   4472.092   3359.375    163.983    -999.25      0.000       -999.25      0.000    -999.25      1.277    172.714     41.000
 1382.1156     44.343       -999.25      1.270      9.405    160.000    -999.25    -999.25   4472.092    -999.25    164.191    -999.25    -999.25         0.000    -999.25    -999.25      1.277    172.783     41.000
 1382.2680     44.440       135.141      1.473      9.298    159.417    -999.25    157.000   4472.092    -999.25    164.217    -999.25    -999.25       -999.25    -999.25    -999.25      1.277    172.714     41.000
 1382.4204     44.636       129.391      1.375      9.277    159.000    -999.25    -999.25   4472.092    -999.25    164.090      0.000    -999.25       -999.25    -999.25     24.000      1.277    172.852     41.000
 1382.5728     44.860       138.063      1.397      9.539    159.000      6.000    -999.25   4472.092   3359.375    164.135    -999.25      0.000       -999.25      0.000    -999.25      1.277    172.852     41.000
 1382.7252     45.085       129.391      1.342      9.882    159.000    -999.25    -999.25   4472.092    -999.25    164.417    -999.25    -999.25         0.000    -999.25    -999.25      1.277    172.852     41.000
 1382.8776     45.169       -999.25      1.459      9.729    159.200    -999.25    157.000   4472.092    -999.25    164.260    -999.25    -999.25       -999.25    -999.25    -999.25      1.278    172.921     41.000
 1383.0300     45.163       132.250      1.448      9.439    159.958    -999.25    -999.25   4472.092    -999.25    163.981      0.000    -999.25       -999.25    -999.25     32.000      1.277    172.852     41.000
 1383.1824     45.160       -999.25      1.405      9.302    159.000    -999.25    -999.25   4472.092   3359.375    164.106    -999.25      0.000       -999.25      0.000    -999.25      1.277    172.852     41.000
 1383.3348     45.160       138.063      1.368      9.479    159.000      6.000    -999.25   4472.092    -999.25    164.488    -999.25    -999.25       -999.25    -999.25    -999.25      1.274    172.507     41.000
 1383.4872     45.160       -999.25      1.339      9.341    159.000    -999.25    -999.25   4472.092    -999.25    164.533    -999.25    -999.25         0.000    -999.25    -999.25      1.274    172.507     41.000
 1383.6396     45.160       121.000      1.399      9.505    159.000    -999.25    157.000   4472.092    -999.25    164.680      0.000    -999.25       -999.25    -999.25     32.000      1.274    172.507     41.000
 1383.7920     45.160       -999.25      1.321      9.330    159.542    -999.25    -999.25   4472.092   3359.375    164.953    -999.25      0.000       -999.25      0.000    -999.25      1.274    172.576     41.000
 1383.9444     45.163       129.391      1.411      9.531    159.480      6.000    -999.25   4472.092    -999.25    164.647    -999.25    -999.25       -999.25    -999.25    -999.25      1.274    172.576     41.000
 1384.0968     45.160       -999.25      1.361      9.584    159.000    -999.25    -999.25   4472.092    -999.25    164.129    -999.25    -999.25         0.000    -999.25    -999.25      1.274    172.645     41.000
 1384.2492     45.160       123.766      1.452      9.029    159.000    -999.25    157.000   4472.092    -999.25    164.270      0.000    -999.25       -999.25    -999.25     24.000      1.274    172.645     41.000
 1384.4016     45.160       -999.25      1.326      9.057    159.000    -999.25    -999.25   4472.092    -999.25    164.801    -999.25    -999.25       -999.25    -999.25    -999.25      1.274    172.645     41.000
 1384.5540     45.151       132.250      1.382      9.163    159.040      6.000    -999.25   4472.092   3359.375    163.983    -999.25      0.000       -999.25      0.000    -999.25      1.274    172.645     41.000
 1384.7064     45.160       -999.25      1.397      8.479    160.000    -999.25    -999.25   4472.092    -999.25    164.826    -999.25    -999.25       -999.25    -999.25    -999.25      1.275    172.783     41.000
 1384.8588     45.160       135.141      1.365      8.747    159.125    -999.25    157.000   4472.092    -999.25    164.088      0.000    -999.25         0.000    -999.25     24.000      1.274    172.714     41.000
 1385.0112     45.160       -999.25      1.345      9.459    159.840    -999.25    -999.25   4472.092    -999.25    164.572    -999.25    -999.25       -999.25    -999.25    -999.25      1.275    172.783     41.000
 1385.1636     45.164       129.391      1.222      9.707    160.000      6.000    -999.25   4472.092   3359.375    164.776    -999.25      0.000       -999.25      0.000    -999.25      1.274    172.783     41.000
 1385.3160     45.169       -999.25      1.254      9.722    159.375    -999.25    -999.25   4472.092    -999.25    164.578    -999.25    -999.25       -999.25    -999.25    -999.25      1.275    172.852     41.000
 1385.4684     45.160       129.391      1.376      9.197    159.000    -999.25    157.000   4472.092    -999.25    164.765      0.000    -999.25       -999.25    -999.25     24.000      1.275    172.921     41.000
 1385.6208     45.160       -999.25      1.352      9.033    159.375    -999.25    -999.25   4472.092    -999.25    164.984    -999.25    -999.25         0.000    -999.25    -999.25      1.275    172.921     41.000
 1385.7732     45.158       144.000      1.402      9.550    160.000      9.000    -999.25   4472.092   3359.375    164.658    -999.25      0.000       -999.25      0.000    -999.25      1.275    172.990     41.000
