~Version Information
VERS.             2.0 : CWLS log ASCII standard - Version 2.0
WRAP.             NO  : One line per depth step
#
~Well Information Block
#MNEM.UNIT                   Data Type:Information
#__________________________________________________________
 STRT .M           2250.03360  :START INDEX                  
  STOP.M           2787.8532 : STOP INDEX                    
  STEP.M              0.1524 : STEP                          
  NULL.              -999.25 : NULL VALUE                    
  COMP.           StatoilHydro : COMPANY                       
  WELL.            15_9_F_14 : WELL                          
   FLD.                Volve : FIELD                         
   LOC.           Maersk Inspirer : LOCATION                      
  PROV.                      : PROVINCE                      
  CNTY.                      : COUNTY                        
  STAT.                      : STATE                         
  CTRY.                      : COUNTRY                       
  SRVC.              SLB D&M : SERVICE COMPANY               
  DATE.                      : LOG DATE                      
   UWI.                      : UNIQUE WELL ID                
   API.                      : API NUMBER                    
#
~Curve Information Block
#MNEM.UNIT                     : Curve Description
#---------                     --------------------
DEPT        .M                 : Bit Depth 2hz                                                   
ROP5        .M/HR              : 5ft ROP 2hz                                                     
ARC_GR_RT   .GAPI              : ARC Gamma Ray, Real-Time                                        
SWOB        .KKGF              : Surface Weight on Bit 2hz                                       
TQA         .KMN               : SRF STOR 2hz                                                    
Stick_RT    .RPM               : MWD PKtoPK RPM 2hz                                              
SPPA        .BAR               : SRF PUMPRS 2hz                                                  
TRPM_RT     .RPM               : MWD TUR_RPM 2hz                                                 
TFLO        .LPM               : HSPM Total Pump Flow 2hz                                        
RPM         .RPM               : SRF SRPM 2hz                                                    
CRPM_RT     .RPM               : MWD CRPM 2hz                                                    
SHKRSK_RT   .----              : MWD SHKRSK 2hz                                                  
SHK2_RT     .----              : ARC Shock Level, Real-Time                                      
ECD_ARC     .G/C3              : Equivalent Circulating Density                                  
APRS_ARC    .BAR               : ARC Annular Pressure                                            
ATMP        .DEGC              : ARC Annular Temperature                                         
SPM1        .----              : SRF SPM1 2hz                                                    
SPM2        .----              : SRF SPM2 2hz                                                    
SPM3        .----              : SRF SPM3 2hz                                                    
#
~Parameter Information Block
#MNEM.UNIT                       Value:Description
#__________________________________________________________
#
~Other Information Block

#
~A    DEPT       ROP5  ARC_GR_RT       SWOB        TQA   Stick_RT       SPPA    TRPM_RT       TFLO        RPM    CRPM_RT  SHKRSK_RT    SHK2_RT    ECD_ARC   APRS_ARC       ATMP       SPM1       SPM2       SPM3
# ...
 2357.0184    27.6100    86.9317     5.2788     8.7718    -999.25   235.5123  2617.1875  3562.7440   119.6757    -999.25     0.0000    -999.25     1.3257   305.7826    60.0000    75.0000    50.0000    35.0000
 2357.1708    27.9963    -999.25     5.2737    10.6470    18.0000   235.1880    -999.25  3562.7440   119.0811   117.0000    -999.25     0.0000     1.3259   305.8516    60.0000    75.0000    50.0000    35.0000
 2357.3232    28.3383    84.5002     5.3808    10.6289    -999.25   235.0398    -999.25  3562.7440   119.0000    -999.25    -999.25    -999.25     1.3255   305.7826    60.0000    75.0000    50.0000    35.0000
 2357.4756    28.7923    94.4333     5.3922    11.6245    -999.25   235.0796  2617.1875  3562.7440   119.0000    -999.25     0.0000    -999.25     1.3255   305.7826    60.0000    75.0000    50.0000    35.0000
 2357.6280    29.1279    82.1032     5.8402    12.8480    -999.25   236.0129    -999.25  3562.7440   119.2973   116.0000    -999.25     0.0000     1.3260   305.9205    60.0000    75.0000    50.0000    35.0000
 2357.7804    28.9269    70.6353     5.5371    12.2477    15.0000   235.8357    -999.25  3562.7440   119.3953    -999.25    -999.25    -999.25     1.3262   305.9894    60.0000    75.0000    50.0000    35.0000
 2357.9328    28.7867    -999.25     4.9756    10.2570    -999.25   236.0250  2617.1875  3562.7440   119.0000    -999.25     0.0000    -999.25     1.3261   305.9894    60.0000    75.0000    50.0000    35.0000
 2358.0852    27.9309    -999.25     5.9510     9.2979     9.0000   234.9672    -999.25  3562.7440   119.2245   116.0000    -999.25     0.0000     1.3260   305.9894    60.0000    75.0000    50.0000    35.0000
 2358.2376    27.4938    91.8983     5.2743    11.7230    -999.25   234.7803    -999.25  3562.7440   120.0000    -999.25    -999.25    -999.25     1.3259   305.9894    60.0000    75.0000    50.0000    35.0000
 2358.3900    27.3692    91.8983     5.4349    11.5909    -999.25   235.6146    -999.25  3562.7440   119.3333    -999.25     0.0000    -999.25     1.3262   306.0584    60.0000    75.0000    50.0000    35.0000
 2358.5424    27.3311    97.0028     5.5133    12.5306    42.0000   235.4243    -999.25  3562.7440   119.4324   116.0000    -999.25    -999.25     1.3264   306.1273    60.0000    75.0000    50.0000    35.0000
 2358.6948    27.3311    -999.25     5.5802    12.1941    -999.25   236.0538    -999.25  3562.7440   119.0000    -999.25    -999.25    -999.25     1.3257   305.9894    60.0000    75.0000    50.0000    35.0000
 2358.8472    27.3290    -999.25     5.4258    10.5253    -999.25   236.3760  2617.1875  3562.7440   119.6486    -999.25     0.0000    -999.25     1.3256   305.9894    60.0000    75.0000    50.0000    35.0000
 2358.9996    27.3348    -999.25     5.4004     9.5297    -999.25   235.9599    -999.25  3562.7440   119.8649   116.0000    -999.25    -999.25     1.3261   306.1273    60.0000    75.0000    50.0000    35.0000
 2359.1520    27.3588   107.6257     5.2097    10.0535    12.0000   235.9176    -999.25  3562.7440   119.4595    -999.25    -999.25    -999.25     1.3260   306.1273    60.0000    75.0000    50.0000    35.0000
 2359.3044    27.8528   104.9182     5.3286    10.7848    -999.25   235.7842  2617.1875  3562.7440   120.0000    -999.25     0.0000    -999.25     1.3248   305.8516    61.0000    75.0000    50.0000    35.0000
 2359.4568    28.1537   102.2453     5.4760    11.0984    -999.25   236.0797    -999.25  3562.7440   119.5556   116.0000    -999.25    -999.25     1.3241   305.7137    61.0000    75.0000    50.0000    35.0000
 2359.6092    29.0700    97.0028     5.3706    12.2535    12.0000   235.0812    -999.25  3562.7440   119.0811    -999.25    -999.25    -999.25     1.3255   306.0584    61.0000    75.0000    50.0000    35.0000
 2359.7616    29.5912    97.0028     5.7657    11.9346    -999.25   235.9519    -999.25  3562.7440   120.0000    -999.25    -999.25     0.0000     1.3260   306.1963    60.0000    75.0000    50.0000    35.0000
 2359.9140    29.7353    91.8983     6.0960    10.9807    -999.25   235.6790  2617.1875  3562.7440   119.7297    -999.25     0.0000    -999.25     1.3262   306.2652    60.0000    75.0000    50.0000    35.0000
 2360.0664    29.5418    -999.25     5.8049    10.2927     9.0000   236.0253    -999.25  3562.7440   119.0000   116.0000    -999.25     0.0000     1.3261   306.2652    60.0000    75.0000    50.0000    35.0000
 2360.2188    29.5151    99.6068     5.6785    11.0174    -999.25   236.0457    -999.25  3562.7440   119.7027    -999.25    -999.25    -999.25     1.3257   306.1963    60.0000    75.0000    50.0000    35.0000
 2360.3712    29.5365    -999.25     5.9656    11.3908    -999.25   235.7655  2617.1875  3562.7440   119.4865    -999.25     0.0000    -999.25     1.3257   306.1963    60.0000    75.0000    50.0000    35.0000
 2360.5236    29.5278    -999.25     5.7345    11.9267    12.0000   236.6715    -999.25  3562.7440   119.2703   117.0000    -999.25     0.0000     1.3256   306.1963    60.0000    75.0000    50.0000    35.0000
 2360.6760    29.5144    -999.25     5.9854    12.6042    -999.25   236.5266    -999.25  3562.7440   119.0000    -999.25    -999.25    -999.25     1.3255   306.1963    60.0000    75.0000    50.0000    35.0000
 2360.8284    29.3620    99.6068     6.1639    13.0607    -999.25   236.4458  2617.1875  3562.7440   119.5526    -999.25     0.0000    -999.25     1.3257   306.2652    60.0000    75.0000    50.0000    35.0000
 2360.9808    28.5355    99.6068     5.7502    11.8381    15.0000   236.4200    -999.25  3562.7440   120.0000   118.0000    -999.25     0.0000     1.3256   306.2652    60.0000    75.0000    50.0000    35.0000
 2361.1332    27.9542    -999.25     6.0592    10.4293    -999.25   236.2883    -999.25  3562.7440   119.8889    -999.25    -999.25    -999.25     1.3255   306.2652    60.0000    75.0000    50.0000    35.0000
 2361.2856    27.2236    -999.25     5.7317    11.3759    -999.25   235.7312  2617.1875  3562.7440   119.0000    -999.25     0.0000    -999.25     1.3257   306.3342    61.0000    75.0000    50.0000    35.0000
 2361.4380    26.7617   127.5436     5.5494    12.3722    12.0000   236.3026    -999.25  3562.7440   119.0000   118.0000    -999.25     0.0000     1.3257   306.3342    61.0000    75.0000    50.0000    35.0000
 2361.5904    26.6649    -999.25     5.6951    12.7050    -999.25   235.7508    -999.25  3562.7440   119.1219    -999.25    -999.25    -999.25     1.3256   306.3342    61.0000    75.0000    50.0000    35.0000
 2361.7428    26.5124    -999.25     5.9225    12.7270    -999.25   235.8410  2617.1875  3562.7440   120.0000    -999.25     0.0000    -999.25     1.3258   306.4031    61.0000    75.0000    50.0000    35.0000
 2361.8952    26.4345   115.9550     5.3685    11.3779    18.0000   235.7622    -999.25  3562.7440   120.0000   118.0000    -999.25     0.0000     1.3260   306.4721    61.0000    75.0000    50.0000    35.0000
 2362.0476    26.4377   102.2453     5.5639     9.8539    -999.25   235.7785    -999.25  3562.7440   119.7027    -999.25    -999.25    -999.25     1.3262   306.5410    61.0000    75.0000    50.0000    35.0000
 2362.2000    26.4223    -999.25     5.3574     9.7957    -999.25   234.9561  2617.1875  3562.7440   119.0000    -999.25     0.0000    -999.25     1.3258   306.4721    61.0000    75.0000    50.0000    35.0000
 2362.3524    26.5289    97.0028     5.6163    10.5155    24.0000   234.7629    -999.25  3562.7440   119.7838   116.0000    -999.25     0.0000     1.3261   306.5410    61.0000    75.0000    50.0000    35.0000
 2362.5048    26.9532   102.2453     5.5546    11.2645    -999.25   234.5799    -999.25  3562.7440   119.0000    -999.25    -999.25    -999.25     1.3263   306.6100    61.0000    75.0000    50.0000    35.0000
 2362.6572    27.0962    -999.25     5.4388    11.9691    -999.25   235.6125  2617.1875  3562.7440   119.0000    -999.25     0.0000    -999.25     1.3265   306.6789    61.0000    75.0000    50.0000    35.0000
 2362.8096    27.5631    -999.25     5.2201    11.7314    18.0000   235.5590    -999.25  3562.7440   119.0000   118.0000    -999.25     0.0000     1.3267   306.7479    61.0000    75.0000    50.0000    35.0000
