~Version Information
VERS.             2.0 : CWLS log ASCII standard - Version 2.0
WRAP.             NO  : One line per depth step
#
~Well Information Block
#MNEM.UNIT                   Data Type:Information
#__________________________________________________________
 STRT .M           2778.09960  :START INDEX                  
  STOP.M           3749.9544 : STOP INDEX                    
  STEP.M              0.1524 : STEP                          
  NULL.              -999.25 : NULL VALUE                    
  COMP.           StatoilHydro : COMPANY                       
  WELL.            15/9-F-14 : WELL                          
   FLD.                Volve : FIELD                         
   LOC.            North Sea : LOCATION                      
  PROV.                      : PROVINCE                      
  CNTY.                      : COUNTY                        
  STAT.                      : STATE                         
  CTRY.               Norway : COUNTRY                       
  SRVC.              SLB D&M : SERVICE COMPANY               
  DATE.                      : LOG DATE                      
   UWI.                      : UNIQUE WELL ID                
   API.                      : API NUMBER                    
#
~Curve Information Block
#MNEM.UNIT                     : Curve Description
#---------                     --------------------
DEPT        .M                 : Bit Depth 2hz                                                   
ROP5        .M/HR              : 5ft ROP 2hz                                                     
GRMA_ECO_RT .GAPI              : Gamma Ray, Average, Real-Time                                   
Stick_RT    .RPM               : MWD PKtoPK RPM 2hz                                              
SWOB        .KKGF              : Surface Weight on Bit 2hz                                       
SHKRSK_RT   .----              : MWD SHKRSK 2hz                                                  
SHKPK_RT    .G                 : MWD SHK_PK 2hz                                                  
RPM         .RPM               : SRF SRPM 2hz                                                    
TRPM_RT     .RPM               : MWD TUR_RPM 2hz                                                 
CRPM_RT     .RPM               : MWD CRPM 2hz                                                    
TFLO        .LPM               : HSPM Total Pump Flow 2hz                                        
DHAT        .DEGC              : Downhole Annulus Temperature                                    
DHAP        .BAR               : Downhole Annulus Pressure                                       
TQA         .KMN               : SRF STOR 2hz                                                    
ECD         .G/C3              : Equivalent Circulating Density                                  
SPPA        .BAR               : SRF PUMPRS 2hz                                                  
SPM1        .----              : SRF SPM1 2hz                                                    
SPM2        .----              : SRF SPM2 2hz                                                    
SPM3        .----              : SRF SPM3 2hz                                                    
#
~Parameter Information Block
#MNEM.UNIT                       Value:Description
#__________________________________________________________
#
~Other Information Block

#
~A    DEPT       ROP5 GRMA_ECO_RT   Stick_RT       SWOB  SHKRSK_RT   SHKPK_RT        RPM    TRPM_RT    CRPM_RT       TFLO       DHAT       DHAP        TQA        ECD       SPPA       SPM1       SPM2       SPM3
# ...
 3033.6744      28.08       17.69      27.00       6.29    -999.25    -999.25     170.00    2812.50    -999.25    1962.83      77.00     413.75      12.28       1.47     176.04       0.00      46.00      43.00
 3033.8268      29.05     -999.25    -999.25       6.64    -999.25    -999.25     169.08    -999.25     167.00    1962.83      78.00     413.48      12.99       1.47     175.93       0.00      46.00      43.00
 3033.9792      29.90       20.12    -999.25       6.39       0.00       0.00     169.00    -999.25    -999.25    1962.83      78.00     413.62      12.84       1.47     175.54       0.00      46.00      43.00
 3034.1316      29.89     -999.25    -999.25       6.47    -999.25    -999.25     169.00    -999.25    -999.25    1962.83      78.00     413.96      12.28       1.47     176.14       0.00      46.00      43.00
 3034.2840      29.90       21.39      33.00       6.19    -999.25    -999.25     169.00    -999.25    -999.25    1962.83      78.00     413.48      11.85       1.47     175.76       0.00      46.00      43.00
 3034.4364      29.91     -999.25    -999.25       6.26    -999.25    -999.25     169.49    2812.50     168.00    1962.83      78.00     413.48      12.16       1.47     175.73       0.00      46.00      43.00
 3034.5888      29.95       21.39    -999.25       6.17    -999.25    -999.25     169.28    -999.25    -999.25    1962.83      78.00     413.48      12.40       1.47     175.84       0.00      46.00      43.00
 3034.7412      30.05     -999.25    -999.25       6.07       0.00       0.00     169.25    -999.25    -999.25    1962.83      78.00     413.20      12.60       1.47     175.53       0.00      46.00      43.00
 3034.8936      30.12       16.52    -999.25       6.46    -999.25    -999.25     169.53    -999.25    -999.25    1962.83      78.00     413.75      12.27       1.47     175.38       0.00      46.00      43.00
 3035.0460      30.16     -999.25      30.00       6.58    -999.25    -999.25     169.00    2812.50    -999.25    1962.83      78.00     413.17      12.29       1.47     175.52       0.00      46.00      43.00
 3035.1984      30.14     -999.25    -999.25       6.81    -999.25    -999.25     170.00    -999.25     162.00    1962.83      78.00     414.03      12.80       1.47     175.49       0.00      46.00      43.00
 3035.3508      30.11       21.78    -999.25       6.86       0.00       0.00     169.30    -999.25    -999.25    1962.83      78.00     413.38      13.11       1.47     175.37       0.00      46.00      43.00
 3035.5032      29.75     -999.25    -999.25       7.12    -999.25    -999.25     169.66    -999.25    -999.25    1962.83      78.00     413.27      11.92       1.47     175.68       0.00      46.00      43.00
 3035.6556      29.01       31.16      33.00       7.47    -999.25    -999.25     169.72    2812.50    -999.25    1962.83      78.00     413.48      12.40       1.47     175.47       0.00      46.00      43.00
 3035.8080      28.23     -999.25    -999.25       6.86    -999.25    -999.25     169.43    -999.25     167.00    1962.83      78.00     414.51      12.85       1.47     175.72       0.00      46.00      43.00
 3035.9604      27.83       35.85    -999.25       6.76       0.00       0.00     170.24    -999.25    -999.25    1962.83      78.00     413.20      11.88       1.47     175.78       0.00      46.00      43.00
 3036.1128      27.70     -999.25      27.00       6.71    -999.25    -999.25     169.68    -999.25    -999.25    1962.83      78.00     413.79      11.87       1.47     175.54       0.00      46.00      43.00
 3036.2652      27.48       40.82    -999.25       6.89    -999.25    -999.25     169.03    2812.50     169.00    1962.83      78.00     413.48      12.17       1.47     175.57       0.00      46.00      43.00
 3036.4176      26.96     -999.25    -999.25       6.62    -999.25    -999.25     169.00    -999.25    -999.25    1962.83      78.00     413.38      11.96       1.47     175.48       0.00      46.00      43.00
 3036.5700      26.73       46.10    -999.25       6.69       0.00       0.00     169.00    -999.25    -999.25    1962.83      78.00     413.48      12.20       1.47     175.08       0.00      46.00      43.00
 3036.7224      26.40     -999.25      27.00       7.25    -999.25    -999.25     169.64    -999.25    -999.25    1962.83      78.00     413.55      12.06       1.47     175.45       0.00      46.00      43.00
 3036.8748      25.79       48.07    -999.25       7.26    -999.25    -999.25     169.00    2812.50     167.00    1962.83      78.00     413.69      11.56       1.47     174.89       0.00      46.00      43.00
 3037.0272      25.45     -999.25    -999.25       6.78       0.00       0.00     169.60    -999.25    -999.25    1962.83      78.00     413.27      12.21       1.47     175.48       0.00      46.00      43.00
 3037.1796      25.65       42.50    -999.25       6.17    -999.25    -999.25     169.07    -999.25    -999.25    1962.83      78.00     413.75      13.07       1.47     175.31       0.00      46.00      43.00
 3037.3320      26.28       46.10      36.00       6.00    -999.25    -999.25     169.61    2812.50    -999.25    1962.83      78.00     413.69      11.64       1.47     175.55       0.00      46.00      43.00
 3037.4844      26.61     -999.25    -999.25       6.13    -999.25    -999.25     169.00    -999.25     166.00    1962.83      78.00     414.03      11.40       1.47     175.19       0.00      46.00      43.00
 3037.6368      26.62       51.67    -999.25       6.28       0.00       0.00     169.15    -999.25    -999.25    1962.83      78.00     413.27      11.15       1.47     175.05       0.00      46.00      43.00
 3037.7892      26.62     -999.25    -999.25       6.56    -999.25    -999.25     170.00    -999.25    -999.25    1962.83      78.00     413.75      11.28       1.47     175.34       0.00      46.00      43.00
 3037.9416      26.90       48.07      36.00       6.88    -999.25    -999.25     169.87    -999.25    -999.25    1962.83      78.00     413.27      11.59       1.47     174.95       0.00      46.00      43.00
 3038.0940      26.72       53.93    -999.25       6.48    -999.25    -999.25     169.00    2812.50     168.00    1962.83      78.00     413.41      11.90       1.47     174.92       0.00      46.00      43.00
 3038.2464      26.68     -999.25    -999.25       6.76       0.00       0.00     169.00    -999.25    -999.25    1962.83      78.00     414.38      11.92       1.47     175.03       0.00      46.00      43.00
 3038.3988      26.81       60.09    -999.25       7.09    -999.25    -999.25     169.00    -999.25    -999.25    1962.83      78.00     414.10      11.76       1.47     175.34       0.00      46.00      43.00
 3038.5512      26.95     -999.25      48.00       6.97    -999.25    -999.25     169.59    2812.50    -999.25    1962.83      78.00     413.72      12.05       1.47     175.82       0.00      46.00      43.00
 3038.7036      26.61       62.21    -999.25       7.03    -999.25    -999.25     169.77    -999.25     168.00    1962.83      78.00     413.48      12.02       1.47     175.44       0.00      46.00      43.00
 3038.8560      26.06     -999.25    -999.25       7.19       0.00       0.00     169.44    -999.25    -999.25    1962.83      78.00     413.55      12.15       1.47     175.33       0.00      46.00      43.00
 3039.0084      25.54       68.77      30.00       7.24    -999.25    -999.25     169.57    -999.25    -999.25    1962.83      78.00     413.82      12.44       1.47     175.44       0.00      46.00      43.00
 3039.1608      25.14       66.55    -999.25       6.67    -999.25    -999.25     169.62    2812.50     168.00    1962.83      78.00     414.17      12.00       1.47     175.70       0.00      46.00      43.00
 3039.3132      25.03     -999.25    -999.25       6.65       0.00       0.00     169.17    -999.25    -999.25    1962.83      78.00     413.96      11.22       1.47     175.72       0.00      46.00      43.00
 3039.4656      25.14       71.02    -999.25       6.95    -999.25    -999.25     169.14    -999.25    -999.25    1962.83      78.00     414.10      11.43       1.47     176.02       0.00      46.00      43.00
