~Version Information
VERS.             2.0 : CWLS log ASCII standard - Version 2.0
WRAP.             NO  : One line per depth step
#
~Well Information Block
#MNEM.UNIT                   Data Type:Information
#__________________________________________________________
 STRT .M           2250.03360  :START INDEX                  
  STOP.M           2787.8532 : STOP INDEX                    
  STEP.M              0.1524 : STEP                          
  NULL.              -999.25 : NULL VALUE                    
  COMP.           StatoilHydro : COMPANY                       
  WELL.            15_9_F_14 : WELL                          
   FLD.                Volve : FIELD                         
   LOC.           Maersk Inspirer : LOCATION                      
  PROV.                      : PROVINCE                      
  CNTY.                      : COUNTY                        
  STAT.                      : STATE                         
  CTRY.                      : COUNTRY                       
  SRVC.              SLB D&M : SERVICE COMPANY               
  DATE.                      : LOG DATE                      
   UWI.                      : UNIQUE WELL ID                
   API.                      : API NUMBER                    
#
~Curve Information Block
#MNEM.UNIT                     : Curve Description
#---------                     --------------------
DEPT        .M                 : Bit Depth 2hz                                                   
ROP5        .M/HR              : 5ft ROP 2hz                                                     
ARC_GR_RT   .GAPI              : ARC Gamma Ray, Real-Time                                        
SWOB        .KKGF              : Surface Weight on Bit 2hz                                       
TQA         .KMN               : SRF STOR 2hz                                                    
Stick_RT    .RPM               : MWD PKtoPK RPM 2hz                                              
SPPA        .BAR               : SRF PUMPRS 2hz                                                  
TRPM_RT     .RPM               : MWD TUR_RPM 2hz                                                 
TFLO        .LPM               : HSPM Total Pump Flow 2hz                                        
RPM         .RPM               : SRF SRPM 2hz                                                    
CRPM_RT     .RPM               : MWD CRPM 2hz                                                    
SHKRSK_RT   .----              : MWD SHKRSK 2hz                                                  
SHK2_RT     .----              : ARC Shock Level, Real-Time                                      
ECD_ARC     .G/C3              : Equivalent Circulating Density                                  
APRS_ARC    .BAR               : ARC Annular Pressure                                            
ATMP        .DEGC              : ARC Annular Temperature                                         
SPM1        .----              : SRF SPM1 2hz                                                    
SPM2        .----              : SRF SPM2 2hz                                                    
SPM3        .----              : SRF SPM3 2hz                                                    
#
~Parameter Information Block
#MNEM.UNIT                       Value:Description
#__________________________________________________________
#
~Other Information Block

#
~A    DEPT       ROP5  ARC_GR_RT       SWOB        TQA   Stick_RT       SPPA    TRPM_RT       TFLO        RPM    CRPM_RT  SHKRSK_RT    SHK2_RT    ECD_ARC   APRS_ARC       ATMP       SPM1       SPM2       SPM3
 2250.0336    -999.25    91.8983     1.8952     7.6334    39.0000   120.4109    -999.25  2666.9954    29.7423    28.0000    -999.25     0.0000     1.3313   293.3031    39.0000    60.0000     0.0000    60.0000
 2250.1860    -999.25    -999.25     2.2988     8.5433    -999.25   121.8338  1679.6875  2666.9954    29.1071    27.0000     0.0000    -999.25     1.3312   293.3031    39.0000    60.0000     0.0000    60.0000
 2250.3384    19.7809    99.6068     2.5225     8.2682    33.0000   123.0028    -999.25  2666.9954    29.4727    -999.25    -999.25     0.0000     1.3315   293.3720    39.0000    60.0000     0.0000    60.0000
 2250.4908    19.7804    91.8983     2.5204     9.2574    -999.25   123.3786  1679.6875  2666.9954    29.0000    -999.25     0.0000    -999.25     1.3314   293.3720    39.0000    60.0000     0.0000    60.0000
 2250.6432    19.7728    91.8983     2.5110     9.3463    -999.25   123.6700    -999.25  2666.9954    29.5091    -999.25    -999.25     0.0000     1.3310   293.3031    39.0000    60.0000     0.0000    60.0000
 2250.7956    19.7652    77.4125     2.5767     8.8769    -999.25   123.2978  1679.6875  2666.9954    29.4821    -999.25     0.0000    -999.25     1.3309   293.3031    39.0000    60.0000     0.0000    60.0000
 2250.9480    19.7780    86.9317     2.8672     8.5135    45.0000   123.1101    -999.25  2666.9954    29.0545    28.0000    -999.25     0.0000     1.3314   293.4410    39.0000    60.0000     0.0000    60.0000
 2251.1004    19.7573    82.1032     2.8531     8.8531    -999.25   123.4749  1679.6875  2666.9954    29.4107    -999.25     0.0000    -999.25     1.3310   293.3720    39.0000    60.0000     0.0000    60.0000
 2251.2528    19.7525    -999.25     2.7481     8.9144    45.0000   123.8770    -999.25  2666.9954    29.0909    27.0000    -999.25     0.0000     1.3312   293.4410    39.0000    60.0000     0.0000    60.0000
 2251.4052    19.7804    86.9317     2.6419     8.8694    -999.25   124.1257    -999.25  2666.9954    29.8571    -999.25    -999.25    -999.25     1.3302   293.2341    39.0000    60.0000     0.0000    60.0000
 2251.5576    19.7708    91.8983     2.5609     8.4121    -999.25   123.3706  1679.6875  2666.9954    29.0000    33.0000     0.0000     0.0000     1.3298   293.1652    39.0000    60.0000     0.0000    60.0000
 2251.7100    19.7670    99.6068     2.6846     8.9112    99.0000   123.2576    -999.25  2666.9954    29.0000    -999.25    -999.25    -999.25     1.3300   293.2341    39.0000    60.0000     0.0000    60.0000
 2251.8624    19.7653    89.3978     2.7979     8.4597    -999.25   123.3139  1679.6875  2666.9954    29.0000    20.0000     0.0000    -999.25     1.3299   293.2341    39.0000    60.0000     0.0000    60.0000
 2252.0148    19.7651    91.8983     2.7877     8.4755   144.0000   123.0781    -999.25  2666.9954    29.7500    -999.25    -999.25     0.0000     1.3299   293.2341    39.0000    60.0000     0.0000    60.0000
 2252.1672    19.7667    91.8983     2.8493     8.6026    -999.25   123.4270  1679.6875  2666.9954    29.7455    -999.25     0.0000    -999.25     1.3301   293.3031    39.0000    60.0000     0.0000    60.0000
 2252.3196    19.7674    99.6068     3.0715     8.6458    48.0000   123.0268    -999.25  2666.9954    29.0000    23.0000    -999.25     0.0000     1.3300   293.3031    39.0000    60.0000     0.0000    60.0000
 2252.4720    19.7616    91.8983     3.1558     8.9009    -999.25   123.3349  1679.6875  2666.9954    29.5091    -999.25     0.0000    -999.25     1.3299   293.3031    39.0000    60.0000     0.0000    60.0000
 2252.6244    19.7660    97.0028     3.2333     8.6138   381.0000   123.8607    -999.25  2666.9954    29.8571     0.0000    -999.25     0.0000     1.3301   293.3720    39.0000    60.0000     0.0000    60.0000
 2252.7768    19.7617    89.3978     0.8433     9.8248    -999.25   124.2009  1679.6875  2666.9954    29.1273    -999.25     0.0000    -999.25     1.3303   293.4410    39.0000    60.0000     0.0000    60.0000
 2252.9292    19.7651    97.0028     0.7470     8.5628    54.0000   123.0135    -999.25  2666.9954    29.0000    34.0000    -999.25     0.0000     1.3306   293.5099    39.0000    60.0000     0.0000    60.0000
 2253.0816    19.7638    91.8983     0.6697     7.6387    -999.25   120.7599    -999.25  2666.9954    29.0000    -999.25    -999.25    -999.25     1.3305   293.5099    39.0000    60.0000     0.0000    60.0000
 2253.2340    19.9345    91.8983     0.9154     8.5557    -999.25   121.3644  1679.6875  2666.9954    29.3922    29.0000     0.0000    -999.25     1.3307   293.5789    39.0000    60.0000     0.0000    60.0000
 2253.3864    20.3600    84.5002     1.4340     8.4716    54.0000   121.6923    -999.25  2666.9954    29.1136    -999.25    -999.25     0.0000     1.3272   292.8205    39.0000    60.0000     0.0000    60.0000
 2253.5388    20.8047    97.0028     2.5565     9.0149    -999.25   122.5210  1640.6250  2666.9954    29.6136    -999.25     0.0000    -999.25     1.3268   292.7515    39.0000    60.0000     0.0000    60.0000
 2253.6912    21.2714    94.4333     3.5896     8.5644    78.0000   123.4013    -999.25  2666.9954    29.4091    32.0000    -999.25     0.0000     1.3270   292.8205    39.0000    60.0000     0.0000    60.0000
 2253.8436    21.7519    91.8983     3.6829     9.3888    -999.25   125.1955    -999.25  2666.9954    29.4091    -999.25    -999.25    -999.25     1.3275   292.9584    39.0000    60.0000     0.0000    60.0000
 2253.9960    22.2704    91.8983     2.6170    10.1037    -999.25   125.7615  1679.6875  2666.9954    30.0000    -999.25     0.0000    -999.25     1.3274   292.9584    39.0000    60.0000     0.0000    60.0000
 2254.1484    22.8074    97.0028     2.9840     9.3733   309.0000   125.1416    -999.25  2666.9954    29.6591    30.0000    -999.25     0.0000     1.3277   293.0273    39.0000    60.0000     0.0000    60.0000
 2254.3008    23.3683    94.4333     3.1320     9.4799    -999.25   124.3983    -999.25  2666.9954    29.0000    -999.25    -999.25    -999.25     1.3291   293.3720    39.0000    60.0000     0.0000    60.0000
 2254.4532    23.9609    99.6068     3.1405     9.4076    -999.25   125.3171  1679.6875  2666.9954    29.0000    -999.25     0.0000    -999.25     1.3287   293.3031    39.0000    60.0000     0.0000    60.0000
 2254.6056    24.5828   102.2453     3.3825     9.0937    63.0000   125.6041    -999.25  2666.9954    29.8864    32.0000    -999.25     0.0000     1.3293   293.4410    40.0000    60.0000     0.0000    60.0000
 2254.7580    24.9668    84.5002     3.1852     9.9843    -999.25   125.3843    -999.25  2666.9954    29.4091    -999.25    -999.25    -999.25     1.3298   293.5789    40.0000    60.0000     0.0000    60.0000
 2254.9104    24.9737   102.2453     3.2818     9.6081    -999.25   125.5014  1679.6875  2666.9954    29.5909    26.0000     0.0000    -999.25     1.3297   293.5789    40.0000    60.0000     0.0000    60.0000
 2255.0628    19.5852    91.8983     0.4728     8.8574   222.0000   124.9781  1679.6875  2666.9954    29.4848    28.0000     0.0000     0.0000     1.3296   293.5789    40.0000    60.0000     0.0000    60.0000
 2255.2152    17.7459    86.9317     0.5548     7.7084   234.0000   121.5910  1679.6875  2666.9954    29.2745    30.0000     0.0000     0.0000     1.3299   293.6478    40.0000    60.0000     0.0000    60.0000
 2255.3676    16.9392    89.3978     0.7591     8.0814    -999.25   121.5269  1679.6875  2666.9954    29.8630    -999.25     0.0000    -999.25     1.3295   293.5789    40.0000    60.0000     0.0000    60.0000
 2255.5200    16.1959    39.7323     0.6303     8.2092    30.0000   122.0289    -999.25  2666.9954    29.2703    28.0000    -999.25     0.0000     1.3297   293.6478    40.0000    60.0000     0.0000    60.0000
 2255.6724    15.5178    43.1124     0.4564     8.4391    -999.25   122.4750  1679.6875  2666.9954    29.3836    34.0000     0.0000    -999.25     1.3296   293.6478    40.0000    60.0000     0.0000    60.0000
 2255.8248    14.8926    38.0941     0.3250     7.9679    42.0000   122.0217    -999.25  2666.9954    29.1757    -999.25    -999.25     0.0000     1.3298   293.7168    40.0000    60.0000     0.0000    60.0000
