~Version Information
VERS.             2.0 : CWLS log ASCII standard - Version 2.0
WRAP.             NO  : One line per depth step
#
~Well Information Block
#MNEM.UNIT                   Data Type:Information
#__________________________________________________________
 STRT .M           2778.09960  :START INDEX                  
  STOP.M           3749.9544 : STOP INDEX                    
  STEP.M              0.1524 : STEP                          
  NULL.              -999.25 : NULL VALUE                    
  COMP.           StatoilHydro : COMPANY                       
  WELL.            15/9-F-14 : WELL                          
   FLD.                Volve : FIELD                         
   LOC.            North Sea : LOCATION                      
  PROV.                      : PROVINCE                      
  CNTY.                      : COUNTY                        
  STAT.                      : STATE                         
  CTRY.               Norway : COUNTRY                       
  SRVC.              SLB D&M : SERVICE COMPANY               
  DATE.                      : LOG DATE                      
   UWI.                      : UNIQUE WELL ID                
   API.                      : API NUMBER                    
#
~Curve Information Block
#MNEM.UNIT                     : Curve Description
#---------                     --------------------
DEPT        .M                 : Bit Depth 2hz                                                   
ROP5        .M/HR              : 5ft ROP 2hz                                                     
GRMA_ECO_RT .GAPI              : Gamma Ray, Average, Real-Time                                   
Stick_RT    .RPM               : MWD PKtoPK RPM 2hz                                              
SWOB        .KKGF              : Surface Weight on Bit 2hz                                       
SHKRSK_RT   .----              : MWD SHKRSK 2hz                                                  
SHKPK_RT    .G                 : MWD SHK_PK 2hz                                                  
RPM         .RPM               : SRF SRPM 2hz                                                    
TRPM_RT     .RPM               : MWD TUR_RPM 2hz                                                 
CRPM_RT     .RPM               : MWD CRPM 2hz                                                    
TFLO        .LPM               : HSPM Total Pump Flow 2hz                                        
DHAT        .DEGC              : Downhole Annulus Temperature                                    
DHAP        .BAR               : Downhole Annulus Pressure                                       
TQA         .KMN               : SRF STOR 2hz                                                    
ECD         .G/C3              : Equivalent Circulating Density                                  
SPPA        .BAR               : SRF PUMPRS 2hz                                                  
SPM1        .----              : SRF SPM1 2hz                                                    
SPM2        .----              : SRF SPM2 2hz                                                    
SPM3        .----              : SRF SPM3 2hz                                                    
#
~Parameter Information Block
#MNEM.UNIT                       Value:Description
#__________________________________________________________
#
~Other Information Block

#
~A    DEPT       ROP5 GRMA_ECO_RT   Stick_RT       SWOB  SHKRSK_RT   SHKPK_RT        RPM    TRPM_RT    CRPM_RT       TFLO       DHAT       DHAP        TQA        ECD       SPPA       SPM1       SPM2       SPM3
# ...
 3681.5268      26.83       77.74    -999.25       2.89       0.00       0.00     179.57    -999.25    -999.25    1962.83      94.00     454.78      14.15       1.49     181.43       0.00      44.00      45.00
 3681.6792      27.06     -999.25    -999.25       2.11    -999.25    -999.25     179.87    -999.25    -999.25    1962.83      94.00     455.05      13.19       1.49     181.46       0.00      44.00      45.00
 3681.8316      28.00       72.16     102.00       2.44    -999.25    -999.25     179.00    2812.50    -999.25    1962.83      94.00     455.19      13.51       1.49     181.61       0.00      44.00      45.00
 3681.9840      28.86     -999.25    -999.25       3.46    -999.25    -999.25     179.72    -999.25     169.00    1962.83      94.00     454.71      14.22       1.49     181.25       0.00      44.00      45.00
 3682.1364      29.03     -999.25    -999.25       2.91       0.00       0.00     180.95    -999.25    -999.25    1962.83      94.00     455.26      17.17       1.49     180.44       0.00      44.00      45.00
 3682.2888      28.51       53.43    -999.25       4.77    -999.25    -999.25     179.45    -999.25    -999.25    1962.83      94.00     454.99      16.64       1.49     179.93       0.00      44.00      45.00
 3682.4412      27.62       47.78     228.00       3.29    -999.25    -999.25     178.51    2812.50     163.00    1962.83      94.00     455.05      15.96       1.49     179.49       0.00      44.00      45.00
 3682.5936      26.85     -999.25    -999.25       4.53    -999.25    -999.25     179.44    -999.25    -999.25    1962.83      94.00     454.67      16.59       1.49     179.39       0.00      44.00      45.00
 3682.7460      26.16       55.38    -999.25       4.68       0.00       0.00     180.11    -999.25    -999.25    1962.83      94.00     454.64      14.70       1.49     179.52       0.00      44.00      45.00
 3682.8984      25.58     -999.25     234.00       3.33    -999.25    -999.25     178.78    2812.50    -999.25    1962.83      94.00     454.54      14.44       1.49     179.47       0.00      44.00      45.00
 3683.0508      25.10       59.91    -999.25       3.72    -999.25    -999.25     180.60    -999.25     165.00    1962.83      94.00     454.78      16.88       1.49     179.49       0.00      44.00      45.00
 3683.2032      24.79       66.35    -999.25       3.81       0.00       0.00     179.73    -999.25    -999.25    1962.83      94.00     454.57      16.96       1.49     179.01       0.00      44.00      45.00
 3683.3556      24.22       68.56     237.00       3.34    -999.25    -999.25     179.02    -999.25    -999.25    1962.83      94.00     454.09      17.71       1.49     179.13       0.00      44.00      45.00
 3683.5080      23.56     -999.25    -999.25       3.51    -999.25    -999.25     178.61    2812.50     165.00    1962.83      94.00     454.92      15.84       1.49     179.14       0.00      44.00      45.00
 3683.6604      22.98       75.39    -999.25       5.49       0.00       0.00     179.57    -999.25    -999.25    1962.83      94.00     454.36      16.50       1.49     179.16       0.00      44.00      45.00
 3683.8128      22.51       77.74     255.00       5.55    -999.25    -999.25     179.82    -999.25    -999.25    1962.83      94.00     455.40      15.57       1.49     179.18       0.00      44.00      45.00
 3683.9652      22.28     -999.25    -999.25       4.07    -999.25    -999.25     179.30    2812.50     159.00    1962.83      94.00     455.47      16.50       1.49     179.35       0.00      44.00      45.00
 3684.1176      22.47       87.44    -999.25       3.59       0.00       0.00     178.73    -999.25    -999.25    1962.83      94.00     454.85      15.51       1.49     179.44       0.00      44.00      45.00
 3684.2700      22.65     -999.25    -999.25       2.63    -999.25    -999.25     179.64    -999.25    -999.25    1962.83      94.00     455.12      14.64       1.49     179.59       0.00      44.00      45.00
 3684.4224      22.98      170.01     249.00       2.98    -999.25    -999.25     179.85    2812.50    -999.25    1962.83      94.00     456.16      13.81       1.49     180.32       0.00      44.00      45.00
 3684.5748      23.26     -999.25    -999.25       4.40    -999.25    -999.25     178.51    -999.25     165.00    1962.83      94.00     452.30      14.39       1.48     181.45       0.00      44.00      45.00
 3684.7272      23.37     -999.25    -999.25       4.98       0.00       0.00     179.66    -999.25    -999.25    1962.83      94.00     453.47      14.94       1.48     181.26       0.00      44.00      45.00
 3684.8796      23.50       64.17    -999.25       4.51    -999.25    -999.25     178.40    -999.25    -999.25    1962.83      94.00     452.50      14.12       1.48     181.10       0.00      44.00      45.00
 3685.0320      23.55     -999.25     180.00       5.70    -999.25    -999.25     179.88    2812.50     163.00    1962.83      94.00     451.61      15.39       1.48     180.53       0.00      44.00      45.00
 3685.1844      23.65       57.83    -999.25       5.50       0.00       0.00     179.62    -999.25    -999.25    1962.83      94.00     453.50      15.75       1.48     180.01       0.00      44.00      45.00
 3685.3368      23.83     -999.25    -999.25       4.14    -999.25    -999.25     179.00    -999.25    -999.25    1962.83      94.00     453.19      15.69       1.48     179.90       0.00      44.00      45.00
 3685.4892      23.97       47.92     195.00       4.33    -999.25    -999.25     179.80    2812.50    -999.25    1962.83      94.00     455.05      16.32       1.49     179.79       0.00      44.00      45.00
 3685.6416      23.30     -999.25    -999.25       5.11       0.00       0.00     179.88    -999.25     171.00    1962.83      94.00     451.68      16.72       1.48     180.12       0.00      44.00      45.00
 3685.7940      22.71       40.58    -999.25       4.58    -999.25    -999.25     180.16    -999.25    -999.25    1962.83      94.00     454.02      15.85       1.49     179.85       0.00      44.00      45.00
 3685.9464      21.85     -999.25     186.00       5.87    -999.25    -999.25     179.03    2812.50     177.00    1962.83      94.00     453.12      15.25       1.48     180.05       0.00      44.00      45.00
 3686.0988      20.91       37.10    -999.25       7.37       0.00       0.00     179.50    -999.25    -999.25    1962.83      94.00     452.57      15.32       1.48     180.67       0.00      44.00      45.00
 3686.2512      19.89     -999.25     132.00       8.45    -999.25    -999.25     179.81    2812.50    -999.25    1962.83      94.00     454.09      14.95       1.49     181.47       0.00      44.00      45.00
 3686.4036      18.97       35.42    -999.25       6.22    -999.25    -999.25     179.64    -999.25     174.00    1962.83      94.00     454.57      15.42       1.49     181.58       0.00      44.00      45.00
 3686.5560      18.60       42.36    -999.25       6.48       0.00       0.00     179.57    -999.25    -999.25    1962.83      94.00     455.05      16.96       1.49     180.49       0.00      44.00      45.00
 3686.7084      18.42       42.36     141.00       6.42    -999.25    -999.25     179.96    2812.50     172.00    1962.83      94.00     455.02      16.94       1.49     180.33       0.00      44.00      45.00
 3686.8608      18.31       44.18    -999.25       5.09       0.00       0.00     179.11    -999.25    -999.25    1962.83      94.00     452.16      15.66       1.48     180.14       0.00      44.00      45.00
 3687.0132      18.25       47.78     156.00       5.97    -999.25    -999.25     179.42    -999.25    -999.25    1962.83      94.00     451.74      14.14       1.48     180.36       0.00      44.00      45.00
 3687.1656      18.49       35.42    -999.25       5.14    -999.25    -999.25     179.55    2812.50     174.00    1962.83      94.00     452.02      15.56       1.48     180.81       0.00      44.00      45.00
 3687.3180      18.70       37.10    -999.25       5.98       0.00       0.00     180.00    -999.25    -999.25    1962.83      94.00     452.92      14.54       1.48     180.83       0.00      44.00      45.00
