~Version Information
VERS.             2.0 : CWLS log ASCII standard - Version 2.0
WRAP.             NO  : One line per depth step
#
~Well Information Block
#MNEM.UNIT                   Data Type:Information
#__________________________________________________________
 STRT .M           2250.03360  :START INDEX                  
  STOP.M           2787.8532 : STOP INDEX                    
  STEP.M              0.1524 : STEP                          
  NULL.              -999.25 : NULL VALUE                    
  COMP.           StatoilHydro : COMPANY                       
  WELL.            15_9_F_14 : WELL                          
   FLD.                Volve : FIELD                         
   LOC.           Maersk Inspirer : LOCATION                      
  PROV.                      : PROVINCE                      
  CNTY.                      : COUNTY                        
  STAT.                      : STATE                         
  CTRY.                      : COUNTRY                       
  SRVC.              SLB D&M : SERVICE COMPANY               
  DATE.                      : LOG DATE                      
   UWI.                      : UNIQUE WELL ID                
   API.                      : API NUMBER                    
#
~Curve Information Block
#MNEM.UNIT                     : Curve Description
#---------                     --------------------
DEPT        .M                 : Bit Depth 2hz                                                   
ROP5        .M/HR              : 5ft ROP 2hz                                                     
ARC_GR_RT   .GAPI              : ARC Gamma Ray, Real-Time                                        
SWOB        .KKGF              : Surface Weight on Bit 2hz                                       
TQA         .KMN               : SRF STOR 2hz                                                    
Stick_RT    .RPM               : MWD PKtoPK RPM 2hz                                              
SPPA        .BAR               : SRF PUMPRS 2hz                                                  
TRPM_RT     .RPM               : MWD TUR_RPM 2hz                                                 
TFLO        .LPM               : HSPM Total Pump Flow 2hz                                        
RPM         .RPM               : SRF SRPM 2hz                                                    
CRPM_RT     .RPM               : MWD CRPM 2hz                                                    
SHKRSK_RT   .----              : MWD SHKRSK 2hz                                                  
SHK2_RT     .----              : ARC Shock Level, Real-Time                                      
ECD_ARC     .G/C3              : Equivalent Circulating Density                                  
APRS_ARC    .BAR               : ARC Annular Pressure                                            
ATMP        .DEGC              : ARC Annular Temperature                                         
SPM1        .----              : SRF SPM1 2hz                                                    
SPM2        .----              : SRF SPM2 2hz                                                    
SPM3        .----              : SRF SPM3 2hz                                                    
#
~Parameter Information Block
#MNEM.UNIT                       Value:Description
#__________________________________________________________
#
~Other Information Block

#
~A    DEPT       ROP5  ARC_GR_RT       SWOB        TQA   Stick_RT       SPPA    TRPM_RT       TFLO        RPM    CRPM_RT  SHKRSK_RT    SHK2_RT    ECD_ARC   APRS_ARC       ATMP       SPM1       SPM2       SPM3
# ...
 2499.6648    50.1130    -999.25     1.1482    13.2299    -999.25   243.7425    -999.25  3561.2438   140.0000    -999.25    -999.25    -999.25     1.3386   326.7427    69.0000    65.0000    50.0000    45.0000
 2499.8172    50.1130    -999.25     1.0912    14.0986    -999.25   241.1023    -999.25  3561.2438   139.0000    -999.25    -999.25    -999.25     1.3388   326.8116    70.0000    65.0000    50.0000    45.0000
 2499.9696    50.1130    -999.25     1.1881    13.3591    12.0000   241.6637    -999.25  3561.2438   138.2273    -999.25    -999.25     0.0000     1.3393   326.9495    70.0000    65.0000    50.0000    45.0000
 2500.1220    50.1130    -999.25     1.2836    12.8327    -999.25   241.9924    -999.25  3561.2438   138.5455    -999.25    -999.25    -999.25     1.3392   326.9495    70.0000    65.0000    50.0000    45.0000
 2500.2744    50.1148    -999.25     1.2564    12.7522    -999.25   241.9516    -999.25  3561.2438   139.0000    -999.25    -999.25    -999.25     1.3394   327.0185    70.0000    65.0000    50.0000    45.0000
 2500.4268    50.1113    -999.25     1.3545    13.2238    -999.25   241.4795    -999.25  3561.2438   139.0000    -999.25    -999.25    -999.25     1.3393   327.0185    70.0000    65.0000    50.0000    45.0000
 2500.5792    50.1130    -999.25     1.1558    12.5830    -999.25   241.5691    -999.25  3561.2438   140.0000    -999.25    -999.25    -999.25     1.3401   327.2253    70.0000    65.0000    50.0000    45.0000
 2500.7316    50.1130    -999.25     1.3039    13.7630    12.0000   242.4449    -999.25  3561.2438   140.0000    -999.25    -999.25     0.0000     1.3400   327.2253    70.0000    65.0000    50.0000    45.0000
 2500.8840    50.1095    -999.25     3.3138    13.1630    -999.25   241.9200    -999.25  3561.2438   139.4091    -999.25    -999.25    -999.25     1.3399   327.2253    70.0000    65.0000    50.0000    45.0000
 2501.0364    28.1930    -999.25    -1.0593     9.8062     9.0000   237.3066  2636.7188  3561.2438   136.6511   135.0000     0.0000     0.0000     1.3398   327.2253    70.0000    65.0000    50.0000    45.0000
 2501.1888    26.5319   260.8987    -0.8924     8.9161    15.0000   234.9253    -999.25  3561.2438   140.0000    -999.25    -999.25     0.0000     1.3398   327.2253    70.0000    65.0000    50.0000    45.0000
 2501.3412    25.9256    -999.25    -0.3520    11.3009    -999.25   236.9217    -999.25  3561.2438   139.7188    -999.25    -999.25    -999.25     1.3400   327.2943    70.0000    65.0000    50.0000    45.0000
 2501.4936    25.3409    -999.25    -0.4949    11.4845    -999.25   238.1320  2617.1875  3561.2438   139.0000    -999.25     0.0000    -999.25     1.3402   327.3632    70.0000    65.0000    50.0000    45.0000
 2501.6460    25.0244    -999.25     0.0976    11.6066    -999.25   238.8601    -999.25  3561.2438   139.0000   135.0000    -999.25    -999.25     1.3398   327.2943    70.0000    65.0000    50.0000    45.0000
 2501.7984    24.8741    -999.25    -0.0862    11.7959    66.0000   239.5125    -999.25  3561.2438   139.0000    -999.25    -999.25     0.0000     1.3403   327.4322    70.0000    65.0000    50.0000    45.0000
 2501.9508    24.7274    -999.25    -0.2629    12.0663    -999.25   239.8720    -999.25  3561.2438   139.4400    -999.25    -999.25    -999.25     1.3402   327.4322    70.0000    65.0000    50.0000    45.0000
 2502.1032    24.5816    -999.25    -0.6520    11.8296    -999.25   240.2626  2617.1875  3561.2438   140.0000    -999.25    -999.25    -999.25     1.3402   327.4322    70.0000    65.0000    50.0000    45.0000
 2502.2556    24.4387    -999.25     0.4794    10.1881    -999.25   239.3805    -999.25  3561.2438   140.0000    -999.25     0.0000    -999.25     1.3401   327.4322    70.0000    65.0000    50.0000    45.0000
 2502.4080    24.3257    -999.25     1.2964     9.3696    -999.25   237.8374    -999.25  3561.2438   140.0000   134.0000    -999.25    -999.25     1.3408   327.6390    70.0000    65.0000    50.0000    45.0000
 2502.5604    39.0632    -999.25     1.8493    11.6548    39.0000   237.0494    -999.25  3561.2438   140.0000    -999.25    -999.25     0.0000     1.3408   327.6390    70.0000    65.0000    50.0000    45.0000
 2502.7128    42.7529    -999.25     1.9074    12.1286    -999.25   239.9970    -999.25  3561.2438   139.1364    -999.25    -999.25    -999.25     1.3410   327.7079    70.0000    65.0000    50.0000    45.0000
 2502.8652    44.4243    -999.25     1.7967    12.4996    -999.25   241.5383    -999.25  3561.2438   139.0000    -999.25    -999.25    -999.25     1.3409   327.7079    70.0000    65.0000    50.0000    45.0000
 2503.0176    46.2484    -999.25     1.3200    12.7841    -999.25   242.3057  2617.1875  3561.2438   139.4545    -999.25     0.0000    -999.25     1.3408   327.7079    70.0000    65.0000    50.0000    45.0000
 2503.1700    47.3252    -999.25     0.8526    12.9019    -999.25   242.5069    -999.25  3561.2438   139.9091   137.0000    -999.25    -999.25     1.3410   327.7769    70.0000    65.0000    50.0000    45.0000
 2503.3224    47.8557    -999.25     0.6461    13.1267    24.0000   244.2494    -999.25  3561.2438   139.0000    -999.25    -999.25     0.0000     1.3409   327.7769    70.0000    65.0000    50.0000    45.0000
 2503.4748    48.3950    -999.25     0.5712    11.5277    -999.25   242.8386    -999.25  3561.2438   139.0000    -999.25    -999.25    -999.25     1.3412   327.8458    70.0000    65.0000    50.0000    45.0000
 2503.6272    48.9550    -999.25     0.7595    11.6072    -999.25   241.4459    -999.25  3561.2438   139.0000    -999.25    -999.25    -999.25     1.3411   327.8458    70.0000    65.0000    50.0000    45.0000
 2503.7796    49.5194    -999.25    -0.1738    12.0436    -999.25   240.4329  2617.1875  3561.2438   138.5909    -999.25    -999.25    -999.25     1.3410   327.8458    70.0000    65.0000    50.0000    45.0000
 2503.9320    49.9864    -999.25     0.0749    12.1316    -999.25   240.1142    -999.25  3561.2438   138.1818    -999.25     0.0000    -999.25     1.3412   327.9148    70.0000    65.0000    50.0000    45.0000
 2504.0844    49.9740    -999.25     0.5583    10.6483    -999.25   240.2583    -999.25  3561.2438   139.0000   134.0000    -999.25    -999.25     1.3411   327.9148    70.0000    65.0000    50.0000    45.0000
 2504.2368    49.9864    -999.25     1.7229    10.6917    36.0000   239.0434    -999.25  3561.2438   139.0000    -999.25    -999.25     0.0000     1.3410   327.9148    70.0000    65.0000    50.0000    45.0000
 2504.3892    49.9722    -999.25     3.9092    10.8989    -999.25   238.7129    -999.25  3561.2438   139.0000    -999.25    -999.25    -999.25     1.3413   327.9837    70.0000    65.0000    50.0000    45.0000
 2504.5416    49.9526    -999.25     4.7668    11.8913    -999.25   240.0691    -999.25  3561.2438   139.0000    -999.25    -999.25    -999.25     1.3412   327.9837    70.0000    65.0000    50.0000    45.0000
 2504.6940    49.8109    -999.25     5.4646    13.6801    -999.25   243.1278  2617.1875  3561.2438   139.6956    -999.25     0.0000    -999.25     1.3414   328.0527    70.0000    65.0000    50.0000    45.0000
 2504.8464    49.1417    -999.25     6.1407    14.9757    -999.25   245.8320    -999.25  3561.2438   140.0000   135.0000    -999.25    -999.25     1.3413   328.0527    70.0000    65.0000    50.0000    45.0000
 2504.9988    48.5757    -999.25     5.5768    16.1154    15.0000   248.5156    -999.25  3561.2438   140.0000    -999.25    -999.25     0.0000     1.3409   327.9837    70.0000    65.0000    50.0000    45.0000
 2505.1512    48.5421    -999.25     5.0842    16.7150    -999.25   249.6615    -999.25  3561.2438   139.7273    -999.25    -999.25    -999.25     1.3417   328.1906    70.0000    65.0000    50.0000    45.0000
 2505.3036    48.5287    -999.25     5.1582    16.7982    -999.25   249.7021    -999.25  3561.2438   139.0000    -999.25    -999.25    -999.25     1.3416   328.1906    70.0000    65.0000    50.0000    45.0000
 2505.4560    48.5321    -999.25     5.0816    15.6105    -999.25   249.7183  2578.1250  3561.2438   139.0000    -999.25     0.0000    -999.25     1.3416   328.1906    70.0000    65.0000    50.0000    45.0000
