~Version Information
VERS.             2.0 : CWLS log ASCII standard - Version 2.0
WRAP.             NO  : One line per depth step
#
~Well Information Block
#MNEM.UNIT                   Data Type:Information
#__________________________________________________________
 STRT .M           2250.03360  :START INDEX                  
  STOP.M           2787.8532 : STOP INDEX                    
  STEP.M              0.1524 : STEP                          
  NULL.              -999.25 : NULL VALUE                    
  COMP.           StatoilHydro : COMPANY                       
  WELL.            15_9_F_14 : WELL                          
   FLD.                Volve : FIELD                         
   LOC.           Maersk Inspirer : LOCATION                      
  PROV.                      : PROVINCE                      
  CNTY.                      : COUNTY                        
  STAT.                      : STATE                         
  CTRY.                      : COUNTRY                       
  SRVC.              SLB D&M : SERVICE COMPANY               
  DATE.                      : LOG DATE                      
   UWI.                      : UNIQUE WELL ID                
   API.                      : API NUMBER                    
#
~Curve Information Block
#MNEM.UNIT                     : Curve Description
#---------                     --------------------
DEPT        .M                 : Bit Depth 2hz                                                   
ROP5        .M/HR              : 5ft ROP 2hz                                                     
ARC_GR_RT   .GAPI              : ARC Gamma Ray, Real-Time                                        
SWOB        .KKGF              : Surface Weight on Bit 2hz                                       
TQA         .KMN               : SRF STOR 2hz                                                    
Stick_RT    .RPM               : MWD PKtoPK RPM 2hz                                              
SPPA        .BAR               : SRF PUMPRS 2hz                                                  
TRPM_RT     .RPM               : MWD TUR_RPM 2hz                                                 
TFLO        .LPM               : HSPM Total Pump Flow 2hz                                        
RPM         .RPM               : SRF SRPM 2hz                                                    
CRPM_RT     .RPM               : MWD CRPM 2hz                                                    
SHKRSK_RT   .----              : MWD SHKRSK 2hz                                                  
SHK2_RT     .----              : ARC Shock Level, Real-Time                                      
ECD_ARC     .G/C3              : Equivalent Circulating Density                                  
APRS_ARC    .BAR               : ARC Annular Pressure                                            
ATMP        .DEGC              : ARC Annular Temperature                                         
SPM1        .----              : SRF SPM1 2hz                                                    
SPM2        .----              : SRF SPM2 2hz                                                    
SPM3        .----              : SRF SPM3 2hz                                                    
#
~Parameter Information Block
#MNEM.UNIT                       Value:Description
#__________________________________________________________
#
~Other Information Block

#
~A    DEPT       ROP5  ARC_GR_RT       SWOB        TQA   Stick_RT       SPPA    TRPM_RT       TFLO        RPM    CRPM_RT  SHKRSK_RT    SHK2_RT    ECD_ARC   APRS_ARC       ATMP       SPM1       SPM2       SPM3
# ...
 2672.0292    12.2751    16.5724    13.3628    14.4973    -999.25   237.5841    -999.25  3561.2438   139.5000    -999.25    -999.25    -999.25     1.3261   343.2212    80.0000    65.0000    50.0000    45.0000
 2672.1816    12.0987    18.7797    13.0538    15.4538    -999.25   239.1998    -999.25  3561.2438   139.7205    -999.25    -999.25    -999.25     1.3260   343.2212    80.0000    65.0000    50.0000    45.0000
 2672.3340    12.0840   130.5270    12.9526    15.7592    -999.25   239.0898    -999.25  3561.2438   139.4482    -999.25    -999.25    -999.25     1.3262   343.2901    80.0000    65.0000    50.0000    45.0000
 2672.4864    12.2511    19.9352    12.9652    15.6637   201.0000   239.5338  2656.2500  3561.2438   139.9412    -999.25    -999.25     0.0000     1.3261   343.2901    80.0000    65.0000    50.0000    45.0000
 2672.6388    12.4702    -999.25    12.9201    15.3944    -999.25   239.4609    -999.25  3561.2438   139.3615    -999.25    -999.25    -999.25     1.3255   343.1522    80.0000    65.0000    50.0000    45.0000
 2672.7912    12.5428    12.5716    12.6565    15.3049    -999.25   239.0499    -999.25  3561.2438   139.6824    -999.25    -999.25    -999.25     1.3255   343.1522    80.0000    65.0000    50.0000    45.0000
 2672.9436    12.5630    -999.25    12.5906    15.9661    -999.25   239.6953    -999.25  3561.2438   139.6905    12.0000    -999.25    -999.25     1.3257   343.2212    80.0000    65.0000    50.0000    45.0000
 2673.0960    12.5138    -999.25    12.6390    15.8716    -999.25   239.5362  3203.1250  3561.2438   139.6667    -999.25    -999.25    -999.25     1.3262   343.3590    80.0000    65.0000    50.0000    45.0000
 2673.2484    12.5086    -999.25    12.5531    15.9252    21.0000   239.5487  2656.2500  3561.2438   139.5294    -999.25    -999.25     0.0000     1.3261   343.3590    80.0000    65.0000    50.0000    45.0000
 2673.4008    12.5964    -999.25    12.3277    16.1699    -999.25   239.2688    -999.25  3561.2438   139.0000   138.0000     0.0000     0.0000     1.3258   343.2901    80.0000    65.0000    50.0000    45.0000
 2673.5532    12.8276    15.5204    12.5157    15.9284    -999.25   239.6801  2617.1875  3561.2438   139.3333   137.0000     0.0000    -999.25     1.3260   343.3590    80.0000    65.0000    50.0000    45.0000
 2673.7056    12.9800    17.6588    12.4348    16.5915    18.0000   239.9626  2617.1875  3561.2438   139.6428    -999.25     0.0000    -999.25     1.3259   343.3590    80.0000    65.0000    50.0000    45.0000
 2673.8580    13.0241    17.6588    12.5636    16.7407    -999.25   239.8100    -999.25  3561.2438   139.6547   140.0000    -999.25     0.0000     1.3259   343.3590    80.0000    65.0000    50.0000    45.0000
 2674.0104    12.9805    -999.25    12.4640    16.0983    21.0000   239.1066    -999.25  3561.2438   139.6207   138.0000    -999.25     0.0000     1.3258   343.3590    80.0000    65.0000    50.0000    45.0000
 2674.1628    12.9230    -999.25    12.4334    15.7566    -999.25   237.8546  2656.2500  3561.2438   139.0000    -999.25    -999.25    -999.25     1.3257   343.3590    80.0000    65.0000    50.0000    45.0000
 2674.3152    12.9499    21.1251    12.3066    15.2703    27.0000   238.3776    -999.25  3561.2438   139.6429   138.0000    -999.25     0.0000     1.3259   343.4280    80.0000    65.0000    50.0000    45.0000
 2674.4676    12.9882    15.5204    12.5790    15.2609    12.0000   238.1311  2656.2500  3561.2438   139.1975   137.0000     0.0000     0.0000     1.3256   343.3590    80.0000    65.0000    50.0000    45.0000
 2674.6200    13.0009    14.5030    12.8665    15.2359    -999.25   237.9426  2656.2500  3561.2438   139.3493    -999.25     0.0000    -999.25     1.3261   343.4969    80.0000    65.0000    50.0000    45.0000
 2674.7724    12.9532    15.5204    13.1278    15.3011    12.0000   237.8547    -999.25  3561.2438   139.6136   139.0000    -999.25     0.0000     1.3258   343.4280    80.0000    65.0000    50.0000    45.0000
 2674.9248    12.8269    16.5724    13.2125    15.0446     6.0000   237.5296  2656.2500  3561.2438   139.4731   138.0000     0.0000     0.0000     1.3257   343.4280    80.0000    65.0000    50.0000    45.0000
 2675.0772    12.6727    18.7797    13.1959    14.8430     6.0000   237.7888  2656.2500  3561.2438   139.7052   137.0000     0.0000     0.0000     1.3262   343.5659    81.0000    65.0000    50.0000    45.0000
 2675.2296    12.5397    17.6588    13.0487    14.9980    -999.25   238.6881    -999.25  3561.2438   139.2151    -999.25     0.0000    -999.25     1.3242   343.0833    73.0000    65.0000    50.0000    45.0000
 2675.3820    12.4904     2.9144    12.8676    15.4984     6.0000   239.0044    -999.25  3561.2438   139.3219   138.0000    -999.25     0.0000     1.3239   343.0143    74.0000    65.0000    50.0000    45.0000
 2675.5344    12.5583    15.5204    12.8437    15.6746     3.0000   239.0010  2656.2500  3561.2438   139.2410   138.0000     0.0000     0.0000     1.3241   343.0833    74.0000    65.0000    50.0000    45.0000
 2675.6868    12.6340    14.5030    12.8454    15.0824    -999.25   239.2560  2656.2500  3561.2438   139.7561   137.0000     0.0000    -999.25     1.3238   343.0143    74.0000    65.0000    50.0000    45.0000
 2675.8392    12.6029    18.7797    13.0222    15.0682     6.0000   238.5716  2656.2500  3561.2438   140.0000    -999.25    -999.25     0.0000     1.3240   343.0833    75.0000    65.0000    50.0000    45.0000
 2675.9916    12.4924    14.5030    13.2355    14.8150     6.0000   237.9994    -999.25  3561.2438   140.0000    -999.25     0.0000     0.0000     1.3239   343.0833    75.0000    65.0000    50.0000    45.0000
 2676.1440    12.3342    15.5204    13.1190    15.2379    -999.25   238.2493  2656.2500  3561.2438   139.9158   135.0000    -999.25     0.0000     1.3244   343.2212    76.0000    65.0000    50.0000    45.0000
 2676.2964    12.2281    15.5204    13.2961    14.9617    -999.25   237.7123  2656.2500  3561.2438   139.2396   136.0000    -999.25    -999.25     1.3238   343.0833    76.0000    65.0000    50.0000    45.0000
 2676.4488    12.1399    18.7797    13.1109    15.2078    18.0000   237.4360  2656.2500  3561.2438   139.4343    -999.25    -999.25     0.0000     1.3243   343.2212    76.0000    65.0000    50.0000    45.0000
 2676.6012    12.0723    18.7797    12.9939    14.6827     9.0000   237.5482    -999.25  3561.2438   139.6700   137.0000    -999.25     0.0000     1.3248   343.3590    77.0000    65.0000    50.0000    45.0000
 2676.7536    12.0433    18.7797    13.0786    14.7616     9.0000   237.6619    -999.25  3561.2438   139.7789    -999.25     0.0000     0.0000     1.3239   343.1522    77.0000    65.0000    50.0000    45.0000
 2676.9060    11.8136    15.5204    13.2364    14.4653     9.0000   236.1510    -999.25  3561.2438   139.7619   138.0000     0.0000     0.0000     1.3254   343.5659    78.0000    65.0000    50.0000    45.0000
 2677.0584    11.4846    -999.25    13.1750    14.5822     6.0000   237.1068  2656.2500  3561.2438   139.0826   137.0000     0.0000     0.0000     1.3256   343.6348    78.0000    65.0000    50.0000    45.0000
 2677.2108    11.2533    -999.25    12.9299    14.6414    -999.25   237.7310  2656.2500  3561.2438   139.0000   138.0000    -999.25    -999.25     1.3253   343.5659    78.0000    65.0000    50.0000    45.0000
 2677.3632    11.0891    13.5200    12.9544    15.6535     9.0000   238.1630  2656.2500  3561.2438   139.5400    -999.25    -999.25     0.0000     1.3258   343.7038    78.0000    65.0000    50.0000    45.0000
 2677.5156    11.0115    14.5030    12.8852    16.1373    -999.25   239.4100    -999.25  3561.2438   138.8959   119.0000    -999.25     0.0000     1.3257   343.7038    78.0000    65.0000    50.0000    45.0000
 2677.6680    10.9981    12.5716    13.2198    16.3798   135.0000   239.4097  2656.2500  3561.2438   138.8854   123.0000    -999.25     0.0000     1.3257   343.7038    78.0000    65.0000    50.0000    45.0000
 2677.8204    10.9680    12.5716    13.4070    15.8167   231.0000   238.4950  2617.1875  3561.2438   138.4490   174.0000     0.0000    -999.25     1.3256   343.7038    79.0000    65.0000    50.0000    45.0000
