~Version Information
 VERS.             2.0 : CWLS log ASCII standard - Version 2.0
 WRAP.             NO  : One line per depth step
 #
 ~Well Information Block
 #MNEM.UNIT                   Data Type:Information
 #__________________________________________________________
 STRT  .M           1050.03600  :START INDEX                  
   2281.M           2281.5804 : STOP INDEX                    
 STEP  .M              0.15240  :STEP                         
 NULL  .              -999.25000  :NULL VALUE                 
   COMP.           StatoilHydro : COMPANY                       
   WELL.            15/9-F-14 : WELL                          
    FLD.                Volve : FIELD                         
    LOC.           Norwegian North Sea : LOCATION                      
   PROV.                      : PROVINCE                      
   CNTY.                      : COUNTY                        
   STAT.                      : STATE                         
   CTRY.               Norway : COUNTRY                       
   SRVC.           Schlumberger : SERVICE COMPANY               
   DATE.            14-May-08 : LOG DATE                      
    UWI.                      : UNIQUE WELL ID                
    API.                      : API NUMBER                    
 #
 STOP  .M      2281.58040     :STOP Depth
 ~Curve Information Block
 #MNEM.UNIT                     : Curve Description
 #---------                     --------------------
 DEPT        .M                 :Bit Depth 2hz                                                    
 ROP5        .M/HR              : 5ft ROP 2hz                                                     
 ARC_GR_UNC_RT.GAPI              : ARC Raw Gamma Ray, Real-Time                                    
 SWOB        .KKGF              : Surface Weight on Bit 2hz                                       
 TQA         .KMN               : SRF STOR 2hz                                                    
 RPM         .RPM               : SRF SRPM 2hz                                                    
 Stick_RT    .RPM               : MWD PKtoPK RPM 2hz                                              
 CRPM_RT     .RPM               : MWD CRPM 2hz                                                    
 TFLO        .LPM               : HSPM Total Pump Flow 2hz                                        
 TRPM_RT     .RPM               : MWD TUR_RPM 2hz                                                 
 SPPA        .BAR               : SRF PUMPRS 2hz                                                  
 SHKRSK_RT   .----              : MWD SHKRSK 2hz                                                  
 SHK2_RT     .----              : ARC Shock Level, Real-Time                                      
 SHK_ISONIC_RT.----              : Isonic Shock, Real-Time                                         
 PDSHKRSK    .----              : PowerDrive Shock Risk 2hz                                       
 SHKPK_RT    .G                 : MWD SHK_PK 2hz                                                  
 ECD_ARC     .SG                : Equivalent Circulating Density                                  
 APRS_ARC    .BAR               : ARC Annular Pressure                                            
 ATMP        .DEGC              : ARC Annular Temperature                                         
 #
 ~Parameter Information Block
 #MNEM.UNIT                       Value:Description
 #__________________________________________________________
 #
 ~Other Information Block
 
 #
 ~A    DEPT       ROP5 ARC_GR_UNC_RT       SWOB        TQA        RPM   Stick_RT    CRPM_RT       TFLO    TRPM_RT       SPPA  SHKRSK_RT    SHK2_RT SHK_ISONIC_RT   PDSHKRSK   SHKPK_RT    ECD_ARC   APRS_ARC       ATMP
# ...
 2034.5400     45.037       -999.25      2.461     11.165    159.000    -999.25    -999.25   4472.392    -999.25    197.132    -999.25    -999.25         0.000    -999.25    -999.25      1.332    265.448     53.000
 2034.6924     45.025       118.266      2.464     12.154    159.000    -999.25    157.000   4472.392    -999.25    196.684    -999.25    -999.25       -999.25    -999.25    -999.25      1.331    265.310     53.000
 2034.8448     45.040       -999.25      2.581     11.513    159.875    -999.25    -999.25   4472.392    -999.25    196.922      0.000    -999.25       -999.25    -999.25      0.000      1.331    265.310     53.000
 2034.9972     45.037       -999.25      2.639     11.802    160.000     39.000    -999.25   4472.392   3398.438    196.697    -999.25      0.000       -999.25      0.000    -999.25      1.332    265.379     54.000
 2035.1496     45.043       129.391      2.610     12.154    159.000    -999.25    -999.25   4472.392    -999.25    197.472    -999.25    -999.25         0.000    -999.25    -999.25      1.332    265.379     53.000
 2035.3020     45.045       126.563      2.806     11.614    159.000    -999.25    158.000   4472.392    -999.25    197.183    -999.25    -999.25       -999.25    -999.25    -999.25      1.332    265.448     54.000
 2035.4544     45.045       -999.25      3.007     11.964    159.000    -999.25    -999.25   4472.392    -999.25    196.974      0.000    -999.25       -999.25    -999.25      0.000      1.332    265.448     54.000
 2035.6068     45.040       -999.25      2.911     11.922    159.667    -999.25    -999.25   4472.392   3398.438    196.749    -999.25      0.000       -999.25      0.000    -999.25      1.332    265.448     54.000
 2035.7592     45.040       123.766      3.000     11.937    160.000      9.000    -999.25   4472.392    -999.25    197.013    -999.25    -999.25         0.000    -999.25    -999.25      1.332    265.517     54.000
 2035.9116     45.043       -999.25      3.058     11.923    160.000    -999.25    -999.25   4472.392    -999.25    197.336    -999.25    -999.25       -999.25    -999.25    -999.25      1.332    265.517     54.000
 2036.0640     45.040       112.891      2.959     11.890    160.000    -999.25    158.000   4472.392    -999.25    197.312      0.000    -999.25       -999.25    -999.25      0.000      1.332    265.517     54.000
 2036.2164     45.040       -999.25      2.964     11.911    160.000    -999.25    -999.25   4472.392   3437.500    197.162    -999.25      0.000       -999.25      0.000    -999.25      1.332    265.586     54.000
 2036.3688     45.040       126.563      2.917     11.483    160.000     12.000    -999.25   4472.392    -999.25    196.766    -999.25    -999.25         0.000    -999.25    -999.25      1.332    265.655     54.000
 2036.5212     45.043       -999.25      2.952     12.147    160.000    -999.25    -999.25   4472.392    -999.25    196.449    -999.25    -999.25       -999.25    -999.25    -999.25      1.332    265.655     54.000
 2036.6736     45.034       123.766      2.856     11.900    160.000    -999.25    157.000   4472.392    -999.25    197.138      0.000    -999.25       -999.25    -999.25     16.000      1.332    265.724     54.000
 2036.8260     45.034       -999.25      2.942     12.313    159.125    -999.25    -999.25   4472.392   3437.500    196.816    -999.25    -999.25       -999.25      0.000    -999.25      1.332    265.793     54.000
 2036.9784     45.017       118.266      2.993     12.141    159.833     15.000    -999.25   4472.392    -999.25    197.193    -999.25      0.000         0.000    -999.25    -999.25      1.332    265.793     54.000
 2037.1308     45.025       -999.25      3.235     12.029    160.000    -999.25    -999.25   4472.392    -999.25    197.484    -999.25    -999.25       -999.25    -999.25    -999.25      1.333    265.862     54.000
 2037.2832     45.031       118.266      3.335     11.867    160.000    -999.25    157.000   4472.392    -999.25    197.196      0.000    -999.25       -999.25    -999.25     24.000      1.332    265.793     54.000
 2037.4356     45.025       -999.25      3.045     11.824    159.542    -999.25    -999.25   4472.392    -999.25    196.688    -999.25    -999.25         0.000    -999.25    -999.25      1.332    265.862     54.000
 2037.5880     45.031       123.766      2.851     12.086    159.360      9.000    -999.25   4472.392   3398.438    196.742    -999.25      0.000       -999.25      0.000    -999.25      1.333    265.931     54.000
 2037.7404     45.043       -999.25      2.765     12.479    159.792    -999.25    -999.25   4472.392    -999.25    197.348    -999.25    -999.25       -999.25    -999.25    -999.25      1.333    266.000     54.000
 2037.8928     45.031       118.266      2.687     12.515    159.160    -999.25    158.000   4472.392    -999.25    197.300      0.000    -999.25       -999.25    -999.25     16.000      1.333    266.069     54.000
 2038.0452     45.034       -999.25      2.632     12.015    160.000    -999.25    -999.25   4472.392    -999.25    196.709    -999.25    -999.25         0.000    -999.25    -999.25      1.333    266.069     54.000
 2038.1976     45.022       115.563      2.791     12.222    160.000     12.000    -999.25   4472.392   3398.438    197.234    -999.25      0.000       -999.25      0.000    -999.25      1.333    266.069     54.000
 2038.3500     45.025       -999.25      2.743     11.879    159.760    -999.25    -999.25   4472.392    -999.25    197.591    -999.25    -999.25       -999.25    -999.25    -999.25      1.333    266.069     54.000
 2038.5024     45.022       123.766      2.794     11.626    159.000    -999.25    157.000   4472.392    -999.25    197.646      0.000    -999.25         0.000    -999.25      0.000      1.333    266.069     54.000
 2038.6548     45.011       129.391      2.802     12.071    159.000    -999.25    -999.25   4472.392    -999.25    197.670    -999.25    -999.25       -999.25    -999.25    -999.25      1.333    266.069     54.000
 2038.8072     45.011       -999.25      2.938     12.074    159.000     21.000    -999.25   4472.392   3437.500    196.866    -999.25      0.000       -999.25      0.000    -999.25      1.333    266.138     54.000
 2038.9596     45.014       123.766      3.007     12.293    159.000    -999.25    -999.25   4472.392    -999.25    196.779    -999.25    -999.25       -999.25    -999.25    -999.25      1.334    266.276     54.000
 2039.1120     45.011       -999.25      2.936     12.331    159.760    -999.25    158.000   4472.392    -999.25    196.966      0.000    -999.25         0.000    -999.25      0.000      1.334    266.345     54.000
 2039.2644     44.994       112.891      3.057     12.412    160.000    -999.25    -999.25   4472.392    -999.25    197.228    -999.25    -999.25       -999.25    -999.25    -999.25      1.333    266.276     54.000
 2039.4168     45.008       -999.25      3.044     12.200    160.583     15.000    -999.25   4472.392   3437.500    196.961    -999.25      0.000       -999.25      0.000    -999.25      1.334    266.345     54.000
 2039.5692     44.996       121.000      2.988     12.111    160.560    -999.25    -999.25   4472.392    -999.25    196.879    -999.25    -999.25         0.000    -999.25    -999.25      1.333    266.345     54.000
 2039.7216     45.014       -999.25      2.832     12.225    159.667    -999.25    158.000   4472.392    -999.25    197.265      0.000    -999.25       -999.25    -999.25      0.000      1.333    266.345     54.000
 2039.8740     45.017       123.766      2.969     12.177    159.167    -999.25    -999.25   4472.392    -999.25    197.593    -999.25    -999.25       -999.25    -999.25    -999.25      1.334    266.414     54.000
 2040.0264     45.028       -999.25      2.907     11.972    160.000      9.000    -999.25   4472.392   3437.500    197.612    -999.25      0.000       -999.25      0.000    -999.25      1.333    266.414     55.000
 2040.1788     45.043       121.000      2.982     12.011    160.000    -999.25    -999.25   4472.392    -999.25    197.274    -999.25    -999.25         0.000    -999.25    -999.25      1.333    266.414     54.000
