~Version Information
VERS.             2.0 : CWLS log ASCII standard - Version 2.0
WRAP.             NO  : One line per depth step
#
~Well Information Block
#MNEM.UNIT                   Data Type:Information
#__________________________________________________________
 STRT .M           2778.09960  :START INDEX                  
  STOP.M           3749.9544 : STOP INDEX                    
  STEP.M              0.1524 : STEP                          
  NULL.              -999.25 : NULL VALUE                    
  COMP.           StatoilHydro : COMPANY                       
  WELL.            15/9-F-14 : WELL                          
   FLD.                Volve : FIELD                         
   LOC.            North Sea : LOCATION                      
  PROV.                      : PROVINCE                      
  CNTY.                      : COUNTY                        
  STAT.                      : STATE                         
  CTRY.               Norway : COUNTRY                       
  SRVC.              SLB D&M : SERVICE COMPANY               
  DATE.                      : LOG DATE                      
   UWI.                      : UNIQUE WELL ID                
   API.                      : API NUMBER                    
#
~Curve Information Block
#MNEM.UNIT                     : Curve Description
#---------                     --------------------
DEPT        .M                 : Bit Depth 2hz                                                   
ROP5        .M/HR              : 5ft ROP 2hz                                                     
GRMA_ECO_RT .GAPI              : Gamma Ray, Average, Real-Time                                   
Stick_RT    .RPM               : MWD PKtoPK RPM 2hz                                              
SWOB        .KKGF              : Surface Weight on Bit 2hz                                       
SHKRSK_RT   .----              : MWD SHKRSK 2hz                                                  
SHKPK_RT    .G                 : MWD SHK_PK 2hz                                                  
RPM         .RPM               : SRF SRPM 2hz                                                    
TRPM_RT     .RPM               : MWD TUR_RPM 2hz                                                 
CRPM_RT     .RPM               : MWD CRPM 2hz                                                    
TFLO        .LPM               : HSPM Total Pump Flow 2hz                                        
DHAT        .DEGC              : Downhole Annulus Temperature                                    
DHAP        .BAR               : Downhole Annulus Pressure                                       
TQA         .KMN               : SRF STOR 2hz                                                    
ECD         .G/C3              : Equivalent Circulating Density                                  
SPPA        .BAR               : SRF PUMPRS 2hz                                                  
SPM1        .----              : SRF SPM1 2hz                                                    
SPM2        .----              : SRF SPM2 2hz                                                    
SPM3        .----              : SRF SPM3 2hz                                                    
#
~Parameter Information Block
#MNEM.UNIT                       Value:Description
#__________________________________________________________
#
~Other Information Block

#
~A    DEPT       ROP5 GRMA_ECO_RT   Stick_RT       SWOB  SHKRSK_RT   SHKPK_RT        RPM    TRPM_RT    CRPM_RT       TFLO       DHAT       DHAP        TQA        ECD       SPPA       SPM1       SPM2       SPM3
# ...
 3616.1472      20.08       40.58      87.00       4.02    -999.25    -999.25     179.51    2812.50     176.00    1962.83      89.00     444.57      13.78       1.48     176.69       0.00      45.00      44.00
 3616.2996      20.07       47.78    -999.25       4.31       0.00       0.00     179.36    -999.25    -999.25    1962.83      89.00     444.92      13.75       1.48     176.76       0.00      45.00      44.00
 3616.4520      20.07       49.63    -999.25       4.14    -999.25    -999.25     179.59    -999.25    -999.25    1962.83      89.00     444.71      13.61       1.48     176.82       0.00      45.00      44.00
 3616.6044      20.07       42.36      66.00       4.40    -999.25    -999.25     179.87    2812.50     176.00    1962.83      89.00     444.57      14.43       1.48     176.86       0.00      45.00      44.00
 3616.7568      20.07       42.36    -999.25       4.64       0.00       0.00     179.51    -999.25    -999.25    1962.83      89.00     442.47      13.96       1.47     176.87       0.00      45.00      44.00
 3616.9092      20.07       44.18      60.00       4.21    -999.25    -999.25     179.50    -999.25    -999.25    1962.83      89.00     442.64      14.56       1.47     177.09       0.00      45.00      44.00
 3617.0616      20.08       44.18    -999.25       4.59    -999.25    -999.25     179.13    2812.50     175.00    1962.83      89.00     442.16      15.16       1.47     177.04       0.00      45.00      44.00
 3617.2140      20.08       44.18    -999.25       4.79       0.00       0.00     179.40    -999.25    -999.25    1962.83      89.00     443.06      14.70       1.47     177.26       0.00      45.00      44.00
 3617.3664      20.07       42.36      66.00       4.13    -999.25    -999.25     179.04    -999.25    -999.25    1962.83      89.00     442.57      13.44       1.47     177.02       0.00      45.00      44.00
 3617.5188      20.07       44.18    -999.25       4.35    -999.25    -999.25     179.38    2812.50     175.00    1962.83      89.00     440.92      13.24       1.46     176.93       0.00      45.00      44.00
 3617.6712      20.07     -999.25    -999.25       5.13       0.00       0.00     179.64    -999.25    -999.25    1962.83      89.00     443.85      13.82       1.47     177.08       0.00      45.00      44.00
 3617.8236      20.07       42.36     105.00       4.37    -999.25    -999.25     180.00    -999.25    -999.25    1962.83      89.00     445.19      14.13       1.48     176.61       0.00      45.00      44.00
 3617.9760      20.07       40.58    -999.25       4.37    -999.25    -999.25     178.62    2812.50     173.00    1962.83      89.00     444.23      14.06       1.48     176.05       0.00      45.00      44.00
 3618.1284       6.03       40.58      15.00       3.42       0.00       0.00      59.75    2812.50     180.00     526.76      89.00     444.61       1.63       1.48      52.83       0.00      12.04      11.77
 3618.2808       6.03       40.70    -999.25       4.57    -999.25    -999.25     179.71    2812.50     179.00    1962.83      89.00     444.61      12.75       1.48     178.74       0.00      45.00      44.00
 3618.4332       6.03       45.96    -999.25       4.47       0.00       0.00     180.00    -999.25    -999.25    1962.83      89.00     444.78      14.66       1.48     177.73       0.00      45.00      44.00
 3618.5856       6.02     -999.25      66.00       5.37    -999.25    -999.25     179.71    -999.25    -999.25    1962.83      89.00     444.44      14.22       1.48     177.69       0.00      45.00      44.00
 3618.7380       6.02       40.70    -999.25       4.65    -999.25    -999.25     179.33    2812.50     177.00    1962.83      89.00     444.64      15.29       1.48     177.66       0.00      45.00      44.00
 3618.8904       6.02       40.70    -999.25       5.72       0.00       0.00     179.63    -999.25    -999.25    1962.83      90.00     444.78      15.28       1.48     177.56       0.00      45.00      44.00
 3619.0428       6.01       35.74      84.00       5.12    -999.25    -999.25     179.84    -999.25    -999.25    1962.83      90.00     445.33      14.31       1.48     176.97       0.00      45.00      44.00
 3619.1952       6.01     -999.25    -999.25       5.90    -999.25    -999.25     180.42    2812.50     175.00    1962.83      90.00     444.92      15.00       1.48     177.36       0.00      45.00      44.00
 3619.3476       5.75       35.74      57.00       5.77       0.00       0.00     179.45    2812.50     179.00    1962.83      90.00     444.71      14.40       1.48     177.80       0.00      45.00      44.00
 3619.5000       5.74       31.07    -999.25       6.25       0.00       0.00     179.00    -999.25    -999.25    1962.83      90.00     445.06      15.09       1.48     178.11       0.00      45.00      44.00
 3619.6524      17.08     -999.25      36.00       5.71    -999.25    -999.25     179.49    -999.25    -999.25    1962.83      90.00     445.09      14.08       1.48     178.19       0.00      45.00      44.00
 3619.8048      17.08       29.58    -999.25       5.98    -999.25    -999.25     179.60    2812.50     177.00    1962.83      90.00     444.16      14.43       1.47     178.17       0.00      45.00      44.00
 3619.9572      17.08       25.98    -999.25       5.14       0.00       0.00     180.18    -999.25    -999.25    1962.83      90.00     444.23      14.19       1.47     177.75       0.00      45.00      44.00
 3620.1096      17.08       25.98      90.00       5.97    -999.25    -999.25     179.91    -999.25    -999.25    1962.83      90.00     444.51      13.99       1.48     177.27       0.00      45.00      44.00
 3620.2620      17.07       25.98    -999.25       4.62    -999.25    -999.25     179.59    2812.50     175.00    1962.83      90.00     444.51      14.71       1.48     177.05       0.00      45.00      44.00
 3620.4144      17.07       25.98    -999.25       5.45       0.00       0.00     178.98    -999.25    -999.25    1962.83      90.00     444.30      14.04       1.47     177.27       0.00      45.00      44.00
 3620.5668      16.85       28.99      93.00       4.38    -999.25    -999.25     180.00    2812.50    -999.25    1962.83      90.00     444.51      13.53       1.48     177.20       0.00      45.00      44.00
 3620.7192      15.60       32.14    -999.25       4.78       0.00       0.00     179.52    -999.25     177.00    1962.83      90.00     444.44      12.62       1.47     178.42       0.00      44.80      44.20
 3620.8716      19.05       37.10    -999.25       6.97       0.00       0.00     179.00    -999.25    -999.25    1962.83      90.00     444.75      12.90       1.48     182.61       0.00      44.00      45.00
 3621.0240      20.20       28.99    -999.25       7.01    -999.25    -999.25     179.00    -999.25    -999.25    1962.83      90.00     444.44      12.62       1.47     182.80       0.00      44.00      45.00
 3621.1764      20.25       35.42      36.00       5.13    -999.25    -999.25     179.02    2812.50    -999.25    1962.83      90.00     444.85      16.43       1.48     181.45       0.00      44.00      45.00
 3621.3288      20.25       35.42    -999.25       5.41    -999.25    -999.25     179.51    -999.25     175.00    1962.83      90.00     444.16      14.72       1.47     180.34       0.00      44.00      45.00
 3621.4812      20.26       35.74    -999.25       4.70       0.00       0.00     179.51    -999.25    -999.25    1962.83      91.00     444.78      14.96       1.48     179.58       0.00      44.00      45.00
 3621.6336      20.26       34.15      90.00       5.01    -999.25    -999.25     180.00    2812.50    -999.25    1962.83      91.00     444.47      15.86       1.47     179.65       0.00      44.00      45.00
 3621.7860      20.26       28.99    -999.25       4.89    -999.25    -999.25     180.09    -999.25     177.00    1962.83      91.00     444.16      14.38       1.47     179.70       0.00      44.00      45.00
 3621.9384      20.26       30.55    -999.25       5.27       0.00       0.00     179.75    -999.25    -999.25    1962.83      91.00     444.57      13.61       1.48     179.55       0.00      44.00      45.00
