~Version Information
 VERS.             2.0 : CWLS log ASCII standard - Version 2.0
 WRAP.             NO  : One line per depth step
 #
 ~Well Information Block
 #MNEM.UNIT                   Data Type:Information
 #__________________________________________________________
 STRT  .M           1050.03600  :START INDEX                  
   2281.M           2281.5804 : STOP INDEX                    
 STEP  .M              0.15240  :STEP                         
 NULL  .              -999.25000  :NULL VALUE                 
   COMP.           StatoilHydro : COMPANY                       
   WELL.            15/9-F-14 : WELL                          
    FLD.                Volve : FIELD                         
    LOC.           Norwegian North Sea : LOCATION                      
   PROV.                      : PROVINCE                      
   CNTY.                      : COUNTY                        
   STAT.                      : STATE                         
   CTRY.               Norway : COUNTRY                       
   SRVC.           Schlumberger : SERVICE COMPANY               
   DATE.            14-May-08 : LOG DATE                      
    UWI.                      : UNIQUE WELL ID                
    API.                      : API NUMBER                    
 #
 STOP  .M      2281.58040     :STOP Depth
 ~Curve Information Block
 #MNEM.UNIT                     : Curve Description
 #---------                     --------------------
 DEPT        .M                 :Bit Depth 2hz                                                    
 ROP5        .M/HR              : 5ft ROP 2hz                                                     
 ARC_GR_UNC_RT.GAPI              : ARC Raw Gamma Ray, Real-Time                                    
 SWOB        .KKGF              : Surface Weight on Bit 2hz                                       
 TQA         .KMN               : SRF STOR 2hz                                                    
 RPM         .RPM               : SRF SRPM 2hz                                                    
 Stick_RT    .RPM               : MWD PKtoPK RPM 2hz                                              
 CRPM_RT     .RPM               : MWD CRPM 2hz                                                    
 TFLO        .LPM               : HSPM Total Pump Flow 2hz                                        
 TRPM_RT     .RPM               : MWD TUR_RPM 2hz                                                 
 SPPA        .BAR               : SRF PUMPRS 2hz                                                  
 SHKRSK_RT   .----              : MWD SHKRSK 2hz                                                  
 SHK2_RT     .----              : ARC Shock Level, Real-Time                                      
 SHK_ISONIC_RT.----              : Isonic Shock, Real-Time                                         
 PDSHKRSK    .----              : PowerDrive Shock Risk 2hz                                       
 SHKPK_RT    .G                 : MWD SHK_PK 2hz                                                  
 ECD_ARC     .SG                : Equivalent Circulating Density                                  
 APRS_ARC    .BAR               : ARC Annular Pressure                                            
 ATMP        .DEGC              : ARC Annular Temperature                                         
 #
 ~Parameter Information Block
 #MNEM.UNIT                       Value:Description
 #__________________________________________________________
 #
 ~Other Information Block
 
 #
 ~A    DEPT       ROP5 ARC_GR_UNC_RT       SWOB        TQA        RPM   Stick_RT    CRPM_RT       TFLO    TRPM_RT       SPPA  SHKRSK_RT    SHK2_RT SHK_ISONIC_RT   PDSHKRSK   SHKPK_RT    ECD_ARC   APRS_ARC       ATMP
# ...
 1542.2880     29.727       135.141      2.646     10.355    159.000    -999.25    -999.25   4004.993    -999.25    144.584      0.000    -999.25       -999.25    -999.25     24.000      1.290    194.708     43.000
 1542.4404     29.867       -999.25      2.665      9.231    159.838     12.000    -999.25   4004.993   2968.750    144.944    -999.25      0.000         0.000      0.000    -999.25      1.289    194.708     43.000
 1542.5928     29.809       129.391      2.484      9.408    160.000    -999.25    158.000   4004.993    -999.25    145.193      0.000    -999.25       -999.25    -999.25     24.000      1.289    194.708     43.000
 1542.7452     29.695       138.063      2.674      9.296    160.000    -999.25    -999.25   4004.993   2968.750    145.389    -999.25      0.000       -999.25      0.000    -999.25      1.290    194.777     43.000
 1542.8976     29.580       -999.25      2.589      9.558    160.000      9.000    -999.25   4004.993    -999.25    144.735    -999.25    -999.25         0.000    -999.25    -999.25      1.290    194.846     43.000
 1543.0500     29.466       144.000      2.463      9.011    159.447    -999.25    157.000   4004.993    -999.25    144.727      0.000    -999.25       -999.25    -999.25     32.000      1.290    194.846     43.000
 1543.2024     29.450       -999.25      2.700      9.768    159.000      9.000    -999.25   4004.993   2968.750    144.839    -999.25      0.000       -999.25      0.000    -999.25      1.290    194.915     43.000
 1543.3548     29.474       135.141      3.452      9.277    159.417    -999.25    -999.25   4004.993    -999.25    145.717    -999.25    -999.25         0.000    -999.25    -999.25      1.290    194.915     43.000
 1543.5072     29.493       135.141      3.746      9.973    159.351    -999.25    157.000   4004.993    -999.25    144.831      0.000    -999.25       -999.25    -999.25     32.000      1.290    194.915     43.000
 1543.6596     29.510       -999.25      3.361     10.778    159.889      9.000    -999.25   4004.993   2968.750    145.384    -999.25      0.000       -999.25      0.000    -999.25      1.290    194.984     43.000
 1543.8120     29.536       126.563      3.222     10.520    160.000    -999.25    157.000   4004.993    -999.25    144.537      0.000    -999.25         0.000    -999.25     32.000      1.290    194.984     43.000
 1543.9644     29.555       -999.25      3.032     10.303    160.000    -999.25    -999.25   4004.993   2968.750    144.411    -999.25      0.000       -999.25      0.000    -999.25      1.290    194.984     43.000
 1544.1168     29.640       138.063      2.901     10.198    160.000     12.000    -999.25   4004.993    -999.25    144.161    -999.25    -999.25       -999.25    -999.25    -999.25      1.290    194.984     43.000
 1544.2692     29.773       141.016      2.884     10.307    159.514    -999.25    157.000   4004.993    -999.25    144.811      0.000    -999.25         0.000    -999.25     24.000      1.290    195.053     43.000
 1544.4216     29.913       -999.25      2.742     10.119    159.667      6.000    -999.25   4004.993   2968.750    144.655    -999.25      0.000       -999.25      0.000    -999.25      1.291    195.122     43.000
 1544.5740     30.073       126.563      2.769      9.694    159.568    -999.25    -999.25   4004.993    -999.25    144.683    -999.25    -999.25       -999.25    -999.25    -999.25      1.290    195.053     43.000
 1544.7264     30.105       132.250      2.882      9.184    158.500    -999.25    157.000   4004.993    -999.25    144.334      0.000    -999.25       -999.25    -999.25     24.000      1.290    195.122     43.000
 1544.8788     30.101       -999.25      2.872      9.446    159.757     12.000    -999.25   4004.993   2968.750    145.021    -999.25      0.000         0.000      0.000    -999.25      1.291    195.191     43.000
 1545.0312     30.106       147.016      2.837      9.531    159.778    -999.25    -999.25   4004.993    -999.25    145.068    -999.25    -999.25       -999.25    -999.25    -999.25      1.290    195.122     43.000
 1545.1836     30.109       135.141      2.645      9.885    159.541    -999.25    156.000   4004.993    -999.25    145.458      0.000    -999.25       -999.25    -999.25      0.000      1.290    195.191     43.000
 1545.3360     30.108       138.063      2.555      9.760    159.278      9.000    -999.25   4004.993   2968.750    144.895    -999.25      0.000         0.000      0.000    -999.25      1.290    195.191     43.000
 1545.4884     30.104       126.563      2.566     10.014    159.703    -999.25    157.000   4004.993    -999.25    144.403      0.000    -999.25       -999.25    -999.25     24.000      1.290    195.191     43.000
 1545.6408     30.108       -999.25      2.591      9.759    159.611    -999.25    -999.25   4004.993   2968.750    144.903    -999.25      0.000       -999.25      0.000    -999.25      1.290    195.191     43.000
 1545.7932     30.104       138.063      2.693      9.056    159.167      9.000    -999.25   4004.993    -999.25    144.959    -999.25    -999.25         0.000    -999.25    -999.25      1.290    195.260     43.000
 1545.9456     30.108       135.141      2.906     10.045    159.000    -999.25    157.000   4004.993    -999.25    144.635      0.000    -999.25       -999.25    -999.25     24.000      1.290    195.260     43.000
 1546.0980     30.106       -999.25      2.903      9.729    159.000      9.000    -999.25   4004.993   2968.750    145.223    -999.25      0.000       -999.25      0.000    -999.25      1.291    195.329     43.000
 1546.2504     30.101       144.000      3.132      9.400    159.514    -999.25    -999.25   4004.993    -999.25    144.863    -999.25    -999.25         0.000    -999.25    -999.25      1.290    195.329     43.000
 1546.4028     30.100       -999.25      3.462      9.717    159.000    -999.25    156.000   4004.993    -999.25    144.826      0.000    -999.25       -999.25    -999.25     24.000      1.290    195.329     43.000
 1546.5552     30.101       132.250      3.805     10.080    159.351     15.000    -999.25   4004.993   2968.750    144.612    -999.25      0.000       -999.25      0.000    -999.25      1.290    195.329     43.000
 1546.7076     30.097       138.063      3.712     10.475    159.222    -999.25    157.000   4004.993    -999.25    145.211    -999.25    -999.25         0.000    -999.25    -999.25      1.290    195.397     43.000
 1546.8600     30.297       135.141      3.343     11.342    159.353    -999.25    -999.25   4004.993    -999.25    144.250      0.000    -999.25       -999.25    -999.25     24.000      1.290    195.397     43.000
 1547.0124     30.744       -999.25      3.284     11.138    159.419     12.000    -999.25   4004.993   2968.750    144.478    -999.25      0.000         0.000      0.000    -999.25      1.290    195.397     43.000
 1547.1648     31.187       126.563      3.370     10.667    159.000    -999.25    -999.25   4004.993    -999.25    144.003    -999.25    -999.25       -999.25    -999.25    -999.25      1.291    195.466     43.000
 1547.3172     31.660       141.016      3.385     10.281    159.000    -999.25    158.000   4004.993    -999.25    144.843      0.000    -999.25       -999.25    -999.25     24.000      1.290    195.466     43.000
 1547.4696     32.143       129.391      3.260     10.947    159.839      6.000    -999.25   4004.993   2968.750    144.569    -999.25      0.000         0.000      0.000    -999.25      1.290    195.466     43.000
 1547.6220     32.631       132.250      3.330     10.300    159.000    -999.25    -999.25   4004.993    -999.25    144.888    -999.25    -999.25       -999.25    -999.25    -999.25      1.291    195.535     43.000
 1547.7744     33.155       147.016      3.179      9.998    159.000    -999.25    157.000   4004.993    -999.25    145.115      0.000    -999.25       -999.25    -999.25     24.000      1.291    195.535     43.000
 1547.9268     33.691       -999.25      3.303     10.297    159.516      9.000    -999.25   4004.993   2968.750    145.038    -999.25      0.000         0.000      0.000    -999.25      1.290    195.535     43.000
