~Version Information
 VERS.             2.0 : CWLS log ASCII standard - Version 2.0
 WRAP.             NO  : One line per depth step
 #
 ~Well Information Block
 #MNEM.UNIT                   Data Type:Information
 #__________________________________________________________
 STRT  .M           1050.03600  :START INDEX                  
   2281.M           2281.5804 : STOP INDEX                    
 STEP  .M              0.15240  :STEP                         
 NULL  .              -999.25000  :NULL VALUE                 
   COMP.           StatoilHydro : COMPANY                       
   WELL.            15/9-F-14 : WELL                          
    FLD.                Volve : FIELD                         
    LOC.           Norwegian North Sea : LOCATION                      
   PROV.                      : PROVINCE                      
   CNTY.                      : COUNTY                        
   STAT.                      : STATE                         
   CTRY.               Norway : COUNTRY                       
   SRVC.           Schlumberger : SERVICE COMPANY               
   DATE.            14-May-08 : LOG DATE                      
    UWI.                      : UNIQUE WELL ID                
    API.                      : API NUMBER                    
 #
 STOP  .M      2281.58040     :STOP Depth
 ~Curve Information Block
 #MNEM.UNIT                     : Curve Description
 #---------                     --------------------
 DEPT        .M                 :Bit Depth 2hz                                                    
 ROP5        .M/HR              : 5ft ROP 2hz                                                     
 ARC_GR_UNC_RT.GAPI              : ARC Raw Gamma Ray, Real-Time                                    
 SWOB        .KKGF              : Surface Weight on Bit 2hz                                       
 TQA         .KMN               : SRF STOR 2hz                                                    
 RPM         .RPM               : SRF SRPM 2hz                                                    
 Stick_RT    .RPM               : MWD PKtoPK RPM 2hz                                              
 CRPM_RT     .RPM               : MWD CRPM 2hz                                                    
 TFLO        .LPM               : HSPM Total Pump Flow 2hz                                        
 TRPM_RT     .RPM               : MWD TUR_RPM 2hz                                                 
 SPPA        .BAR               : SRF PUMPRS 2hz                                                  
 SHKRSK_RT   .----              : MWD SHKRSK 2hz                                                  
 SHK2_RT     .----              : ARC Shock Level, Real-Time                                      
 SHK_ISONIC_RT.----              : Isonic Shock, Real-Time                                         
 PDSHKRSK    .----              : PowerDrive Shock Risk 2hz                                       
 SHKPK_RT    .G                 : MWD SHK_PK 2hz                                                  
 ECD_ARC     .SG                : Equivalent Circulating Density                                  
 APRS_ARC    .BAR               : ARC Annular Pressure                                            
 ATMP        .DEGC              : ARC Annular Temperature                                         
 #
 ~Parameter Information Block
 #MNEM.UNIT                       Value:Description
 #__________________________________________________________
 #
 ~Other Information Block
 
 #
 ~A    DEPT       ROP5 ARC_GR_UNC_RT       SWOB        TQA        RPM   Stick_RT    CRPM_RT       TFLO    TRPM_RT       SPPA  SHKRSK_RT    SHK2_RT SHK_ISONIC_RT   PDSHKRSK   SHKPK_RT    ECD_ARC   APRS_ARC       ATMP
# ...
 1947.6720     44.206       135.141      2.565     11.322    160.000    -999.25    -999.25   4539.142    -999.25    198.526    -999.25    -999.25       -999.25    -999.25    -999.25      1.331    253.934     51.000
 1947.8244     44.237       -999.25      2.398     11.210    160.000    -999.25    157.000   4539.142    -999.25    199.021    -999.25    -999.25       -999.25    -999.25    -999.25      1.332    254.003     51.000
 1947.9768     44.321       135.141      2.350     11.789    160.000    -999.25    -999.25   4539.142    -999.25    199.060      0.000    -999.25         0.000    -999.25      0.000      1.332    254.072     51.000
 1948.1292     44.481       -999.25      2.112     12.165    160.000    -999.25    -999.25   4539.142   3476.563    198.353    -999.25      0.000       -999.25      0.000    -999.25      1.332    254.072     51.000
 1948.2816     44.713       129.391      2.121     11.401    160.000     12.000    -999.25   4539.142    -999.25    198.919    -999.25    -999.25       -999.25    -999.25    -999.25      1.332    254.141     51.000
 1948.4340     44.922       126.563      2.053     12.177    160.000    -999.25    -999.25   4539.142    -999.25    198.706    -999.25    -999.25       -999.25    -999.25    -999.25      1.332    254.210     51.000
 1948.5864     45.100       -999.25      2.024     11.363    160.000    -999.25    156.000   4539.142    -999.25    198.596      0.000    -999.25         0.000    -999.25      0.000      1.332    254.210     51.000
 1948.7388     45.103       126.563      2.071     11.354    160.000    -999.25    -999.25   4539.142   3476.563    198.647    -999.25      0.000       -999.25      0.000    -999.25      1.332    254.210     51.000
 1948.8912     45.098       -999.25      2.164     11.656    160.000      9.000    -999.25   4539.142    -999.25    198.833    -999.25    -999.25       -999.25    -999.25    -999.25      1.332    254.210     51.000
 1949.0436     45.098       121.000      2.346     11.557    159.458    -999.25    -999.25   4539.142    -999.25    198.706    -999.25    -999.25       -999.25    -999.25    -999.25      1.332    254.210     52.000
 1949.1960     45.095       -999.25      2.366     11.713    159.000    -999.25    156.000   4539.142    -999.25    198.513      0.000    -999.25         0.000    -999.25     24.000      1.332    254.279     52.000
 1949.3484     45.098       132.250      2.332     11.941    159.333    -999.25    -999.25   4539.142   3476.563    198.439    -999.25    -999.25       -999.25      0.000    -999.25      1.332    254.348     52.000
 1949.5008     45.092       -999.25      2.440     11.413    160.000     15.000    -999.25   4539.142    -999.25    198.213    -999.25      0.000       -999.25    -999.25    -999.25      1.333    254.417     52.000
 1949.6532     45.095       132.250      2.699     11.743    159.920    -999.25    -999.25   4539.142    -999.25    197.848    -999.25    -999.25       -999.25    -999.25    -999.25      1.333    254.417     52.000
 1949.8056     45.092       -999.25      2.781     12.164    159.000    -999.25    158.000   4539.142    -999.25    198.047      0.000    -999.25         0.000    -999.25     24.000      1.332    254.417     52.000
 1949.9580     45.098       135.141      2.601     11.259    159.917    -999.25    -999.25   4539.142    -999.25    198.424    -999.25    -999.25       -999.25    -999.25    -999.25      1.332    254.417     52.000
 1950.1104     45.095       -999.25      2.600     11.915    160.000      9.000    -999.25   4539.142   3476.563    198.195    -999.25      0.000       -999.25      0.000    -999.25      1.333    254.555     52.000
 1950.2628     45.106       129.391      2.633     11.882    160.000    -999.25    -999.25   4539.142    -999.25    198.490    -999.25    -999.25       -999.25    -999.25    -999.25      1.333    254.555     52.000
 1950.4152     45.103       -999.25      2.915     11.985    160.000    -999.25    156.000   4539.142    -999.25    198.405      0.000    -999.25         0.000    -999.25     24.000      1.333    254.555     52.000
 1950.5676     45.098       135.141      2.706     11.807    160.000    -999.25    -999.25   4539.142    -999.25    198.444    -999.25    -999.25       -999.25    -999.25    -999.25      1.333    254.623     52.000
 1950.7200     45.103       126.563      2.786     11.862    160.000      6.000    -999.25   4539.142   3476.563    198.518    -999.25      0.000       -999.25      0.000    -999.25      1.333    254.692     52.000
 1950.8724     45.092       121.000      2.888     12.069    159.750    -999.25    -999.25   4539.142    -999.25    198.424    -999.25    -999.25       -999.25    -999.25    -999.25      1.334    254.761     52.000
 1951.0248     45.098       129.391      2.845     11.696    159.000    -999.25    157.000   4539.142    -999.25    198.248      0.000    -999.25         0.000    -999.25     32.000      1.333    254.692     52.000
 1951.1772     45.106       123.766      2.850     11.936    159.000    -999.25    -999.25   4539.142    -999.25    198.094    -999.25    -999.25       -999.25    -999.25    -999.25      1.333    254.692     52.000
 1951.3296     45.098       135.141      2.746     11.527    159.000     12.000    -999.25   4539.142   3437.500    198.060    -999.25      0.000       -999.25      0.000    -999.25      1.333    254.761     52.000
 1951.4820     45.100       135.141      2.713     11.935    160.000    -999.25    -999.25   4539.142    -999.25    198.279    -999.25    -999.25       -999.25    -999.25    -999.25      1.333    254.830     52.000
 1951.6344     45.109       132.250      2.843     11.825    160.000    -999.25    158.000   4539.142    -999.25    198.139      0.000    -999.25         0.000    -999.25     24.000      1.334    254.899     52.000
 1951.7868     45.092       132.250      2.929     11.627    160.000    -999.25    -999.25   4539.142    -999.25    197.938    -999.25    -999.25       -999.25    -999.25    -999.25      1.334    254.968     52.000
 1951.9392     45.095       118.266      2.883     11.453    159.400     33.000    -999.25   4539.142   3476.563    198.275    -999.25      0.000       -999.25      0.000    -999.25      1.334    255.037     52.000
 1952.0916     45.103       126.563      2.785     11.461    159.000    -999.25    -999.25   4539.142    -999.25    197.994    -999.25    -999.25       -999.25    -999.25    -999.25      1.334    255.037     52.000
 1952.2440     45.089       132.250      2.599     11.628    159.000    -999.25    158.000   4539.142    -999.25    197.754      0.000    -999.25         0.000    -999.25     24.000      1.334    255.037     52.000
 1952.3964     45.100       126.563      2.540     11.418    159.360    -999.25    -999.25   4539.142    -999.25    198.260    -999.25    -999.25       -999.25    -999.25    -999.25      1.334    255.037     52.000
 1952.5488     45.095       132.250      2.625     10.981    159.792     12.000    -999.25   4539.142   3437.500    198.547    -999.25      0.000       -999.25      0.000    -999.25      1.334    255.106     52.000
 1952.7012     45.077       123.766      2.637     11.439    159.167    -999.25    -999.25   4539.142    -999.25    198.273    -999.25    -999.25       -999.25    -999.25    -999.25      1.334    255.106     52.000
 1952.8536     45.074       123.766      3.544     11.113    160.000    -999.25    154.000   4539.142    -999.25    198.737    -999.25    -999.25         0.000    -999.25    -999.25      1.334    255.106     52.000
 1953.0060     45.066       121.000      3.043     11.096    159.042    -999.25    -999.25   4539.142    -999.25    198.429      0.000    -999.25       -999.25    -999.25     24.000      1.334    255.175     52.000
 1953.1584     45.051       123.766      2.749     12.490    159.880      6.000    -999.25   4539.142   3437.500    198.369    -999.25      0.000       -999.25      0.000    -999.25      1.334    255.175     52.000
 1953.3108     45.051       107.641      2.687     11.930    158.417    -999.25    -999.25   4539.142    -999.25    198.343    -999.25    -999.25       -999.25    -999.25    -999.25      1.334    255.244     52.000
