~Version Information
VERS.             2.0 : CWLS log ASCII standard - Version 2.0
WRAP.             NO  : One line per depth step
#
~Well Information Block
#MNEM.UNIT                   Data Type:Information
#__________________________________________________________
 STRT .M           2778.09960  :START INDEX                  
  STOP.M           3749.9544 : STOP INDEX                    
  STEP.M              0.1524 : STEP                          
  NULL.              -999.25 : NULL VALUE                    
  COMP.           StatoilHydro : COMPANY                       
  WELL.            15/9-F-14 : WELL                          
   FLD.                Volve : FIELD                         
   LOC.            North Sea : LOCATION                      
  PROV.                      : PROVINCE                      
  CNTY.                      : COUNTY                        
  STAT.                      : STATE                         
  CTRY.               Norway : COUNTRY                       
  SRVC.              SLB D&M : SERVICE COMPANY               
  DATE.                      : LOG DATE                      
   UWI.                      : UNIQUE WELL ID                
   API.                      : API NUMBER                    
#
~Curve Information Block
#MNEM.UNIT                     : Curve Description
#---------                     --------------------
DEPT        .M                 : Bit Depth 2hz                                                   
ROP5        .M/HR              : 5ft ROP 2hz                                                     
GRMA_ECO_RT .GAPI              : Gamma Ray, Average, Real-Time                                   
Stick_RT    .RPM               : MWD PKtoPK RPM 2hz                                              
SWOB        .KKGF              : Surface Weight on Bit 2hz                                       
SHKRSK_RT   .----              : MWD SHKRSK 2hz                                                  
SHKPK_RT    .G                 : MWD SHK_PK 2hz                                                  
RPM         .RPM               : SRF SRPM 2hz                                                    
TRPM_RT     .RPM               : MWD TUR_RPM 2hz                                                 
CRPM_RT     .RPM               : MWD CRPM 2hz                                                    
TFLO        .LPM               : HSPM Total Pump Flow 2hz                                        
DHAT        .DEGC              : Downhole Annulus Temperature                                    
DHAP        .BAR               : Downhole Annulus Pressure                                       
TQA         .KMN               : SRF STOR 2hz                                                    
ECD         .G/C3              : Equivalent Circulating Density                                  
SPPA        .BAR               : SRF PUMPRS 2hz                                                  
SPM1        .----              : SRF SPM1 2hz                                                    
SPM2        .----              : SRF SPM2 2hz                                                    
SPM3        .----              : SRF SPM3 2hz                                                    
#
~Parameter Information Block
#MNEM.UNIT                       Value:Description
#__________________________________________________________
#
~Other Information Block

#
~A    DEPT       ROP5 GRMA_ECO_RT   Stick_RT       SWOB  SHKRSK_RT   SHKPK_RT        RPM    TRPM_RT    CRPM_RT       TFLO       DHAT       DHAP        TQA        ECD       SPPA       SPM1       SPM2       SPM3
# ...
 3164.4336      30.11     -999.25      33.00       8.58    -999.25    -999.25     169.33    -999.25    -999.25    1940.78      76.00     423.61      13.30       1.48     176.30       0.00      44.00      44.00
 3164.5860      30.12     -999.25    -999.25       8.41    -999.25    -999.25     170.00    2734.38     171.00    1940.78      76.00     424.44      13.63       1.49     176.24       0.00      44.00      44.00
 3164.7384      30.12     -999.25    -999.25       8.41    -999.25    -999.25     170.00    -999.25    -999.25    1940.78      76.00     423.96      13.54       1.48     176.53       0.00      44.00      44.00
 3164.8908      30.12       20.12    -999.25       8.36       0.00       0.00     169.58    -999.25    -999.25    1940.78      76.00     424.30      13.28       1.48     176.13       0.00      44.00      44.00
 3165.0432      30.11     -999.25    -999.25       8.47    -999.25    -999.25     169.00    -999.25    -999.25    1940.78      76.00     424.17      13.65       1.48     176.34       0.00      44.00      44.00
 3165.1956      30.11       11.79      45.00       8.55    -999.25    -999.25     169.14    2734.38    -999.25    1940.78      76.00     423.41      12.51       1.48     176.36       0.00      44.00      44.00
 3165.3480      30.10     -999.25    -999.25       8.84    -999.25    -999.25     170.00    -999.25     168.00    1940.78      76.00     423.89      13.18       1.48     176.31       0.00      44.00      44.00
 3165.5004      30.10       16.52    -999.25       9.01       0.00       0.00     169.28    -999.25    -999.25    1940.78      76.00     424.03      14.54       1.48     176.52       0.00      44.00      44.00
 3165.6528      30.09     -999.25    -999.25       8.91    -999.25    -999.25     169.51    -999.25    -999.25    1940.78      76.00     424.23      14.71       1.48     176.37       0.00      44.00      44.00
 3165.8052      30.09       16.52      33.00       8.96    -999.25    -999.25     169.72    -999.25    -999.25    1940.78      76.00     423.41      14.49       1.48     175.99       0.00      44.00      44.00
 3165.9576      30.08     -999.25    -999.25       9.04    -999.25    -999.25     169.27    2734.38     167.00    1940.78      76.00     423.13      14.87       1.48     175.98       0.00      44.00      44.00
 3166.1100      30.08       14.09    -999.25       9.23    -999.25    -999.25     169.50    -999.25    -999.25    1940.78      76.00     423.75      15.48       1.48     176.14       0.00      44.00      44.00
 3166.2624      29.97     -999.25    -999.25       9.16       0.00       0.00     169.66    -999.25    -999.25    1940.78      76.00     423.82      14.66       1.48     176.29       0.00      44.00      44.00
 3166.4148      29.58       17.69      24.00       8.73    -999.25    -999.25     169.39    -999.25    -999.25    1940.78      77.00     423.55      14.30       1.48     176.36       0.00      44.00      44.00
 3166.5672      29.51     -999.25    -999.25       8.63    -999.25    -999.25     170.00    2734.38     168.00    1940.78      77.00     423.61      14.59       1.48     176.09       0.00      44.00      44.00
 3166.7196      29.47       20.12    -999.25       8.37    -999.25    -999.25     169.32    -999.25    -999.25    1940.78      77.00     423.06      14.16       1.48     176.46       0.00      44.00      44.00
 3166.8720      29.48     -999.25    -999.25       7.92       0.00       0.00     169.50    -999.25    -999.25    1940.78      77.00     424.10      13.82       1.48     176.39       0.00      44.00      44.00
 3167.0244      29.49       20.12    -999.25       7.44    -999.25    -999.25     169.00    -999.25    -999.25    1940.78      77.00     423.41      13.68       1.48     176.20       0.00      44.00      44.00
 3167.1768      29.49     -999.25      45.00       7.64    -999.25    -999.25     169.33    2734.38    -999.25    1940.78      77.00     423.55      12.88       1.48     176.04       0.00      44.00      44.00
 3167.3292      29.49       20.12    -999.25       7.74    -999.25    -999.25     169.97    -999.25     165.00    1940.78      77.00     423.13      12.06       1.48     175.78       0.00      44.00      44.00
 3167.4816      29.50     -999.25    -999.25       7.58       0.00       0.00     169.00    -999.25    -999.25    1940.78      77.00     423.96      11.69       1.48     175.93       0.00      44.00      44.00
 3167.6340      29.49       16.52    -999.25       7.86    -999.25    -999.25     169.56    -999.25    -999.25    1940.78      77.00     423.41      12.43       1.48     175.50       0.00      44.00      44.00
 3167.7864      29.60     -999.25      57.00       7.80    -999.25    -999.25     169.16    -999.25    -999.25    1940.78      77.00     423.89      12.55       1.48     175.65       0.00      44.00      44.00
 3167.9388      29.99       16.52    -999.25       7.97    -999.25    -999.25     169.00    2734.38     172.00    1940.78      77.00     423.72      12.99       1.48     175.72       0.00      44.00      44.00
 3168.0912      30.06     -999.25    -999.25       7.84    -999.25    -999.25     169.00    -999.25    -999.25    1940.78      77.00     423.27      12.30       1.48     176.13       0.00      44.00      44.00
 3168.2436      30.10       16.52    -999.25       7.85       0.00       0.00     170.00    -999.25    -999.25    1940.78      77.00     424.03      13.38       1.48     176.30       0.00      44.00      44.00
 3168.3960      30.10     -999.25      57.00       8.06    -999.25    -999.25     170.19    -999.25    -999.25    1940.78      77.00     423.20      13.84       1.48     176.06       0.00      44.00      44.00
 3168.5484      30.09       16.52    -999.25       7.81    -999.25    -999.25     169.00    2734.38    -999.25    1940.78      77.00     423.68      13.54       1.48     175.79       0.00      44.00      44.00
 3168.7008      30.09     -999.25    -999.25       8.02    -999.25    -999.25     168.27    -999.25     169.00    1940.78      78.00     423.61      12.88       1.48     176.02       0.00      44.00      44.00
 3168.8532      30.09       16.52    -999.25       7.93       0.00       0.00     169.56    -999.25    -999.25    1940.78      78.00     423.55      13.77       1.48     176.09       0.00      44.00      44.00
 3169.0056      30.08     -999.25    -999.25       7.92    -999.25    -999.25     169.00    -999.25    -999.25    1940.78      78.00     423.99      13.70       1.48     176.42       0.00      44.00      44.00
 3169.1580      30.02       16.52      51.00       7.75    -999.25    -999.25     169.97    2734.38    -999.25    1940.78      78.00     423.79      13.09       1.48     175.71       0.00      44.00      44.00
 3169.3104      29.97     -999.25    -999.25       8.24    -999.25    -999.25     170.00    -999.25     166.00    1940.78      78.00     424.03      13.68       1.48     175.62       0.00      44.00      44.00
 3169.4628      29.95       20.12    -999.25       8.07       0.00       0.00     169.27    -999.25    -999.25    1940.78      78.00     423.34      14.09       1.48     176.20       0.00      44.00      44.00
 3169.6152      29.89     -999.25    -999.25       7.77    -999.25    -999.25     169.70    -999.25    -999.25    1940.78      78.00     423.48      13.86       1.48     176.21       0.00      44.00      44.00
 3169.7676      29.87       25.38      51.00       7.96    -999.25    -999.25     169.59    -999.25    -999.25    1940.78      78.00     423.20      13.41       1.48     176.58       0.00      44.00      44.00
 3169.9200      29.85     -999.25    -999.25       7.94    -999.25    -999.25     169.17    2734.38     169.00    1940.78      78.00     422.79      13.62       1.48     176.21       0.00      44.00      44.00
 3170.0724      29.81       20.12    -999.25       8.08    -999.25    -999.25     169.38    -999.25    -999.25    1940.78      78.00     424.17      13.25       1.48     175.89       0.00      44.00      44.00
 3170.2248      29.25     -999.25    -999.25       8.04       0.00       0.00     169.93    -999.25    -999.25    1940.78      78.00     424.17      13.11       1.48     175.64       0.00      44.00      44.00
