~Version Information
VERS.             2.0 : CWLS log ASCII standard - Version 2.0
WRAP.             NO  : One line per depth step
#
~Well Information Block
#MNEM.UNIT                   Data Type:Information
#__________________________________________________________
 STRT .M           2250.03360  :START INDEX                  
  STOP.M           2787.8532 : STOP INDEX                    
  STEP.M              0.1524 : STEP                          
  NULL.              -999.25 : NULL VALUE                    
  COMP.           StatoilHydro : COMPANY                       
  WELL.            15_9_F_14 : WELL                          
   FLD.                Volve : FIELD                         
   LOC.           Maersk Inspirer : LOCATION                      
  PROV.                      : PROVINCE                      
  CNTY.                      : COUNTY                        
  STAT.                      : STATE                         
  CTRY.                      : COUNTRY                       
  SRVC.              SLB D&M : SERVICE COMPANY               
  DATE.                      : LOG DATE                      
   UWI.                      : UNIQUE WELL ID                
   API.                      : API NUMBER                    
#
~Curve Information Block
#MNEM.UNIT                     : Curve Description
#---------                     --------------------
DEPT        .M                 : Bit Depth 2hz                                                   
ROP5        .M/HR              : 5ft ROP 2hz                                                     
ARC_GR_RT   .GAPI              : ARC Gamma Ray, Real-Time                                        
SWOB        .KKGF              : Surface Weight on Bit 2hz                                       
TQA         .KMN               : SRF STOR 2hz                                                    
Stick_RT    .RPM               : MWD PKtoPK RPM 2hz                                              
SPPA        .BAR               : SRF PUMPRS 2hz                                                  
TRPM_RT     .RPM               : MWD TUR_RPM 2hz                                                 
TFLO        .LPM               : HSPM Total Pump Flow 2hz                                        
RPM         .RPM               : SRF SRPM 2hz                                                    
CRPM_RT     .RPM               : MWD CRPM 2hz                                                    
SHKRSK_RT   .----              : MWD SHKRSK 2hz                                                  
SHK2_RT     .----              : ARC Shock Level, Real-Time                                      
ECD_ARC     .G/C3              : Equivalent Circulating Density                                  
APRS_ARC    .BAR               : ARC Annular Pressure                                            
ATMP        .DEGC              : ARC Annular Temperature                                         
SPM1        .----              : SRF SPM1 2hz                                                    
SPM2        .----              : SRF SPM2 2hz                                                    
SPM3        .----              : SRF SPM3 2hz                                                    
#
~Parameter Information Block
#MNEM.UNIT                       Value:Description
#__________________________________________________________
#
~Other Information Block

#
~A    DEPT       ROP5  ARC_GR_RT       SWOB        TQA   Stick_RT       SPPA    TRPM_RT       TFLO        RPM    CRPM_RT  SHKRSK_RT    SHK2_RT    ECD_ARC   APRS_ARC       ATMP       SPM1       SPM2       SPM3
# ...
 2636.3676    16.9219    13.5200    14.0751    17.6368    -999.25   249.1451    -999.25  3561.2438   139.3125    -999.25     2.0000    -999.25     1.3235   338.8085    77.0000    65.0000    50.0000    45.0000
 2636.5200    16.6980    12.5716    13.6643    16.9368    -999.25   247.7073    -999.25  3561.2438   139.5806    -999.25    -999.25    -999.25     1.3237   338.8775    77.0000    65.0000    50.0000    45.0000
 2636.6724    16.5950    16.5724    13.8802    16.8462    -999.25   247.3262    -999.25  3561.2438   140.4590    -999.25    -999.25    -999.25     1.3229   338.6706    77.0000    65.0000    50.0000    45.0000
 2636.8248    16.4645    17.6588    13.9117    16.8191    -999.25   247.5382  2656.2500  3561.2438   139.1803    -999.25    -999.25    -999.25     1.3242   339.0153    78.0000    65.0000    50.0000    45.0000
 2636.9772    16.3943    15.5204    13.9549    17.4513   114.0000   246.4348    -999.25  3561.2438   139.5806   104.0000    -999.25     0.0000     1.3238   338.9464    78.0000    65.0000    50.0000    45.0000
 2637.1296    16.5069    -999.25    12.9299    18.6588    -999.25   247.9240    -999.25  3561.2438   139.5000    -999.25    -999.25    -999.25     1.3235   338.8775    78.0000    65.0000    50.0000    45.0000
 2637.2820    16.9105    -999.25    12.4058    16.6742    -999.25   248.7451    -999.25  3561.2438   139.8462    -999.25    -999.25    -999.25     1.3242   339.0843    78.0000    65.0000    50.0000    45.0000
 2637.4344    17.9312    -999.25    12.4080    17.4320    -999.25   248.2321    -999.25  3561.2438   138.3830    -999.25    -999.25    -999.25     1.3234   338.8775    78.0000    65.0000    50.0000    45.0000
 2637.5868    18.8039     1.3968    12.2257    15.3816    -999.25   248.6759     0.0000  3561.2438   138.9091    -999.25    -999.25    -999.25     1.3241   339.0843    78.0000    65.0000    50.0000    45.0000
 2637.7392    19.8356    -999.25    12.3517    17.6328    -999.25   247.8073    -999.25  3561.2438   139.2500    -999.25    -999.25    -999.25     1.3246   339.2222    78.0000    65.0000    50.0000    45.0000
 2637.8916    20.7997    -999.25    12.4363    19.0221    -999.25   249.0123    -999.25  3561.2438   139.0000    -999.25    -999.25    -999.25     1.3234   338.9464    78.0000    65.0000    50.0000    45.0000
 2638.0440    21.7687    17.6588    11.5124    19.4328    -999.25   248.8347    -999.25  3479.0864   136.7895    -999.25    -999.25    -999.25     1.3247   339.2911    78.0000    61.3158    50.0000    45.0000
 2638.1964    22.6850    15.5204    12.4723    16.5723    -999.25   210.3896    -999.25  3327.9100   139.2683    -999.25    -999.25    -999.25     1.3247   339.2911    78.0000    41.6585    50.0000    45.0000
 2638.3488    23.6946    18.7797    12.2593    16.0310    -999.25   216.6694    -999.25  3189.9497   138.7000    -999.25    -999.25    -999.25     1.3235   339.0153    78.0000    52.9000    50.0000    45.0000
 2638.5012    24.8346     9.9331    12.5277    16.7367    -999.25   200.3421    -999.25  2847.6452   137.0500    -999.25     1.0000    -999.25     1.3245   339.2911    78.0000    33.6500    50.0000    45.0000
 2638.6536    25.5024    17.6588    11.8888    19.7460    -999.25   204.8260    -999.25  3242.6725   137.0817    -999.25    -999.25     0.0000     1.3239   339.1532    78.0000    50.1837    50.0000    45.0000
 2638.8060    26.0729    16.5724    12.9268    21.1018    -999.25   215.6662    -999.25  3065.4590   137.5813    -999.25    -999.25    -999.25     1.3241   339.2222    78.0000    40.5349    50.0000    45.0000
 2638.9584    26.1603    15.5204    12.7413    17.2690    -999.25   212.5321  2304.6875  3009.5621   128.0000    51.0000    -999.25    -999.25     1.3246   339.3601    79.0000    53.2609    50.0000    45.0000
 2639.1108    26.3196    16.5724    12.6225    18.8101    -999.25   229.1467    -999.25  3282.7663   136.3415    -999.25    -999.25     0.0000     1.3237   339.1532    79.0000    54.1951    50.0000    45.0000
 2639.2632    26.1388    -999.25    12.7745    18.8073    -999.25   231.0938    -999.25  3544.6485   136.3256    -999.25    -999.25    -999.25     1.3250   339.4980    79.0000    59.3721    50.0000    45.0000
 2639.4156    26.0062    13.5200    12.3125    17.9835    -999.25   233.6956    -999.25  3293.6442   137.8292    -999.25    -999.25    -999.25     1.3239   339.2222    79.0000    57.6829    50.0000    45.0000
 2639.5680    25.7483    14.5030    13.4377    18.4983    -999.25   219.7367    -999.25  2987.2854   136.1429    -999.25    -999.25    -999.25     1.3249   339.4980    79.0000    43.4762    50.0000    45.0000
 2639.7204    24.7942    13.5200    14.1508    19.5872    -999.25   223.0462    -999.25  3272.9093   138.4386    -999.25    -999.25    -999.25     1.3240   339.2911    79.0000    59.7368    50.0000    45.0000
 2639.8728    23.7402    17.6588    13.9154    16.8846    -999.25   246.6770    -999.25  3561.2438   139.0833    -999.25    -999.25    -999.25     1.3248   339.4980    79.0000    65.0000    50.0000    45.0000
 2640.0252    22.7357    13.5200    12.9747    18.3262    -999.25   247.8804  2617.1875  3561.2438   137.6229    -999.25    -999.25    -999.25     1.3244   339.4290    79.0000    65.0000    50.0000    45.0000
 2640.1776    22.5441     9.9331    12.7407    18.6659    -999.25   249.7508    -999.25  3561.2438   133.6038   180.0000    -999.25    -999.25     1.3246   339.4980    79.0000    65.0000    50.0000    45.0000
 2640.3300    22.3671    18.7797    12.6312    17.1476    -999.25   248.8222    -999.25  3561.2438   138.4468    -999.25    -999.25    -999.25     1.3243   339.4290    79.0000    65.0000    50.0000    45.0000
 2640.4824    22.3803    11.6576    12.2679    17.2202    -999.25   248.2915    -999.25  3561.2438   139.5778    -999.25     0.0000    -999.25     1.3245   339.4980    79.0000    65.0000    50.0000    45.0000
 2640.6348    22.3945    14.5030    12.5467    16.3427    -999.25   247.1930    -999.25  3561.2438   139.0000    -999.25    -999.25    -999.25     1.3244   339.4980    79.0000    65.0000    50.0000    45.0000
 2640.7872    22.3280    11.6576    12.4639    18.0160    -999.25   247.8690    -999.25  3561.2438   139.7728    -999.25    -999.25    -999.25     1.3244   339.4980    79.0000    65.0000    50.0000    45.0000
 2640.9396    22.2470    17.6588    12.7127    17.5229    -999.25   247.2920    -999.25  3561.2438   139.4651    -999.25     0.0000    -999.25     1.3249   339.6359    79.0000    65.0000    50.0000    45.0000
 2641.0920    22.2009    14.5030    12.5852    17.3610    -999.25   247.3652    -999.25  3561.2438   139.0000    -999.25    -999.25    -999.25     1.3245   339.5669    79.0000    65.0000    50.0000    45.0000
 2641.2444    22.7434    13.5200    12.4763    16.6871    -999.25   248.2616  2851.5625  3561.2438   139.4889    -999.25    -999.25    -999.25     1.3247   339.6359    79.0000    65.0000    50.0000    45.0000
 2641.3968    23.3751    14.5030    12.6302    17.5214    -999.25   247.6954    -999.25  3561.2438   139.0000    -999.25    -999.25    -999.25     1.3247   339.6359    79.0000    65.0000    50.0000    45.0000
 2641.5492    24.1559    15.5204    12.5683    17.0664    -999.25   247.3003    -999.25  3561.2438   139.0000    -999.25    -999.25    -999.25     1.3246   339.6359    79.0000    65.0000    50.0000    45.0000
 2641.7016    24.3891    14.5030    12.4321    17.7928    -999.25   246.6508    -999.25  3561.2438   139.0000    -999.25    -999.25    -999.25     1.3251   339.7738    79.0000    65.0000    50.0000    45.0000
 2641.8540    24.3582    -999.25    12.5097    17.0765    -999.25   246.7459    -999.25  3561.2438   139.2292   138.0000    -999.25     0.0000     1.3253   339.8427    79.0000    65.0000    50.0000    45.0000
 2642.0064    24.2635    -999.25    12.5383    17.4944    -999.25   247.2379    -999.25  3561.2438   139.8936    -999.25    -999.25    -999.25     1.3244   339.6359    79.0000    65.0000    50.0000    45.0000
 2642.1588    23.9802    15.5204    12.7527    17.0234    -999.25   247.1678    -999.25  3561.2438   139.0000    -999.25    -999.25    -999.25     1.3249   339.7738    79.0000    65.0000    50.0000    45.0000
