~Version Information
VERS.             2.0 : CWLS log ASCII standard - Version 2.0
WRAP.             NO  : One line per depth step
#
~Well Information Block
#MNEM.UNIT                   Data Type:Information
#__________________________________________________________
 STRT .M           2250.03360  :START INDEX                  
  STOP.M           2787.8532 : STOP INDEX                    
  STEP.M              0.1524 : STEP                          
  NULL.              -999.25 : NULL VALUE                    
  COMP.           StatoilHydro : COMPANY                       
  WELL.            15_9_F_14 : WELL                          
   FLD.                Volve : FIELD                         
   LOC.           Maersk Inspirer : LOCATION                      
  PROV.                      : PROVINCE                      
  CNTY.                      : COUNTY                        
  STAT.                      : STATE                         
  CTRY.                      : COUNTRY                       
  SRVC.              SLB D&M : SERVICE COMPANY               
  DATE.                      : LOG DATE                      
   UWI.                      : UNIQUE WELL ID                
   API.                      : API NUMBER                    
#
~Curve Information Block
#MNEM.UNIT                     : Curve Description
#---------                     --------------------
DEPT        .M                 : Bit Depth 2hz                                                   
ROP5        .M/HR              : 5ft ROP 2hz                                                     
ARC_GR_RT   .GAPI              : ARC Gamma Ray, Real-Time                                        
SWOB        .KKGF              : Surface Weight on Bit 2hz                                       
TQA         .KMN               : SRF STOR 2hz                                                    
Stick_RT    .RPM               : MWD PKtoPK RPM 2hz                                              
SPPA        .BAR               : SRF PUMPRS 2hz                                                  
TRPM_RT     .RPM               : MWD TUR_RPM 2hz                                                 
TFLO        .LPM               : HSPM Total Pump Flow 2hz                                        
RPM         .RPM               : SRF SRPM 2hz                                                    
CRPM_RT     .RPM               : MWD CRPM 2hz                                                    
SHKRSK_RT   .----              : MWD SHKRSK 2hz                                                  
SHK2_RT     .----              : ARC Shock Level, Real-Time                                      
ECD_ARC     .G/C3              : Equivalent Circulating Density                                  
APRS_ARC    .BAR               : ARC Annular Pressure                                            
ATMP        .DEGC              : ARC Annular Temperature                                         
SPM1        .----              : SRF SPM1 2hz                                                    
SPM2        .----              : SRF SPM2 2hz                                                    
SPM3        .----              : SRF SPM3 2hz                                                    
#
~Parameter Information Block
#MNEM.UNIT                       Value:Description
#__________________________________________________________
#
~Other Information Block

#
~A    DEPT       ROP5  ARC_GR_RT       SWOB        TQA   Stick_RT       SPPA    TRPM_RT       TFLO        RPM    CRPM_RT  SHKRSK_RT    SHK2_RT    ECD_ARC   APRS_ARC       ATMP       SPM1       SPM2       SPM3
# ...
 2285.6952    17.0179    -999.25     2.6214     8.6235    21.0000   176.8611    -999.25  2978.3191    44.5091    -999.25    -999.25    -999.25     1.3268   296.8884    51.0000    69.0000     0.0000    65.0000
 2285.8476    17.3041    56.0288     3.4931     8.8358    -999.25   176.5592    -999.25  2978.4448    44.8254    -999.25    -999.25     0.0000     1.3276   297.0952    51.0000    69.0000     0.0000    65.0000
 2286.0000    17.4244    -999.25     3.0066     8.8476    21.0000   177.0571    -999.25  2978.4448    44.4000    -999.25    -999.25    -999.25     1.3275   297.0952    51.0000    69.0000     0.0000    65.0000
 2286.1524    17.9428    60.0296     2.7270     9.9445    -999.25   178.4563    -999.25  2978.4448    44.4727    -999.25    -999.25     0.0000     1.3271   297.0263    51.0000    69.0000     0.0000    65.0000
 2286.3048    18.4941    60.0296     2.5287     9.3073    21.0000   177.9075    -999.25  2978.4448    44.5185    -999.25    -999.25    -999.25     1.3271   297.0263    51.0000    69.0000     0.0000    65.0000
 2286.4572    19.0671    56.0288     3.0129     9.4705    -999.25   178.0397    -999.25  2978.4716    44.9107    -999.25    -999.25    -999.25     1.3276   297.1642    51.0000    69.1786     0.0000    64.8214
 2286.6096    19.0842    52.1659     3.0936     9.3446    -999.25   178.9482    -999.25  2978.7449    44.1579    -999.25    -999.25    -999.25     1.3272   297.0952    51.0000    71.0000     0.0000    63.0000
 2286.7620    18.4034    50.2862     3.4925    10.0300    -999.25   178.5050    -999.25  2978.7449    44.9737    -999.25    -999.25    -999.25     1.3268   297.0263    51.0000    71.0000     0.0000    63.0000
 2286.9144    17.3961    60.0296     2.9623     9.2544    -999.25   177.7769    -999.25  2978.6795    44.0000    -999.25    -999.25    -999.25     1.3276   297.2331    51.0000    69.7333     0.0000    64.2667
 2287.0668    17.2043    52.1659     3.6568    10.2145    -999.25   178.5759    -999.25  2978.2948    44.3064    -999.25    -999.25    -999.25     1.3266   297.0263    51.0000    68.0000     0.0000    66.0000
 2287.2192    16.7333    58.0120     3.1182     9.4767    -999.25   177.8631    -999.25  2978.2948    44.0411    -999.25    -999.25    -999.25     1.3271   297.1642    51.0000    68.0000     0.0000    66.0000
 2287.3716    16.1854    54.0801     3.4225     9.2746    -999.25   176.9706    -999.25  2978.2948    44.0000    -999.25    -999.25    -999.25     1.3277   297.3021    51.0000    68.0000     0.0000    66.0000
 2287.5240    16.0649    58.0120     4.1577     9.2158    -999.25   176.9288    -999.25  2978.2948    44.3333    -999.25    -999.25    -999.25     1.3276   297.3021    51.0000    68.0000     0.0000    66.0000
 2287.6764    15.4884    62.0818     2.7231     9.4386    -999.25   177.1325    -999.25  2978.2948    44.2250    -999.25    -999.25    -999.25     1.3269   297.1642    51.0000    68.0000     0.0000    66.0000
 2287.8288    15.3563    60.0296     3.0252     9.6764    -999.25   177.6980    -999.25  2978.2948    44.6229    -999.25    -999.25    -999.25     1.3268   297.1642    51.0000    68.0000     0.0000    66.0000
 2287.9812    15.2563    54.0801     2.9779     9.4710    -999.25   177.3556    -999.25  2978.2948    44.4667    -999.25    -999.25    -999.25     1.3273   297.3021    51.0000    68.0000     0.0000    66.0000
 2288.1336    15.1704    52.1659     2.9228     9.5996    -999.25   176.2422    -999.25  2977.3607    44.4262    -999.25    -999.25    -999.25     1.3269   297.2331    51.0000    61.7705     0.0000    72.2295
 2288.2860    15.5626    52.1659     3.0582     9.6735    -999.25   177.6979    -999.25  2976.7949    44.2712    -999.25    -999.25    -999.25     1.3268   297.2331    51.0000    58.0000     0.0000    76.0000
 2288.4384    16.2707    48.4410     2.8516     9.8466    -999.25   178.3735    -999.25  2976.7949    45.0000    -999.25    -999.25    -999.25     1.3268   297.2331    51.0000    58.0000     0.0000    76.0000
 2288.5908    16.4399    54.0801     2.6420     9.7775    -999.25   179.0223    -999.25  2976.7949    44.6000    -999.25    -999.25    -999.25     1.3267   297.2331    51.0000    58.0000     0.0000    76.0000
 2288.7432    16.6743    56.0288     2.9408     9.1297    -999.25   177.9718    -999.25  2976.7949    44.0469    -999.25    -999.25    -999.25     1.3266   297.2331    51.0000    58.0000     0.0000    76.0000
 2288.8956    17.4807    64.1684     2.5756     9.6815    -999.25   177.9892    -999.25  2975.1515    44.4182    -999.25    -999.25    -999.25     1.3268   297.3021    51.0000    56.8364     0.0000    76.1454
 2289.0480    18.0515    58.0120     2.9132     9.4959    -999.25   178.0962    -999.25  2976.4948    44.1091    -999.25    -999.25    -999.25     1.3270   297.3710    51.0000    56.0000     0.0000    78.0000
 2289.2004    18.8302    54.0801     2.8047     9.3493    -999.25   177.8275    -999.25  2976.4948    45.0000    -999.25    -999.25    -999.25     1.3266   297.3021    51.0000    56.0000     0.0000    78.0000
 2289.3528     8.8957    50.2862     0.2268     5.3840    -999.25   175.1024    -999.25  3017.5508    44.5317    -999.25    -999.25     0.0000     1.3268   297.3710    51.0000    58.1913     0.0000    77.7004
 2289.5052     8.8017    62.0818     1.1642     5.7804    -999.25   215.6336    -999.25  3422.5735    44.6438    -999.25    -999.25    -999.25     1.3268   297.3710    51.0000    75.0000     0.0000    80.0000
 2289.6576     8.7203    60.0296     1.8830     6.9661    -999.25   219.0609    -999.25  3444.4942    44.0000    -999.25    -999.25    -999.25     1.3276   297.5778    51.0000    75.0000     0.0000    80.0000
 2289.8100     8.6213    62.0818     1.8722     7.5245   111.0000   220.4574  2460.9375  3444.4942    44.8904    -999.25    -999.25     0.0000     1.3263   297.3021    51.0000    75.0000     0.0000    80.0000
 2289.9624     8.5253    -999.25     2.0739     7.9302    -999.25   220.3881  2500.0000  3444.4942    44.5616    -999.25     0.0000    -999.25     1.3271   297.5089    51.0000    75.0000     0.0000    80.0000
 2290.1148     8.4083    48.4410     2.6051     7.7335    51.0000   220.6284    -999.25  3444.4942    44.3699    -999.25    -999.25     0.0000     1.3267   297.4399    51.0000    75.0000     0.0000    80.0000
 2290.2672     8.3444    48.4410     2.7594     8.3206    -999.25   221.3228  2460.9375  3444.4942    44.7162    43.0000    -999.25    -999.25     1.3266   297.4399    51.0000    75.0000     0.0000    80.0000
 2290.4196     8.2276    58.0120     1.8732     8.3281    42.0000   221.5736    -999.25  3444.4942    44.4658    -999.25    -999.25     0.0000     1.3275   297.6468    51.0000    75.0000     0.0000    80.0000
 2290.5720     8.1172    54.0801     2.6610     8.2958   156.0000   221.8358  2500.0000  3444.4942    45.0000    -999.25    -999.25     0.0000     1.3265   297.4399    51.0000    75.0000     0.0000    80.0000
 2290.7244     8.0130    52.1659     2.7535     8.3528    -999.25   221.7586    -999.25  3444.4942    44.3699    -999.25    -999.25    -999.25     1.3264   297.4399    51.0000    75.0000     0.0000    80.0000
 2290.8768    14.4442    52.1659     3.3014     8.4042    -999.25   221.2419  2500.0000  3444.4942    44.3824    -999.25    -999.25    -999.25     1.3269   297.5778    51.0000    75.3823     0.0000    79.6177
 2291.0292    14.2517    62.0818     2.8614     9.3498    84.0000   222.6811    -999.25  3444.8735    44.5060    50.0000    -999.25     0.0000     1.3265   297.5089    51.0000    78.0000     0.0000    77.0000
 2291.1816    13.7258    62.0818     4.0866     8.3901    -999.25   221.5134    -999.25  3444.9440    44.5437    -999.25    -999.25    -999.25     1.3267   297.5778    51.0000    78.0000     0.0000    77.0000
 2291.3340    13.4233    68.4452     2.2736     9.1027    -999.25   222.3442    -999.25  3444.9440    44.0000    -999.25     0.0000    -999.25     1.3266   297.5778    51.0000    78.0000     0.0000    77.0000
 2291.4864    12.8811    58.0120     3.9868     8.4607    -999.25   221.3190    -999.25  3444.9440    44.2617    -999.25    -999.25    -999.25     1.3265   297.5778    51.0000    78.0000     0.0000    77.0000
