~Version Information
 VERS.             2.0 : CWLS log ASCII standard - Version 2.0
 WRAP.             NO  : One line per depth step
 #
 ~Well Information Block
 #MNEM.UNIT                   Data Type:Information
 #__________________________________________________________
 STRT  .M           1050.03600  :START INDEX                  
   2281.M           2281.5804 : STOP INDEX                    
 STEP  .M              0.15240  :STEP                         
 NULL  .              -999.25000  :NULL VALUE                 
   COMP.           StatoilHydro : COMPANY                       
   WELL.            15/9-F-14 : WELL                          
    FLD.                Volve : FIELD                         
    LOC.           Norwegian North Sea : LOCATION                      
   PROV.                      : PROVINCE                      
   CNTY.                      : COUNTY                        
   STAT.                      : STATE                         
   CTRY.               Norway : COUNTRY                       
   SRVC.           Schlumberger : SERVICE COMPANY               
   DATE.            14-May-08 : LOG DATE                      
    UWI.                      : UNIQUE WELL ID                
    API.                      : API NUMBER                    
 #
 STOP  .M      2281.58040     :STOP Depth
 ~Curve Information Block
 #MNEM.UNIT                     : Curve Description
 #---------                     --------------------
 DEPT        .M                 :Bit Depth 2hz                                                    
 ROP5        .M/HR              : 5ft ROP 2hz                                                     
 ARC_GR_UNC_RT.GAPI              : ARC Raw Gamma Ray, Real-Time                                    
 SWOB        .KKGF              : Surface Weight on Bit 2hz                                       
 TQA         .KMN               : SRF STOR 2hz                                                    
 RPM         .RPM               : SRF SRPM 2hz                                                    
 Stick_RT    .RPM               : MWD PKtoPK RPM 2hz                                              
 CRPM_RT     .RPM               : MWD CRPM 2hz                                                    
 TFLO        .LPM               : HSPM Total Pump Flow 2hz                                        
 TRPM_RT     .RPM               : MWD TUR_RPM 2hz                                                 
 SPPA        .BAR               : SRF PUMPRS 2hz                                                  
 SHKRSK_RT   .----              : MWD SHKRSK 2hz                                                  
 SHK2_RT     .----              : ARC Shock Level, Real-Time                                      
 SHK_ISONIC_RT.----              : Isonic Shock, Real-Time                                         
 PDSHKRSK    .----              : PowerDrive Shock Risk 2hz                                       
 SHKPK_RT    .G                 : MWD SHK_PK 2hz                                                  
 ECD_ARC     .SG                : Equivalent Circulating Density                                  
 APRS_ARC    .BAR               : ARC Annular Pressure                                            
 ATMP        .DEGC              : ARC Annular Temperature                                         
 #
 ~Parameter Information Block
 #MNEM.UNIT                       Value:Description
 #__________________________________________________________
 #
 ~Other Information Block
 
 #
 ~A    DEPT       ROP5 ARC_GR_UNC_RT       SWOB        TQA        RPM   Stick_RT    CRPM_RT       TFLO    TRPM_RT       SPPA  SHKRSK_RT    SHK2_RT SHK_ISONIC_RT   PDSHKRSK   SHKPK_RT    ECD_ARC   APRS_ARC       ATMP
# ...
 1704.4416     34.499       132.250      6.195     11.269    159.970    -999.25    158.000   4138.493    -999.25    159.550      0.000    -999.25       -999.25    -999.25     24.000      1.296    216.358     47.000
 1704.5940     34.345       138.063      5.799     12.061    159.545     12.000    -999.25   4138.493   3085.938    159.658    -999.25      0.000         0.000      0.000    -999.25      1.297    216.427     47.000
 1704.7464     34.226       135.141      5.909     12.215    159.625    -999.25    -999.25   4138.493    -999.25    159.733    -999.25    -999.25       -999.25    -999.25    -999.25      1.296    216.358     47.000
 1704.8988     34.252       -999.25      5.677     12.826    160.000    -999.25    157.000   4138.493    -999.25    159.581      0.000    -999.25       -999.25    -999.25     24.000      1.296    216.358     47.000
 1705.0512     34.302       123.766      5.162     13.209    160.000      9.000    -999.25   4142.799   3164.063    162.023    -999.25      0.000       -999.25      0.000    -999.25      1.297    216.495     47.000
 1705.2036     34.322       -999.25      5.277     12.566    160.000    -999.25    -999.25   4205.243    -999.25    163.370    -999.25    -999.25         0.000    -999.25    -999.25      1.297    216.495     47.000
 1705.3560     34.381       123.766      5.793     11.980    160.000    -999.25    158.000   4205.243    -999.25    164.210      0.000    -999.25       -999.25    -999.25     32.000      1.297    216.495     47.000
 1705.5084     34.408       -999.25      5.121     11.732    160.000    -999.25    -999.25   4205.243   3164.063    163.359    -999.25      0.000       -999.25      0.000    -999.25      1.296    216.495     47.000
 1705.6608     34.743       118.266      5.128     13.261    159.179     15.000    -999.25   4205.243    -999.25    163.225    -999.25    -999.25         0.000    -999.25    -999.25      1.296    216.495     47.000
 1705.8132     35.309       118.266      5.398     12.318    159.000    -999.25    157.000   4205.243    -999.25    163.311    -999.25    -999.25       -999.25    -999.25    -999.25      1.297    216.564     47.000
 1705.9656     35.965       -999.25      5.340     12.555    159.889    -999.25    -999.25   4205.243    -999.25    164.246      0.000    -999.25       -999.25    -999.25     24.000      1.296    216.495     47.000
 1706.1180     36.624       123.766      5.004     12.576    160.000     12.000    -999.25   4205.243   3164.063    163.979    -999.25      0.000       -999.25      0.000    -999.25      1.296    216.564     47.000
 1706.2704     37.299       -999.25      4.783     13.004    159.037    -999.25    -999.25   4205.243    -999.25    162.639    -999.25    -999.25         0.000    -999.25    -999.25      1.296    216.564     47.000
 1706.4228     37.809       132.250      4.987     12.362    158.000    -999.25    157.000   4205.243    -999.25    163.619      0.000    -999.25       -999.25    -999.25     24.000      1.296    216.495     47.000
 1706.5752     38.312       121.000      5.175     12.214    158.259    -999.25    -999.25   4205.243    -999.25    163.935    -999.25    -999.25       -999.25    -999.25    -999.25      1.297    216.702     47.000
 1706.7276     38.853       -999.25      5.511     12.144    159.000      9.000    -999.25   4205.243   3164.063    164.003    -999.25      0.000         0.000      0.000    -999.25      1.297    216.702     47.000
 1706.8800     39.397       132.250      5.531     12.711    159.296    -999.25    -999.25   4205.243    -999.25    164.149    -999.25    -999.25       -999.25    -999.25    -999.25      1.298    216.840     47.000
 1707.0324     39.958       126.563      5.425     12.730    159.667    -999.25    156.000   4205.243    -999.25    163.501      0.000    -999.25       -999.25    -999.25     24.000      1.297    216.771     47.000
 1707.1848     40.143       126.563      5.196     12.620    159.357     15.000    -999.25   4205.243   3164.063    164.344    -999.25      0.000         0.000      0.000    -999.25      1.297    216.840     47.000
 1707.3372     40.141       -999.25      4.755     12.817    159.593    -999.25    -999.25   4205.243    -999.25    163.986    -999.25    -999.25       -999.25    -999.25    -999.25      1.297    216.771     47.000
 1707.4896     40.134       118.266      4.953     12.146    159.481    -999.25    158.000   4205.243    -999.25    163.785    -999.25    -999.25       -999.25    -999.25    -999.25      1.297    216.840     47.000
 1707.6420     40.129       132.250      4.809     11.380    160.000    -999.25    -999.25   4205.243    -999.25    163.127      0.000    -999.25         0.000    -999.25     24.000      1.297    216.909     47.000
 1707.7944     40.228       129.391      5.208     11.632    160.000     15.000    -999.25   4205.243   3164.063    164.152    -999.25      0.000       -999.25      0.000    -999.25      1.297    216.909     47.000
 1707.9468     40.408       -999.25      5.412     11.970    160.000    -999.25    -999.25   4205.243    -999.25    164.264    -999.25    -999.25       -999.25    -999.25    -999.25      1.298    216.978     47.000
 1708.0992     40.577       129.391      5.781     12.204    160.000    -999.25    157.000   4205.243    -999.25    163.603      0.000    -999.25         0.000    -999.25     24.000      1.297    216.978     47.000
 1708.2516     40.751       129.391      5.840     12.859    159.346    -999.25    -999.25   4205.243    -999.25    163.273    -999.25    -999.25       -999.25    -999.25    -999.25      1.297    216.978     47.000
 1708.4040     40.927       -999.25      6.250     12.792    159.654      9.000    -999.25   4205.243   3164.063    164.083    -999.25      0.000       -999.25      0.000    -999.25      1.297    216.978     47.000
 1708.5564     41.075       132.250      6.433     12.449    159.077    -999.25    -999.25   4205.243    -999.25    164.000    -999.25    -999.25       -999.25    -999.25    -999.25      1.298    217.185     47.000
 1708.7088     40.127       115.563      8.423     13.814    158.882    -999.25    157.000   4205.243    -999.25    163.842      0.000    -999.25         0.000    -999.25     32.000      1.298    217.116     47.000
 1708.8612     38.404       115.563      7.031     14.876    158.425      9.000    -999.25   4205.243   3164.063    163.913    -999.25      0.000       -999.25      0.000    -999.25      1.298    217.185     47.000
 1709.0136     38.001       -999.25      6.341     16.166    159.000    -999.25    -999.25   4205.243    -999.25    164.176    -999.25    -999.25       -999.25    -999.25    -999.25      1.298    217.116     47.000
 1709.1660     38.108       126.563      5.715     14.015    159.000    -999.25    157.000   4205.243    -999.25    163.121      0.000    -999.25         0.000    -999.25     24.000      1.297    217.116     47.000
 1709.3184     38.119       -999.25      5.708     13.780    159.000    -999.25    -999.25   4205.243   3164.063    163.332    -999.25      0.000       -999.25      0.000    -999.25      1.298    217.185     47.000
 1709.4708     38.055       132.250      5.649     12.964    159.000     18.000    -999.25   4205.243    -999.25    163.828    -999.25    -999.25       -999.25    -999.25    -999.25      1.298    217.254     47.000
 1709.6232     38.009       126.563      5.478     12.856    159.000    -999.25    -999.25   4205.243    -999.25    163.502    -999.25    -999.25       -999.25    -999.25    -999.25      1.298    217.323     47.000
 1709.7756     37.941       138.063      5.331     12.689    159.000    -999.25    157.000   4205.243    -999.25    163.651      0.000    -999.25         0.000    -999.25     16.000      1.298    217.323     47.000
 1709.9280     37.874       -999.25      5.258     12.413    159.000     18.000    -999.25   4205.243   3164.063    163.584    -999.25      0.000       -999.25      0.000    -999.25      1.298    217.392     47.000
 1710.0804     37.835       135.141      5.369     12.434    159.000    -999.25    -999.25   4205.243    -999.25    164.091    -999.25    -999.25       -999.25    -999.25    -999.25      1.298    217.392     47.000
