~Version Information
VERS.             2.0 : CWLS log ASCII standard - Version 2.0
WRAP.             NO  : One line per depth step
#
~Well Information Block
#MNEM.UNIT                   Data Type:Information
#__________________________________________________________
 STRT .M           2778.09960  :START INDEX                  
  STOP.M           3749.9544 : STOP INDEX                    
  STEP.M              0.1524 : STEP                          
  NULL.              -999.25 : NULL VALUE                    
  COMP.           StatoilHydro : COMPANY                       
  WELL.            15/9-F-14 : WELL                          
   FLD.                Volve : FIELD                         
   LOC.            North Sea : LOCATION                      
  PROV.                      : PROVINCE                      
  CNTY.                      : COUNTY                        
  STAT.                      : STATE                         
  CTRY.               Norway : COUNTRY                       
  SRVC.              SLB D&M : SERVICE COMPANY               
  DATE.                      : LOG DATE                      
   UWI.                      : UNIQUE WELL ID                
   API.                      : API NUMBER                    
#
~Curve Information Block
#MNEM.UNIT                     : Curve Description
#---------                     --------------------
DEPT        .M                 : Bit Depth 2hz                                                   
ROP5        .M/HR              : 5ft ROP 2hz                                                     
GRMA_ECO_RT .GAPI              : Gamma Ray, Average, Real-Time                                   
Stick_RT    .RPM               : MWD PKtoPK RPM 2hz                                              
SWOB        .KKGF              : Surface Weight on Bit 2hz                                       
SHKRSK_RT   .----              : MWD SHKRSK 2hz                                                  
SHKPK_RT    .G                 : MWD SHK_PK 2hz                                                  
RPM         .RPM               : SRF SRPM 2hz                                                    
TRPM_RT     .RPM               : MWD TUR_RPM 2hz                                                 
CRPM_RT     .RPM               : MWD CRPM 2hz                                                    
TFLO        .LPM               : HSPM Total Pump Flow 2hz                                        
DHAT        .DEGC              : Downhole Annulus Temperature                                    
DHAP        .BAR               : Downhole Annulus Pressure                                       
TQA         .KMN               : SRF STOR 2hz                                                    
ECD         .G/C3              : Equivalent Circulating Density                                  
SPPA        .BAR               : SRF PUMPRS 2hz                                                  
SPM1        .----              : SRF SPM1 2hz                                                    
SPM2        .----              : SRF SPM2 2hz                                                    
SPM3        .----              : SRF SPM3 2hz                                                    
#
~Parameter Information Block
#MNEM.UNIT                       Value:Description
#__________________________________________________________
#
~Other Information Block

#
~A    DEPT       ROP5 GRMA_ECO_RT   Stick_RT       SWOB  SHKRSK_RT   SHKPK_RT        RPM    TRPM_RT    CRPM_RT       TFLO       DHAT       DHAP        TQA        ECD       SPPA       SPM1       SPM2       SPM3
# ...
 3295.1928      12.82       37.10    -999.25       5.41    -999.25    -999.25     159.46    -999.25    -999.25    1984.88      83.00     421.48      12.17       1.46     177.24       0.00      45.00      45.00
 3295.3452      13.13     -999.25    -999.25       5.51    -999.25    -999.25     159.00    -999.25    -999.25    1984.88      83.00     421.10      13.23       1.46     177.04       0.00      45.00      45.00
 3295.4976      13.46       37.10    -999.25       5.61       0.00       0.00     159.30    -999.25    -999.25    1984.88      83.00     423.34      14.08       1.47     177.08       0.00      45.00      45.00
 3295.6500      13.81     -999.25     102.00       5.76    -999.25    -999.25     160.00    -999.25    -999.25    1984.88      83.00     423.34      14.04       1.47     176.94       0.00      45.00      45.00
 3295.8024      14.17       38.82    -999.25       5.25    -999.25    -999.25     160.00    2812.50    -999.25    1984.88      83.00     423.65      14.76       1.47     176.56       0.00      45.00      45.00
 3295.9548      14.55     -999.25    -999.25       5.20    -999.25    -999.25     159.62    -999.25     148.00    1984.88      83.00     423.61      15.66       1.47     175.59       0.00      45.00      45.00
 3296.1072      12.59     -999.25     171.00       3.96       0.00       0.00     159.78    2812.50     160.00    1984.88      83.00     423.68      12.52       1.47     175.53       0.00      45.00      45.00
 3296.2596      12.91       32.14    -999.25       5.47       0.00       0.00     160.00    -999.25    -999.25    1984.88      83.00     423.61      12.39       1.47     176.82       0.00      45.00      45.00
 3296.4120      21.71     -999.25      30.00       6.27    -999.25    -999.25     159.51    -999.25    -999.25    1984.88      83.00     422.86      13.23       1.47     177.06       0.00      45.00      45.00
 3296.5644      21.70       38.82    -999.25       6.65    -999.25    -999.25     159.00    2812.50     157.00    1984.88      83.00     424.23      14.31       1.47     176.83       0.00      45.00      45.00
 3296.7168      21.70     -999.25    -999.25       7.01    -999.25    -999.25     159.00    -999.25    -999.25    1984.88      83.00     423.48      14.98       1.47     177.00       0.00      45.00      45.00
 3296.8692      21.69       37.36    -999.25       6.93       0.00       0.00     159.00    -999.25    -999.25    1984.88      83.00     422.65      15.42       1.47     177.25       0.00      45.00      45.00
 3297.0216      21.69     -999.25    -999.25       7.06    -999.25    -999.25     159.00    -999.25    -999.25    1984.88      83.00     423.37      15.50       1.47     177.39       0.00      45.00      45.00
 3297.1740      21.69       42.42      24.00       7.34    -999.25    -999.25     159.41    2812.50    -999.25    1984.88      83.00     424.37      15.77       1.47     176.99       0.00      45.00      45.00
 3297.3264      21.68     -999.25    -999.25       7.70    -999.25    -999.25     160.00    -999.25     160.00    1984.88      83.00     424.58      15.52       1.47     176.95       0.00      45.00      45.00
 3297.4788      21.65       32.14    -999.25       7.63       0.00       0.00     159.27    -999.25    -999.25    1984.88      83.00     425.68      15.63       1.48     176.64       0.00      45.00      45.00
 3297.6312      29.70     -999.25    -999.25       6.35    -999.25    -999.25     160.00    -999.25    -999.25    1984.88      83.00     425.13      15.65       1.48     176.61       0.00      45.00      45.00
 3297.7836      29.64       30.55     111.00       6.29    -999.25    -999.25     159.27    2851.56    -999.25    1984.88      83.00     423.27      15.94       1.47     176.23       0.00      45.00      45.00
 3297.9360      29.57     -999.25    -999.25       6.91    -999.25    -999.25     159.68    -999.25     156.00    1984.88      83.00     419.48      15.35       1.46     176.01       0.00      45.00      45.00
 3298.0884      29.50       39.02    -999.25       7.49       0.00       0.00     159.62    -999.25    -999.25    1984.88      83.00     418.58      14.76       1.45     175.87       0.00      45.00      45.00
 3298.2408      29.42     -999.25    -999.25       7.02    -999.25    -999.25     159.32    -999.25    -999.25    1984.88      83.00     421.27      15.38       1.46     176.03       0.00      45.00      45.00
 3298.3932      29.31       37.36     120.00       6.64    -999.25    -999.25     160.00    -999.25    -999.25    1984.88      83.00     423.82      16.26       1.47     175.54       0.00      45.00      45.00
 3298.5456      28.61     -999.25    -999.25       7.97    -999.25    -999.25     158.57    2851.56     150.00    1984.88      83.00     423.55      16.36       1.47     175.47       0.00      45.00      45.00
 3298.6980      27.10       42.36    -999.25       9.12       0.00       0.00     159.22    -999.25    -999.25    1984.88      83.00     422.86      15.01       1.47     175.18       0.00      45.00      45.00
 3298.8504      25.31     -999.25     144.00       8.84    -999.25    -999.25     160.00    2851.56    -999.25    1984.88      83.00     423.89      15.37       1.47     175.68       0.00      45.00      45.00
 3299.0028      23.93       35.42    -999.25       9.84    -999.25    -999.25     159.59    -999.25     148.00    1984.88      83.00     423.48      15.39       1.47     175.45       0.00      45.00      45.00
 3299.1552      22.56     -999.25    -999.25       9.70       0.00       0.00     159.69    -999.25    -999.25    1984.88      83.00     424.44      15.46       1.47     175.20       0.00      45.00      45.00
 3299.3076      21.02       35.74     135.00       9.80    -999.25    -999.25     159.41    2812.50     153.00    1984.88      83.00     424.58      15.30       1.47     174.96       0.00      45.00      45.00
 3299.4600      19.93     -999.25    -999.25       9.86       0.00       0.00     159.76    -999.25    -999.25    1984.88      83.00     424.03      16.64       1.47     175.32       0.00      45.00      45.00
 3299.6124      19.10       39.02     108.00       9.51    -999.25    -999.25     159.15    2812.50    -999.25    1984.88      83.00     424.86      16.10       1.47     175.79       0.00      45.00      45.00
 3299.7648      18.28     -999.25    -999.25       9.23       0.00       0.00     160.21    -999.25     164.00    1984.88      84.00     424.86      16.22       1.47     175.26       0.00      45.00      45.00
 3299.9172      17.48       35.74     228.00      10.72    -999.25    -999.25     159.83    -999.25    -999.25    1984.88      84.00     423.82      17.02       1.47     174.56       0.00      45.00      45.00
 3300.0696      16.91     -999.25    -999.25       8.87    -999.25    -999.25     157.90    2812.50     136.00    1984.88      84.00     424.37      17.00       1.47     173.14       0.00      45.00      45.00
 3300.2220      17.06       39.02    -999.25       6.58       0.00       0.00     159.38    -999.25    -999.25    1984.88      84.00     424.99      16.68       1.47     173.42       0.00      45.00      45.00
 3300.3744      17.69     -999.25     249.00       7.95    -999.25    -999.25     158.98    -999.25    -999.25    1984.88      84.00     425.20      16.91       1.48     174.06       0.00      45.00      45.00
 3300.5268      18.30     -999.25    -999.25       6.00    -999.25    -999.25     156.76    2812.50     132.00    1984.88      84.00     425.51      16.87       1.48     174.28       0.00      45.00      45.00
 3300.6792      19.16       37.10    -999.25       7.20    -999.25    -999.25     158.36    -999.25    -999.25    1984.88      84.00     425.34      16.72       1.48     173.82       0.00      45.00      45.00
 3300.8316      18.51     -999.25     222.00       3.41       0.00       0.00     160.38    -999.25    -999.25    1984.88      84.00     425.03      14.66       1.47     175.17       0.00      45.00      45.00
 3300.9840      20.42       40.70    -999.25       6.39    -999.25    -999.25     159.55    -999.25    -999.25    1984.88      84.00     425.27      10.41       1.48     179.58       0.00      45.00      45.00
