~Version Information
 VERS.             2.0 : CWLS log ASCII standard - Version 2.0
 WRAP.             NO  : One line per depth step
 #
 ~Well Information Block
 #MNEM.UNIT                   Data Type:Information
 #__________________________________________________________
 STRT  .M           1050.03600  :START INDEX                  
   2281.M           2281.5804 : STOP INDEX                    
 STEP  .M              0.15240  :STEP                         
 NULL  .              -999.25000  :NULL VALUE                 
   COMP.           StatoilHydro : COMPANY                       
   WELL.            15/9-F-14 : WELL                          
    FLD.                Volve : FIELD                         
    LOC.           Norwegian North Sea : LOCATION                      
   PROV.                      : PROVINCE                      
   CNTY.                      : COUNTY                        
   STAT.                      : STATE                         
   CTRY.               Norway : COUNTRY                       
   SRVC.           Schlumberger : SERVICE COMPANY               
   DATE.            14-May-08 : LOG DATE                      
    UWI.                      : UNIQUE WELL ID                
    API.                      : API NUMBER                    
 #
 STOP  .M      2281.58040     :STOP Depth
 ~Curve Information Block
 #MNEM.UNIT                     : Curve Description
 #---------                     --------------------
 DEPT        .M                 :Bit Depth 2hz                                                    
 ROP5        .M/HR              : 5ft ROP 2hz                                                     
 ARC_GR_UNC_RT.GAPI              : ARC Raw Gamma Ray, Real-Time                                    
 SWOB        .KKGF              : Surface Weight on Bit 2hz                                       
 TQA         .KMN               : SRF STOR 2hz                                                    
 RPM         .RPM               : SRF SRPM 2hz                                                    
 Stick_RT    .RPM               : MWD PKtoPK RPM 2hz                                              
 CRPM_RT     .RPM               : MWD CRPM 2hz                                                    
 TFLO        .LPM               : HSPM Total Pump Flow 2hz                                        
 TRPM_RT     .RPM               : MWD TUR_RPM 2hz                                                 
 SPPA        .BAR               : SRF PUMPRS 2hz                                                  
 SHKRSK_RT   .----              : MWD SHKRSK 2hz                                                  
 SHK2_RT     .----              : ARC Shock Level, Real-Time                                      
 SHK_ISONIC_RT.----              : Isonic Shock, Real-Time                                         
 PDSHKRSK    .----              : PowerDrive Shock Risk 2hz                                       
 SHKPK_RT    .G                 : MWD SHK_PK 2hz                                                  
 ECD_ARC     .SG                : Equivalent Circulating Density                                  
 APRS_ARC    .BAR               : ARC Annular Pressure                                            
 ATMP        .DEGC              : ARC Annular Temperature                                         
 #
 ~Parameter Information Block
 #MNEM.UNIT                       Value:Description
 #__________________________________________________________
 #
 ~Other Information Block
 
 #
 ~A    DEPT       ROP5 ARC_GR_UNC_RT       SWOB        TQA        RPM   Stick_RT    CRPM_RT       TFLO    TRPM_RT       SPPA  SHKRSK_RT    SHK2_RT SHK_ISONIC_RT   PDSHKRSK   SHKPK_RT    ECD_ARC   APRS_ARC       ATMP
# ...
 1623.3648     39.942       -999.25      2.898     12.125    160.000    -999.25    -999.25   4004.993   2968.750    148.811    -999.25      0.000       -999.25      0.000    -999.25      1.298    206.222     44.000
 1623.5172     39.831       147.016      2.872     12.434    160.000     15.000    -999.25   4004.993    -999.25    148.017    -999.25    -999.25         0.000    -999.25    -999.25      1.297    206.222     44.000
 1623.6696     39.660       141.016      2.821     12.375    160.000    -999.25    157.000   4004.993    -999.25    148.327    -999.25    -999.25       -999.25    -999.25    -999.25      1.297    206.222     44.000
 1623.8220     39.497       -999.25      2.707     12.147    160.000    -999.25    -999.25   4004.993    -999.25    149.087      0.000    -999.25       -999.25    -999.25      0.000      1.298    206.291     44.000
 1623.9744     39.373       132.250      3.040     12.046    160.000      6.000    -999.25   4004.993   2968.750    148.065    -999.25      0.000         0.000      0.000    -999.25      1.298    206.291     44.000
 1624.1268     39.386       -999.25      3.219     12.483    160.000    -999.25    -999.25   4004.993    -999.25    147.970    -999.25    -999.25       -999.25    -999.25    -999.25      1.298    206.360     44.000
 1624.2792     39.404       129.391      3.189     12.817    159.536    -999.25    157.000   4004.993    -999.25    148.337      0.000    -999.25       -999.25    -999.25      0.000      1.298    206.360     44.000
 1624.4316     39.420       -999.25      3.362     12.710    159.000    -999.25    -999.25   4004.993    -999.25    147.794    -999.25    -999.25       -999.25    -999.25    -999.25      1.298    206.429     44.000
 1624.5840     39.437       126.563      4.272     12.953    159.536     15.000    -999.25   4004.993   2968.750    148.119    -999.25      0.000         0.000      0.000    -999.25      1.298    206.498     44.000
 1624.7364     39.274       -999.25      4.691     13.153    159.393    -999.25    -999.25   4004.993    -999.25    148.835    -999.25    -999.25       -999.25    -999.25    -999.25      1.298    206.498     44.000
 1624.8888     39.127       126.563      3.737     13.508    159.621    -999.25    156.000   4004.993    -999.25    148.579      0.000    -999.25       -999.25    -999.25      0.000      1.298    206.498     44.000
 1625.0412     39.256       -999.25      2.820     13.395    160.000     15.000    -999.25   4004.993   3007.813    147.622    -999.25      0.000         0.000      0.000    -999.25      1.298    206.567     44.000
 1625.1936     39.435       132.250      2.576     12.902    160.000    -999.25    -999.25   4004.993    -999.25    148.149    -999.25    -999.25       -999.25    -999.25    -999.25      1.298    206.567     44.000
 1625.3460     39.617       138.063      2.648     12.331    159.321    -999.25    158.000   4004.993    -999.25    148.368      0.000    -999.25       -999.25    -999.25      0.000      1.299    206.636     44.000
 1625.4984     39.761       -999.25      2.843     11.750    159.000    -999.25    -999.25   4004.993    -999.25    148.311    -999.25    -999.25       -999.25    -999.25    -999.25      1.298    206.636     44.000
 1625.6508     39.763       132.250      2.761     11.794    159.000     12.000    -999.25   4004.993   2968.750    147.615    -999.25      0.000         0.000      0.000    -999.25      1.299    206.705     44.000
 1625.8032     39.772       135.141      2.766     12.247    159.000    -999.25    -999.25   4004.993    -999.25    148.246    -999.25    -999.25       -999.25    -999.25    -999.25      1.300    206.843     44.000
 1625.9556     39.770       -999.25      2.902     12.036    159.000    -999.25    157.000   4004.993    -999.25    147.601      0.000    -999.25       -999.25    -999.25      0.000      1.299    206.774     44.000
 1626.1080     39.772       135.141      2.952     11.422    159.000    -999.25    -999.25   4004.993   2968.750    147.908    -999.25    -999.25       -999.25      0.000    -999.25      1.299    206.774     44.000
 1626.2604     39.951       141.016      2.863     11.578    159.000      9.000    -999.25   4004.993    -999.25    148.017    -999.25      0.000         0.000    -999.25    -999.25      1.299    206.843     44.000
 1626.4128     40.143       -999.25      2.755     12.801    159.000    -999.25    -999.25   4004.993    -999.25    148.391    -999.25    -999.25       -999.25    -999.25    -999.25      1.299    206.843     44.000
 1626.5652     40.141       123.766      2.672     12.297    159.000    -999.25    157.000   4004.993    -999.25    148.840      0.000    -999.25       -999.25    -999.25      0.000      1.299    206.843     45.000
 1626.7176     40.138       -999.25      2.868     12.701    159.000      9.000    -999.25   4004.993   3007.813    147.724    -999.25      0.000         0.000      0.000    -999.25      1.300    206.981     44.000
 1626.8700     40.138       135.141      3.260     11.966    159.000    -999.25    -999.25   4004.993    -999.25    148.977    -999.25    -999.25       -999.25    -999.25    -999.25      1.299    206.912     45.000
 1627.0224     40.141       135.141      3.395     11.982    159.000    -999.25    155.000   4004.993    -999.25    148.597      0.000    -999.25       -999.25    -999.25      0.000      1.299    206.981     44.000
 1627.1748     40.150       -999.25      3.161     12.322    159.000    -999.25    -999.25   4004.993    -999.25    148.220    -999.25    -999.25         0.000    -999.25    -999.25      1.300    207.050     45.000
 1627.3272     40.134       141.016      2.940     12.778    159.000     24.000    -999.25   4004.993   2968.750    148.588    -999.25      0.000       -999.25      0.000    -999.25      1.300    207.050     45.000
 1627.4796     40.143       141.016      2.918     13.258    159.000    -999.25    -999.25   4004.993    -999.25    148.292    -999.25    -999.25       -999.25    -999.25    -999.25      1.299    207.050     45.000
 1627.6320     40.138       138.063      3.101     12.977    159.000    -999.25    156.000   4004.993    -999.25    147.970      0.000    -999.25         0.000    -999.25      0.000      1.300    207.119     45.000
 1627.7844     40.143       -999.25      3.071     13.116    159.000    -999.25    -999.25   4004.993   2968.750    148.308    -999.25      0.000       -999.25      0.000    -999.25      1.300    207.188     45.000
 1627.9368     40.141       141.016      3.077     13.021    159.000     21.000    -999.25   4004.993    -999.25    148.387    -999.25    -999.25         0.000    -999.25    -999.25      1.300    207.188     45.000
 1628.0892     40.138       135.141      3.110     12.271    159.000    -999.25    158.000   4004.993    -999.25    148.183    -999.25    -999.25       -999.25    -999.25    -999.25      1.300    207.188     45.000
 1628.2416     40.150       -999.25      3.163     12.686    159.000    -999.25    -999.25   4004.993    -999.25    147.781      0.000    -999.25       -999.25    -999.25      0.000      1.300    207.256     45.000
 1628.3940     40.145       135.141      3.252     12.686    159.000     21.000    -999.25   4004.993   3007.813    148.297    -999.25      0.000         0.000      0.000    -999.25      1.300    207.256     45.000
 1628.5464     40.145       138.063      3.527     12.356    159.000    -999.25    -999.25   4004.993    -999.25    148.211    -999.25    -999.25       -999.25    -999.25    -999.25      1.299    207.188     45.000
 1628.6988     40.131       -999.25      3.848     12.704    159.000    -999.25    157.000   4004.993    -999.25    148.747      0.000    -999.25       -999.25    -999.25      0.000      1.300    207.256     45.000
 1628.8512     40.134       129.391      3.897     12.078    159.000    -999.25    -999.25   4004.993    -999.25    147.380    -999.25    -999.25         0.000    -999.25    -999.25      1.300    207.256     45.000
 1629.0036     40.136       129.391      3.915     13.409    159.000     33.000    -999.25   4004.993   2968.750    149.122    -999.25      0.000       -999.25      0.000    -999.25      1.300    207.256     45.000
