~Version Information
VERS.             2.0 : CWLS log ASCII standard - Version 2.0
WRAP.             NO  : One line per depth step
#
~Well Information Block
#MNEM.UNIT                   Data Type:Information
#__________________________________________________________
 STRT .M           2250.03360  :START INDEX                  
  STOP.M           2787.8532 : STOP INDEX                    
  STEP.M              0.1524 : STEP                          
  NULL.              -999.25 : NULL VALUE                    
  COMP.           StatoilHydro : COMPANY                       
  WELL.            15_9_F_14 : WELL                          
   FLD.                Volve : FIELD                         
   LOC.           Maersk Inspirer : LOCATION                      
  PROV.                      : PROVINCE                      
  CNTY.                      : COUNTY                        
  STAT.                      : STATE                         
  CTRY.                      : COUNTRY                       
  SRVC.              SLB D&M : SERVICE COMPANY               
  DATE.                      : LOG DATE                      
   UWI.                      : UNIQUE WELL ID                
   API.                      : API NUMBER                    
#
~Curve Information Block
#MNEM.UNIT                     : Curve Description
#---------                     --------------------
DEPT        .M                 : Bit Depth 2hz                                                   
ROP5        .M/HR              : 5ft ROP 2hz                                                     
ARC_GR_RT   .GAPI              : ARC Gamma Ray, Real-Time                                        
SWOB        .KKGF              : Surface Weight on Bit 2hz                                       
TQA         .KMN               : SRF STOR 2hz                                                    
Stick_RT    .RPM               : MWD PKtoPK RPM 2hz                                              
SPPA        .BAR               : SRF PUMPRS 2hz                                                  
TRPM_RT     .RPM               : MWD TUR_RPM 2hz                                                 
TFLO        .LPM               : HSPM Total Pump Flow 2hz                                        
RPM         .RPM               : SRF SRPM 2hz                                                    
CRPM_RT     .RPM               : MWD CRPM 2hz                                                    
SHKRSK_RT   .----              : MWD SHKRSK 2hz                                                  
SHK2_RT     .----              : ARC Shock Level, Real-Time                                      
ECD_ARC     .G/C3              : Equivalent Circulating Density                                  
APRS_ARC    .BAR               : ARC Annular Pressure                                            
ATMP        .DEGC              : ARC Annular Temperature                                         
SPM1        .----              : SRF SPM1 2hz                                                    
SPM2        .----              : SRF SPM2 2hz                                                    
SPM3        .----              : SRF SPM3 2hz                                                    
#
~Parameter Information Block
#MNEM.UNIT                       Value:Description
#__________________________________________________________
#
~Other Information Block

#
~A    DEPT       ROP5  ARC_GR_RT       SWOB        TQA   Stick_RT       SPPA    TRPM_RT       TFLO        RPM    CRPM_RT  SHKRSK_RT    SHK2_RT    ECD_ARC   APRS_ARC       ATMP       SPM1       SPM2       SPM3
# ...
 2529.3828    50.1130    -999.25    -1.0591    12.5413    -999.25   240.7684    -999.25  3561.2438   140.0000    -999.25    -999.25    -999.25     1.3370   329.9832    70.0000    65.0000    50.0000    45.0000
 2529.5352    50.1220    -999.25    -1.2961    11.4562    -999.25   241.0479    -999.25  3561.2438   139.2273    -999.25    -999.25    -999.25     1.3383   330.3280    70.0000    65.0000    50.0000    45.0000
 2529.6876    50.1130    -999.25    -0.6401    10.2264    -999.25   239.4599    -999.25  3561.2438   139.6364    -999.25    -999.25    -999.25     1.3368   329.9832    70.0000    65.0000    50.0000    45.0000
 2529.8400    50.1041    41.4051     0.4465     9.5866    -999.25   237.7196    -999.25  3561.2438   139.6818    -999.25    -999.25    -999.25     1.3393   330.6037    70.0000    65.0000    50.0000    45.0000
 2529.9924    50.1077    -999.25    -0.6381     9.6311    -999.25   236.4311    -999.25  3561.2438   139.0000    -999.25    -999.25    -999.25     1.3395   330.6727    70.0000    65.0000    50.0000    45.0000
 2530.1448    50.1041    -999.25    -1.4903    10.9825    -999.25   238.2118    -999.25  3561.2438   139.0000    -999.25    -999.25    -999.25     1.3377   330.2590    70.0000    65.0000    50.0000    45.0000
 2530.2972    50.1148    -999.25    -1.2622    11.0113    -999.25   240.9663  3671.8750  3561.2438   139.8182    -999.25    -999.25    -999.25     1.3385   330.4658    70.0000    65.0000    50.0000    45.0000
 2530.4496    50.1130    -999.25    -0.7436    10.0844    -999.25   238.6106    -999.25  3561.2438   140.0000    -999.25    -999.25    -999.25     1.3409   331.0864    70.0000    65.0000    50.0000    45.0000
 2530.6020    50.1202    -999.25    -0.8230     9.7662    -999.25   237.0277    -999.25  3561.2438   139.6190    -999.25    -999.25    -999.25     1.3406   331.0174    70.0000    65.0000    50.0000    45.0000
 2530.7544    50.1166    -999.25    -1.1413     9.9723    -999.25   236.8558    -999.25  3561.2438   139.0000    -999.25    -999.25    -999.25     1.3391   330.6727    70.0000    65.0000    50.0000    45.0000
 2530.9068    50.1148    -999.25    -0.9910    10.0416    -999.25   237.5286    -999.25  3561.2438   139.0000    -999.25    -999.25    -999.25     1.3404   331.0174    70.0000    65.0000    50.0000    45.0000
 2531.0592    50.1095    21.1251    -1.0392     9.2377    -999.25   237.3958    -999.25  3561.2438   139.9545    -999.25    -999.25    -999.25     1.3395   330.8106    70.0000    65.0000    50.0000    45.0000
 2531.2116    50.1059    -999.25    -0.9820     9.6422    -999.25   236.8591    -999.25  3561.2438   140.0000    -999.25    -999.25    -999.25     1.3397   330.8795    70.0000    65.0000    50.0000    45.0000
 2531.3640    50.1166    -999.25    -0.8657     9.5274    -999.25   237.3270    -999.25  3561.2438   139.4545    -999.25    -999.25    -999.25     1.3385   330.6037    70.0000    65.0000    50.0000    45.0000
 2531.5164    50.1184    -999.25    -1.1121     9.4096    -999.25   237.7576    -999.25  3561.2438   139.2727    -999.25    -999.25    -999.25     1.3387   330.6727    70.0000    65.0000    50.0000    45.0000
 2531.6688    50.1166    -999.25    -0.9227     9.6402    -999.25   237.5193    -999.25  3561.2438   140.0000    -999.25    -999.25    -999.25     1.3403   331.0864    70.0000    65.0000    50.0000    45.0000
 2531.8212    50.1023    -999.25    -0.9097     9.9483    -999.25   236.7057    -999.25  3561.2438   140.0000    -999.25    -999.25    -999.25     1.3391   330.8106    70.0000    65.0000    50.0000    45.0000
 2531.9736    50.1148    -999.25    -0.9154     9.3017    -999.25   237.5657    -999.25  3561.2438   140.0000    -999.25    -999.25    -999.25     1.3407   331.2243    70.0000    65.0000    50.0000    45.0000
 2532.1260    50.1059    -999.25    -0.9882     9.5272    -999.25   236.9752    -999.25  3561.2438   139.0000    -999.25    -999.25    -999.25     1.3409   331.2932    70.0000    65.0000    50.0000    45.0000
 2532.2784    50.1113    -999.25    -1.2075     9.5268    -999.25   236.3083    -999.25  3561.2438   139.9545    -999.25    -999.25    -999.25     1.3412   331.3622    70.0000    65.0000    50.0000    45.0000
 2532.4308    50.1291    -999.25    -1.2077     9.4342    -999.25   236.3608    -999.25  3561.2438   139.0909    -999.25    -999.25    -999.25     1.3411   331.3622    70.0000    65.0000    50.0000    45.0000
 2532.5832    50.1130    -999.25    -1.2205     8.7727    -999.25   236.5828    -999.25  3561.2438   139.7273    -999.25    -999.25    -999.25     1.3410   331.3622    70.0000    65.0000    50.0000    45.0000
 2532.7356    50.1166    46.6303    -1.3152     8.6725    -999.25   236.2848    -999.25  3561.2438   140.0000    -999.25    -999.25    -999.25     1.3409   331.3622    70.0000    65.0000    50.0000    45.0000
 2532.8880    50.1130    -999.25    -1.2126     8.9095    -999.25   235.6072    -999.25  3561.2438   139.7727    -999.25    -999.25    -999.25     1.3409   331.3622    70.0000    65.0000    50.0000    45.0000
 2533.0404    50.1041    -999.25    -1.2642     9.0054    -999.25   235.1605    -999.25  3561.2438   139.0000    -999.25    -999.25    -999.25     1.3405   331.2932    70.0000    65.0000    50.0000    45.0000
 2533.1928    50.1095    43.1124    -1.2705     8.1251    -999.25   235.9956    -999.25  3561.2438   139.0000    -999.25    -999.25    -999.25     1.3410   331.4311    70.0000    65.0000    50.0000    45.0000
 2533.3452    50.1166    -999.25    -1.4111     8.9398    -999.25   236.1264    -999.25  3561.2438   139.8182    -999.25    -999.25    -999.25     1.3406   331.3622    70.0000    65.0000    50.0000    45.0000
 2533.4976    50.1148    -999.25    -1.4692     9.0523    -999.25   235.6382    -999.25  3561.2438   139.4762    -999.25    -999.25    -999.25     1.3408   331.4311    70.0000    65.0000    50.0000    45.0000
 2533.6500    50.1130    38.0941    -1.5298     8.8606    -999.25   235.0520    -999.25  3561.2438   139.3182    -999.25    -999.25    -999.25     1.3408   331.4311    70.0000    65.0000    50.0000    45.0000
 2533.8024    50.1130    -999.25    -1.5339     8.6014    -999.25   234.7864    -999.25  3561.2438   140.0000    -999.25    -999.25    -999.25     1.3410   331.5001    70.0000    65.0000    50.0000    45.0000
 2533.9548    50.0880    -999.25    -1.4784     8.3256    -999.25   236.0199    -999.25  3561.2438   140.0000    -999.25    -999.25    -999.25     1.3409   331.5001    70.0000    65.0000    50.0000    45.0000
 2534.1072    50.1095    -999.25    -1.4109     9.0462    -999.25   235.2814    -999.25  3561.2438   139.1818    -999.25    -999.25    -999.25     1.3408   331.5001    70.0000    65.0000    50.0000    45.0000
 2534.2596    50.1095    -999.25    -1.2811     8.8940    -999.25   235.2606    -999.25  3561.2438   139.5455    -999.25    -999.25    -999.25     1.3407   331.5001    70.0000    65.0000    50.0000    45.0000
 2534.4120    50.1041    39.7323    -1.4070     8.8508    -999.25   235.5899    -999.25  3561.2438   139.5909    -999.25    -999.25    -999.25     1.3410   331.5690    70.0000    65.0000    50.0000    45.0000
 2534.5644    50.1184    -999.25    -1.4318     9.1240    -999.25   235.8712    -999.25  3561.2438   139.1364    -999.25    -999.25    -999.25     1.3409   331.5690    70.0000    65.0000    50.0000    45.0000
 2534.7168    50.1148    -999.25    -1.5138     8.8692    -999.25   235.7324    -999.25  3561.2438   140.0000    -999.25    -999.25    -999.25     1.3408   331.5690    70.0000    65.0000    50.0000    45.0000
 2534.8692    50.1148    46.6303     6.4416     8.3156    -999.25   236.1130    -999.25  3561.2438   139.0455    -999.25    -999.25    -999.25     1.3407   331.5690    70.0000    65.0000    50.0000    45.0000
 2535.0216    50.1345    -999.25     6.5391     8.4073    -999.25   236.2902    -999.25  3561.2438   139.7143    -999.25    -999.25    -999.25     1.3409   331.6380    70.0000    65.0000    50.0000    45.0000
 2535.1740    50.1148    -999.25     6.4107     8.4881    -999.25   235.8960    -999.25  3561.2438   140.0000    -999.25    -999.25    -999.25     1.3411   331.7069    70.0000    65.0000    50.0000    45.0000
