~Version Information
VERS.             2.0 : CWLS log ASCII standard - Version 2.0
WRAP.             NO  : One line per depth step
#
~Well Information Block
#MNEM.UNIT                   Data Type:Information
#__________________________________________________________
 STRT .M           2250.03360  :START INDEX                  
  STOP.M           2787.8532 : STOP INDEX                    
  STEP.M              0.1524 : STEP                          
  NULL.              -999.25 : NULL VALUE                    
  COMP.           StatoilHydro : COMPANY                       
  WELL.            15_9_F_14 : WELL                          
   FLD.                Volve : FIELD                         
   LOC.           Maersk Inspirer : LOCATION                      
  PROV.                      : PROVINCE                      
  CNTY.                      : COUNTY                        
  STAT.                      : STATE                         
  CTRY.                      : COUNTRY                       
  SRVC.              SLB D&M : SERVICE COMPANY               
  DATE.                      : LOG DATE                      
   UWI.                      : UNIQUE WELL ID                
   API.                      : API NUMBER                    
#
~Curve Information Block
#MNEM.UNIT                     : Curve Description
#---------                     --------------------
DEPT        .M                 : Bit Depth 2hz                                                   
ROP5        .M/HR              : 5ft ROP 2hz                                                     
ARC_GR_RT   .GAPI              : ARC Gamma Ray, Real-Time                                        
SWOB        .KKGF              : Surface Weight on Bit 2hz                                       
TQA         .KMN               : SRF STOR 2hz                                                    
Stick_RT    .RPM               : MWD PKtoPK RPM 2hz                                              
SPPA        .BAR               : SRF PUMPRS 2hz                                                  
TRPM_RT     .RPM               : MWD TUR_RPM 2hz                                                 
TFLO        .LPM               : HSPM Total Pump Flow 2hz                                        
RPM         .RPM               : SRF SRPM 2hz                                                    
CRPM_RT     .RPM               : MWD CRPM 2hz                                                    
SHKRSK_RT   .----              : MWD SHKRSK 2hz                                                  
SHK2_RT     .----              : ARC Shock Level, Real-Time                                      
ECD_ARC     .G/C3              : Equivalent Circulating Density                                  
APRS_ARC    .BAR               : ARC Annular Pressure                                            
ATMP        .DEGC              : ARC Annular Temperature                                         
SPM1        .----              : SRF SPM1 2hz                                                    
SPM2        .----              : SRF SPM2 2hz                                                    
SPM3        .----              : SRF SPM3 2hz                                                    
#
~Parameter Information Block
#MNEM.UNIT                       Value:Description
#__________________________________________________________
#
~Other Information Block

#
~A    DEPT       ROP5  ARC_GR_RT       SWOB        TQA   Stick_RT       SPPA    TRPM_RT       TFLO        RPM    CRPM_RT  SHKRSK_RT    SHK2_RT    ECD_ARC   APRS_ARC       ATMP       SPM1       SPM2       SPM3
# ...
 2428.3416    25.9304    -999.25     0.7158     8.7402    -999.25   229.2037    -999.25  3561.2438   139.5676    -999.25    -999.25    -999.25     1.3319   316.2626    66.0000    65.0000    50.0000    45.0000
 2428.4940    25.9347    -999.25     0.6057     9.2502    -999.25   230.3925    -999.25  3561.2438   139.6945    -999.25     0.0000    -999.25     1.3321   316.3316    66.0000    65.0000    50.0000    45.0000
 2428.6464    25.9347    -999.25     0.3625     9.5181    15.0000   230.7281    -999.25  3561.2438   139.2973   137.0000    -999.25     0.0000     1.3321   316.3316    66.0000    65.0000    50.0000    45.0000
 2428.7988    25.9376    -999.25     0.4616     9.3402    -999.25   230.6464    -999.25  3561.2438   139.5135    -999.25    -999.25    -999.25     1.3314   316.1937    66.0000    65.0000    50.0000    45.0000
 2428.9512    25.9337    -999.25     0.4992     8.8769    -999.25   230.0357  2617.1875  3561.2438   139.7838    -999.25     0.0000    -999.25     1.3319   316.3316    66.0000    65.0000    50.0000    45.0000
 2429.1036    25.9404    -999.25     0.3653     8.7600    -999.25   230.2831    -999.25  3561.2438   140.0000   137.0000    -999.25     0.0000     1.3321   316.4005    66.0000    65.0000    50.0000    45.0000
 2429.2560    25.9347    -999.25     0.4479     8.9168     9.0000   230.0824    -999.25  3561.2438   139.4865    -999.25    -999.25    -999.25     1.3323   316.4695    66.0000    65.0000    50.0000    45.0000
 2429.4084    25.9337    -999.25     0.2265     9.7163    -999.25   229.5143    -999.25  3561.2438   139.0000    -999.25     0.0000    -999.25     1.3322   316.4695    66.0000    65.0000    50.0000    45.0000
 2429.5608    28.3004    -999.25     0.6142     8.8410    -999.25   230.4875    -999.25  3561.2438   139.0000   137.0000    -999.25    -999.25     1.3322   316.4695    66.0000    65.0000    50.0000    45.0000
 2429.7132    29.8370    -999.25     0.5129     8.8480    12.0000   230.2742    -999.25  3561.2438   139.6216    -999.25    -999.25     0.0000     1.3321   316.4695    66.0000    65.0000    50.0000    45.0000
 2429.8656    29.8370    -999.25     0.8148     9.4163    -999.25   229.4195    -999.25  3561.2438   139.8889    -999.25    -999.25    -999.25     1.3323   316.5384    66.0000    65.0000    50.0000    45.0000
 2430.0180    29.8351    -999.25     0.9588     9.6346    -999.25   230.2676  2617.1875  3561.2438   139.0000    -999.25     0.0000    -999.25     1.3319   316.4695    66.0000    65.0000    50.0000    45.0000
 2430.1704    29.8364    -999.25     2.1911     9.5616     9.0000   230.6940    -999.25  3561.2438   139.0000   135.0000    -999.25     0.0000     1.3321   316.5384    66.0000    65.0000    50.0000    45.0000
 2430.3228    29.8326    -999.25     2.2744     9.9028    -999.25   231.0747    -999.25  3561.2438   139.0000    -999.25    -999.25    -999.25     1.3318   316.4695    66.0000    65.0000    50.0000    45.0000
 2430.4752    29.6475    -999.25     3.7925    10.1051    -999.25   231.4355  2617.1875  3561.2438   139.5384    -999.25     0.0000    -999.25     1.3317   316.4695    66.0000    65.0000    50.0000    45.0000
 2430.6276    29.6287    -999.25     2.8900    11.2022    12.0000   232.8298    -999.25  3561.2438   140.0000   138.0000    -999.25     0.0000     1.3313   316.4005    66.0000    65.0000    50.0000    45.0000
 2430.7800    29.6281    -999.25     1.2278    11.2811    -999.25   235.0850    -999.25  3561.2438   140.0000    -999.25    -999.25    -999.25     1.3318   316.5384    66.0000    65.0000    50.0000    45.0000
 2430.9324    29.6299    -999.25     1.7148    10.6622    -999.25   232.9209  2617.1875  3561.2438   140.6111    -999.25     0.0000    -999.25     1.3329   316.8142    66.0000    65.0000    50.0000    45.0000
 2431.0848    29.6299    -999.25     1.8380    10.6596    -999.25   232.6516    -999.25  3561.2438   139.5946   136.0000    -999.25    -999.25     1.3319   316.6074    66.0000    65.0000    50.0000    45.0000
 2431.2372    29.6287    -999.25     1.5042    10.2642    42.0000   232.0037    -999.25  3561.2438   139.3243    -999.25    -999.25     0.0000     1.3319   316.6074    66.0000    65.0000    50.0000    45.0000
 2431.3896    29.6343    -999.25     1.3650    11.0446    -999.25   232.7109  2617.1875  3561.2438   139.4054    -999.25    -999.25    -999.25     1.3315   316.5384    67.0000    65.0000    50.0000    45.0000
 2431.5420    29.6299    -999.25     1.1893    10.4308    -999.25   232.1060    -999.25  3561.2438   139.2973   143.0000    -999.25    -999.25     1.3326   316.8142    67.0000    65.0000    50.0000    45.0000
 2431.6944    29.6287    -999.25     1.3867    10.0898    12.0000   232.2186    -999.25  3561.2438   139.6944    -999.25    -999.25     0.0000     1.3322   316.7453    67.0000    65.0000    50.0000    45.0000
 2431.8468    29.6318    -999.25     0.8411     9.7776    -999.25   231.7003    -999.25  3561.2438   139.0000    -999.25    -999.25    -999.25     1.3318   316.6763    67.0000    65.0000    50.0000    45.0000
 2431.9992    29.8174    -999.25     1.7760     9.8451    -999.25   220.4255    -999.25  3264.1116   139.7838    -999.25    -999.25    -999.25     1.3317   316.6763    67.0000    51.6757    50.0000    45.0000
 2432.1516    29.8364    -999.25     1.4208    10.3539    -999.25   199.2073    -999.25  3231.5665   139.2973    -999.25    -999.25    -999.25     1.3317   316.6763    67.0000    53.5946    50.0000    45.0000
 2432.3040    29.8427     3.8801     1.8949    10.9582    -999.25   206.2319    -999.25  3338.2443   139.5000    -999.25    -999.25    -999.25     1.3322   316.8142    67.0000    47.5000    50.0000    45.0000
 2432.4564    29.8351    82.1032     2.3205    10.5875    -999.25   194.4852    -999.25  3311.1226   139.0811    -999.25    -999.25    -999.25     1.3324   316.8832    67.0000    51.0270    50.0000    45.0000
 2432.6088    29.8421    89.3978     1.1290    10.7773    -999.25   199.6748    -999.25  3378.6255   140.0000    -999.25    -999.25    -999.25     1.3323   316.8832    67.0000    54.5405    50.0000    45.0000
 2432.7612    29.8370    84.5002     1.3978    10.5540    -999.25   203.0041    -999.25  3494.3440   139.4054    -999.25    -999.25    -999.25     1.3325   316.9521    67.0000    48.9189    50.0000    45.0000
 2432.9136    29.8389    89.3978     1.5169    10.4783    -999.25   197.2606    -999.25  3381.6055   139.8889    -999.25    -999.25    -999.25     1.3324   316.9521    67.0000    54.5556    50.0000    45.0000
 2433.0660    29.8231    79.7406     2.8179    10.0442    -999.25   217.5351    -999.25  3443.1146   139.5946    -999.25    -999.25    -999.25     1.3300   316.4005    63.0000    56.8649    50.0000    45.0000
 2433.2184    29.8092    82.1032     2.3992    10.6161    -999.25   216.0236    -999.25  3537.7384   139.6757    -999.25    -999.25    -999.25     1.3299   316.4005    63.0000    62.6487    50.0000    45.0000
 2433.3708    29.8142    84.5002     1.7427    12.3998    -999.25   209.1375    -999.25  3125.4908   139.1892    -999.25    -999.25    -999.25     1.3299   316.4005    63.0000    47.5676    50.0000    45.0000
 2433.5232    29.8142    97.0028     1.4579    11.0150    -999.25   207.3340    -999.25  3267.1251   140.0000    -999.25    -999.25    -999.25     1.3295   316.3316    63.0000    58.4865    50.0000    45.0000
 2433.6756    29.8098    91.8983     1.4076    10.4167    -999.25   213.3041    -999.25  3424.4306   139.2702    -999.25    -999.25    -999.25     1.3297   316.4005    63.0000    61.5676    50.0000    45.0000
 2433.8280    29.8117    77.4125     1.2471    10.0789    -999.25   211.2510    -999.25  3226.7444   139.0000    -999.25    -999.25    -999.25     1.3296   316.4005    63.0000    53.7500    50.0000    45.0000
 2433.9804    29.8174    66.2896     0.6797    10.8632    -999.25   226.4125    -999.25  3434.6765   139.0000    -999.25     0.0000    -999.25     1.3295   316.4005    63.0000    65.0000    50.0000    45.0000
 2434.1328    29.8104    70.6353     0.3996     9.9370    -999.25   230.4332    -999.25  3561.2438   139.7567    -999.25    -999.25     0.0000     1.3289   316.2626    63.0000    65.0000    50.0000    45.0000
