~Version Information
VERS.             2.0 : CWLS log ASCII standard - Version 2.0
WRAP.             NO  : One line per depth step
#
~Well Information Block
#MNEM.UNIT                   Data Type:Information
#__________________________________________________________
 STRT .M           2250.03360  :START INDEX                  
  STOP.M           2787.8532 : STOP INDEX                    
  STEP.M              0.1524 : STEP                          
  NULL.              -999.25 : NULL VALUE                    
  COMP.           StatoilHydro : COMPANY                       
  WELL.            15_9_F_14 : WELL                          
   FLD.                Volve : FIELD                         
   LOC.           Maersk Inspirer : LOCATION                      
  PROV.                      : PROVINCE                      
  CNTY.                      : COUNTY                        
  STAT.                      : STATE                         
  CTRY.                      : COUNTRY                       
  SRVC.              SLB D&M : SERVICE COMPANY               
  DATE.                      : LOG DATE                      
   UWI.                      : UNIQUE WELL ID                
   API.                      : API NUMBER                    
#
~Curve Information Block
#MNEM.UNIT                     : Curve Description
#---------                     --------------------
DEPT        .M                 : Bit Depth 2hz                                                   
ROP5        .M/HR              : 5ft ROP 2hz                                                     
ARC_GR_RT   .GAPI              : ARC Gamma Ray, Real-Time                                        
SWOB        .KKGF              : Surface Weight on Bit 2hz                                       
TQA         .KMN               : SRF STOR 2hz                                                    
Stick_RT    .RPM               : MWD PKtoPK RPM 2hz                                              
SPPA        .BAR               : SRF PUMPRS 2hz                                                  
TRPM_RT     .RPM               : MWD TUR_RPM 2hz                                                 
TFLO        .LPM               : HSPM Total Pump Flow 2hz                                        
RPM         .RPM               : SRF SRPM 2hz                                                    
CRPM_RT     .RPM               : MWD CRPM 2hz                                                    
SHKRSK_RT   .----              : MWD SHKRSK 2hz                                                  
SHK2_RT     .----              : ARC Shock Level, Real-Time                                      
ECD_ARC     .G/C3              : Equivalent Circulating Density                                  
APRS_ARC    .BAR               : ARC Annular Pressure                                            
ATMP        .DEGC              : ARC Annular Temperature                                         
SPM1        .----              : SRF SPM1 2hz                                                    
SPM2        .----              : SRF SPM2 2hz                                                    
SPM3        .----              : SRF SPM3 2hz                                                    
#
~Parameter Information Block
#MNEM.UNIT                       Value:Description
#__________________________________________________________
#
~Other Information Block

#
~A    DEPT       ROP5  ARC_GR_RT       SWOB        TQA   Stick_RT       SPPA    TRPM_RT       TFLO        RPM    CRPM_RT  SHKRSK_RT    SHK2_RT    ECD_ARC   APRS_ARC       ATMP       SPM1       SPM2       SPM3
# ...
 2392.6800    24.1457    99.6068     1.4437     9.0859    -999.25   231.9906    -999.25  3562.7440   119.0000    -999.25    -999.25    -999.25     1.3244   309.9884    61.0000    75.0000    50.0000    35.0000
 2392.8324    24.1540   104.9182     1.0102     8.2960    24.0000   231.8362    -999.25  3562.7440   119.4773   116.0000    -999.25     0.0000     1.3243   309.9884    61.0000    75.0000    50.0000    35.0000
 2392.9848    24.1534    -999.25     1.3392     9.0864    -999.25   231.2546    -999.25  3562.7440   119.1628    -999.25    -999.25    -999.25     1.3248   310.1263    61.0000    75.0000    50.0000    35.0000
 2393.1372    24.1463    97.0028     1.4204     9.5844    -999.25   231.2090  2617.1875  3562.7440   119.0000    -999.25     0.0000    -999.25     1.3244   310.0574    61.0000    75.0000    50.0000    35.0000
 2393.2896    24.1525   110.3676     1.7702    10.7129    12.0000   230.8494    -999.25  3562.7440   119.0000    -999.25    -999.25     0.0000     1.3246   310.1263    61.0000    75.0000    50.0000    35.0000
 2393.4420    24.2736    -999.25     1.6722     9.6722    -999.25   231.1640    -999.25  3562.7440   119.0000    -999.25    -999.25    -999.25     1.3245   310.1263    61.0000    75.0000    50.0000    35.0000
 2393.5944    24.2990   104.9182     1.5138     8.6202    -999.25   231.5162    -999.25  3562.7440   119.0000   117.0000    -999.25    -999.25     1.3245   310.1263    61.0000    75.0000    50.0000    35.0000
 2393.7468    24.9910    -999.25     1.4765     7.4394    -999.25   231.6926    -999.25  3562.7440   119.0000    -999.25    -999.25     0.0000     1.3244   310.1263    62.0000    75.0000    50.0000    35.0000
 2393.8992    24.9883   107.6257     1.5050     8.6522    -999.25   231.3150    -999.25  3562.7440   119.2500    -999.25    -999.25    -999.25     1.3246   310.1953    62.0000    75.0000    50.0000    35.0000
 2394.0516    24.9850   113.1441     1.4593     9.9353    21.0000   231.6244    -999.25  3562.7440   119.7273   116.0000    -999.25     0.0000     1.3251   310.3331    62.0000    75.0000    50.0000    35.0000
 2394.2040    24.9894    -999.25     1.2807    10.9442    -999.25   231.3239    -999.25  3562.7440   119.0000    -999.25    -999.25    -999.25     1.3250   310.3331    62.0000    75.0000    50.0000    35.0000
 2394.3564    24.9870   102.2453     1.2280    10.0176    -999.25   231.3338    -999.25  3562.7440   119.0000    -999.25    -999.25    -999.25     1.3246   310.2642    62.0000    75.0000    50.0000    35.0000
 2394.5088    24.9825   107.6257     1.4611     8.3996    -999.25   231.0208    -999.25  3562.7440   119.6363    -999.25    -999.25    -999.25     1.3246   310.2642    62.0000    75.0000    50.0000    35.0000
 2394.6612    24.9925    -999.25     1.7972     7.8220    -999.25   230.8046    -999.25  3562.7440   119.5909    -999.25    -999.25    -999.25     1.3248   310.3331    62.0000    75.0000    50.0000    35.0000
 2394.8136    24.9890   107.6257     1.3396     9.2028    -999.25   230.5914    -999.25  3562.7440   120.0000    -999.25    -999.25    -999.25     1.3247   310.3331    62.0000    75.0000    50.0000    35.0000
 2394.9660    24.9881    -999.25     1.2510     9.8415    -999.25   230.5539    -999.25  3562.7440   119.7727    -999.25    -999.25    -999.25     1.3249   310.4021    62.0000    75.0000    50.0000    35.0000
 2395.1184    24.9881    99.6068     0.9140    10.1423    -999.25   230.7968    -999.25  3562.7440   119.6818    -999.25    -999.25    -999.25     1.3248   310.4021    62.0000    75.0000    50.0000    35.0000
 2395.2708    24.9870    -999.25     1.0802     9.0355    -999.25   229.4787    -999.25  3562.7440   119.5227    -999.25    -999.25    -999.25     1.3253   310.5400    62.0000    75.0000    50.0000    35.0000
 2395.4232    24.9892    99.6068     1.6285     7.7300    -999.25   230.0115    -999.25  3562.7440   119.2045    -999.25    -999.25    -999.25     1.3249   310.4710    63.0000    75.0000    50.0000    35.0000
 2395.5756    24.9892    89.3978     2.0985     7.2866    -999.25   230.7806    -999.25  3562.7440   119.4091    -999.25    -999.25    -999.25     1.3252   310.5400    63.0000    75.0000    50.0000    35.0000
 2395.7280    24.9837    -999.25     2.9423     9.1387    -999.25   231.3995    -999.25  3562.7440   119.0000    -999.25    -999.25    -999.25     1.3251   310.5400    63.0000    75.0000    50.0000    35.0000
 2395.8804    24.9837    86.9317     1.8021    11.1715    -999.25   232.8328    -999.25  3562.7440   119.1591    -999.25    -999.25    -999.25     1.3253   310.6089    63.0000    75.0000    50.0000    35.0000
 2396.0328    24.9856    82.1032     1.8589    11.9002    -999.25   232.6990    -999.25  3562.7440   119.8864    -999.25    -999.25    -999.25     1.3255   310.6779    63.0000    75.0000    50.0000    35.0000
 2396.1852    24.9841    -999.25     1.6942    10.7434    -999.25   231.5790    -999.25  3562.7440   119.5000    -999.25    -999.25    -999.25     1.3254   310.6779    63.0000    75.0000    50.0000    35.0000
 2396.3376    24.9870   113.1441     1.7226     9.0879    -999.25   232.5639    -999.25  3562.7440   119.3636    -999.25    -999.25    -999.25     1.3256   310.7468    63.0000    75.0000    50.0000    35.0000
 2396.4900    24.9830    -999.25     1.4330     8.3906    -999.25   231.9229    -999.25  3562.7440   120.0000    -999.25    -999.25    -999.25     1.3255   310.7468    63.0000    75.0000    50.0000    35.0000
 2396.6424    24.9905    79.7406     2.8995     9.1405    -999.25   231.7276    -999.25  3562.7440   120.0000    -999.25    -999.25    -999.25     1.3258   310.8158    63.0000    75.0000    50.0000    35.0000
 2396.7948    24.9823    -999.25     1.4294    10.2776    -999.25   231.8837    -999.25  3562.7440   120.0000    -999.25    -999.25    -999.25     1.3257   310.8158    63.0000    75.0000    50.0000    35.0000
 2396.9472    24.9839    84.5002     1.3820    11.4884    -999.25   232.6588    -999.25  3562.7440   119.9318    -999.25    -999.25    -999.25     1.3259   310.8847    63.0000    75.0000    50.0000    35.0000
 2397.0996    24.9817    89.3978     1.5514     9.9516    -999.25   231.3181    -999.25  3562.7440   119.5909    -999.25    -999.25    -999.25     1.3261   310.9537    63.0000    75.0000    50.0000    35.0000
 2397.2520    24.9885    -999.25     1.3837     8.0386    -999.25   230.6080    -999.25  3562.7440   120.0000    -999.25    -999.25    -999.25     1.3254   310.8158    63.0000    75.0000    50.0000    35.0000
 2397.4044    24.9863    94.4333     1.6958     7.7970    -999.25   230.8952    -999.25  3562.7440   119.8864    -999.25    -999.25    -999.25     1.3259   310.9537    63.0000    75.0000    50.0000    35.0000
 2397.5568    24.9908    89.3978     1.4640     9.0892    15.0000   232.0826    -999.25  3562.7440   119.4773    -999.25    -999.25     0.0000     1.3256   310.8847    63.0000    75.0000    50.0000    35.0000
 2397.7092    24.9828    -999.25     2.2958    10.0701    -999.25   231.5670    -999.25  3562.7440   119.3636    -999.25    -999.25    -999.25     1.3255   310.8847    63.0000    75.0000    50.0000    35.0000
 2397.8616    24.9852    91.8983     1.7384    11.3070    -999.25   232.2966    -999.25  3562.7440   120.0000    -999.25    -999.25    -999.25     1.3257   310.9537    64.0000    75.0000    50.0000    35.0000
 2398.0140    24.9899    -999.25     1.8738    10.7493    -999.25   232.3347    -999.25  3562.7440   120.0000    -999.25    -999.25    -999.25     1.3259   311.0226    64.0000    75.0000    50.0000    35.0000
 2398.1664    24.9877    -999.25     1.7244     9.2205    -999.25   232.5721    -999.25  3562.7440   119.4091    -999.25    -999.25    -999.25     1.3258   311.0226    64.0000    75.0000    50.0000    35.0000
 2398.3188    24.9950    77.4125     1.6989     9.2602    60.0000   232.7814    -999.25  3562.7440   119.4186   119.0000    -999.25     3.0000     1.3263   311.1605    64.0000    75.0000    50.0000    35.0000
 2398.4712    24.9923    -999.25     1.7566    10.1699    -999.25   233.1419    -999.25  3562.7440   119.6818    -999.25    -999.25    -999.25     1.3262   311.1605    64.0000    75.0000    50.0000    35.0000
