~Version Information
VERS.             2.0 : CWLS log ASCII standard - Version 2.0
WRAP.             NO  : One line per depth step
#
~Well Information Block
#MNEM.UNIT                   Data Type:Information
#__________________________________________________________
 STRT .M           2250.03360  :START INDEX                  
  STOP.M           2787.8532 : STOP INDEX                    
  STEP.M              0.1524 : STEP                          
  NULL.              -999.25 : NULL VALUE                    
  COMP.           StatoilHydro : COMPANY                       
  WELL.            15_9_F_14 : WELL                          
   FLD.                Volve : FIELD                         
   LOC.           Maersk Inspirer : LOCATION                      
  PROV.                      : PROVINCE                      
  CNTY.                      : COUNTY                        
  STAT.                      : STATE                         
  CTRY.                      : COUNTRY                       
  SRVC.              SLB D&M : SERVICE COMPANY               
  DATE.                      : LOG DATE                      
   UWI.                      : UNIQUE WELL ID                
   API.                      : API NUMBER                    
#
~Curve Information Block
#MNEM.UNIT                     : Curve Description
#---------                     --------------------
DEPT        .M                 : Bit Depth 2hz                                                   
ROP5        .M/HR              : 5ft ROP 2hz                                                     
ARC_GR_RT   .GAPI              : ARC Gamma Ray, Real-Time                                        
SWOB        .KKGF              : Surface Weight on Bit 2hz                                       
TQA         .KMN               : SRF STOR 2hz                                                    
Stick_RT    .RPM               : MWD PKtoPK RPM 2hz                                              
SPPA        .BAR               : SRF PUMPRS 2hz                                                  
TRPM_RT     .RPM               : MWD TUR_RPM 2hz                                                 
TFLO        .LPM               : HSPM Total Pump Flow 2hz                                        
RPM         .RPM               : SRF SRPM 2hz                                                    
CRPM_RT     .RPM               : MWD CRPM 2hz                                                    
SHKRSK_RT   .----              : MWD SHKRSK 2hz                                                  
SHK2_RT     .----              : ARC Shock Level, Real-Time                                      
ECD_ARC     .G/C3              : Equivalent Circulating Density                                  
APRS_ARC    .BAR               : ARC Annular Pressure                                            
ATMP        .DEGC              : ARC Annular Temperature                                         
SPM1        .----              : SRF SPM1 2hz                                                    
SPM2        .----              : SRF SPM2 2hz                                                    
SPM3        .----              : SRF SPM3 2hz                                                    
#
~Parameter Information Block
#MNEM.UNIT                       Value:Description
#__________________________________________________________
#
~Other Information Block

#
~A    DEPT       ROP5  ARC_GR_RT       SWOB        TQA   Stick_RT       SPPA    TRPM_RT       TFLO        RPM    CRPM_RT  SHKRSK_RT    SHK2_RT    ECD_ARC   APRS_ARC       ATMP       SPM1       SPM2       SPM3
# ...
 2707.6908    15.0232    21.1251    15.1081    16.0982   258.0000   234.2814    -999.25  3567.9939   153.9866    87.0000    -999.25     0.0000     1.3396   350.3917    83.0000    75.0000    85.0000     0.0000
 2707.8432    15.3305    -999.25    14.9172    14.9416   264.0000   233.6520  2617.1875  3567.9939   154.7250   180.0000     0.0000     0.0000     1.3393   350.3228    83.0000    75.0000    85.0000     0.0000
 2707.9956    15.1124    16.5724    14.7816    15.2711    -999.25   233.0614  2578.1250  3567.9939   154.0000    -999.25    -999.25    -999.25     1.3387   350.1849    83.0000    75.0000    85.0000     0.0000
 2708.1480    14.7332    -999.25    14.8006    18.1455    -999.25   233.9502    -999.25  3567.9939   153.9651    74.0000     0.0000     0.0000     1.3392   350.3228    83.0000    75.0000    85.0000     0.0000
 2708.3004    14.6106    21.1251    15.3069    17.9541    -999.25   234.0618    -999.25  3567.9939   154.3733    -999.25    -999.25    -999.25     1.3394   350.3917    83.0000    75.0000    85.0000     0.0000
 2708.4528    14.6310    -999.25    15.3122    15.3538    -999.25   233.3610    -999.25  3567.9939   153.9872    -999.25    -999.25    -999.25     1.3396   350.4607    83.0000    75.0000    85.0000     0.0000
 2708.6052    14.4590    -999.25    15.0567    17.5638    -999.25   233.7231    -999.25  3567.9939   155.3247    -999.25    -999.25     3.0000     1.3398   350.5296    83.0000    75.0000    85.0000     0.0000
 2708.7576    14.3462    14.5030    15.3212    17.8363    -999.25   234.0188    -999.25  3567.9939   154.0548    -999.25    -999.25    -999.25     1.3395   350.4607    83.0000    75.0000    85.0000     0.0000
 2708.9100    14.1679    -999.25    15.6158    17.5628    -999.25   233.5622    -999.25  3567.9939   154.7105   196.0000    -999.25    -999.25     1.3391   350.3917    83.0000    75.0000    85.0000     0.0000
 2709.0624    13.8899    19.9352    15.3789    15.6459    -999.25   233.4627    -999.25  3567.9939   154.5000    -999.25    -999.25    -999.25     1.3401   350.6675    83.0000    75.0000    85.0000     0.0000
 2709.2148    13.7310    -999.25    15.5735    15.7595    -999.25   232.8375    -999.25  3567.9939   153.6667    -999.25    -999.25    -999.25     1.3403   350.7364    83.0000    75.0000    85.0000     0.0000
 2709.3672    13.6480    18.7797    15.1062    18.0896    -999.25   232.9407    -999.25  3567.9939   154.6823    -999.25    -999.25    -999.25     1.3405   350.8054    83.0000    75.0000    85.0000     0.0000
 2709.5196    13.8033    -999.25    15.4084    16.1713    -999.25   233.2529    -999.25  3567.9939   154.8312    -999.25    -999.25    -999.25     1.3397   350.5985    83.0000    75.0000    85.0000     0.0000
 2709.6720    13.8926    16.5724    15.5081    16.5227    -999.25   233.2281    -999.25  3567.9939   154.3333    -999.25    -999.25    -999.25     1.3394   350.5296    83.0000    75.0000    85.0000     0.0000
 2709.8244    13.8373    -999.25    15.1775    17.4274    -999.25   233.0177    -999.25  3567.9939   154.8846    -999.25    -999.25    -999.25     1.3401   350.7364    83.0000    75.0000    85.0000     0.0000
 2709.9768    13.8548    -999.25    15.2318    16.4893    -999.25   233.3330    -999.25  3567.9939   154.9221    -999.25    -999.25    -999.25     1.3411   351.0122    83.0000    75.0000    85.0000     0.0000
 2710.1292    13.9218    18.7797    15.2540    16.5493    -999.25   233.6535    -999.25  3567.9939   154.0274    -999.25    -999.25    -999.25     1.3408   350.9433    83.0000    75.0000    85.0000     0.0000
 2710.2816    13.7782    -999.25    15.8063    17.2042    -999.25   233.4984    -999.25  3567.9939   155.3580    -999.25    -999.25    -999.25     1.3399   350.7364    83.0000    75.0000    85.0000     0.0000
 2710.4340    13.6335    17.6588    15.7841    16.6328    -999.25   234.2071    -999.25  3567.9939   154.4117    -999.25    -999.25    -999.25     1.3399   350.7364    83.0000    75.0000    85.0000     0.0000
 2710.5864    13.5862    -999.25    15.8735    18.8958    -999.25   233.4690    -999.25  3567.9939   155.1494    -999.25    -999.25    -999.25     1.3403   350.8743    83.0000    75.0000    85.0000     0.0000
 2710.7388    13.5721    17.6588    15.7173    17.8968    -999.25   234.4744    -999.25  3567.9939   155.2000    -999.25    -999.25    -999.25     1.3413   351.1501    83.0000    75.0000    85.0000     0.0000
 2710.8912    13.6150    -999.25    15.5109    16.6053    -999.25   234.4726    -999.25  3567.9939   154.6585    -999.25    -999.25    -999.25     1.3405   350.9433    83.0000    75.0000    85.0000     0.0000
 2711.0436    13.5180    17.6588    15.1261    18.4014    -999.25   234.5440    -999.25  3567.9939   154.4756    -999.25     0.0000    -999.25     1.3404   350.9433    83.0000    75.0000    85.0000     0.0000
 2711.1960    13.5104    -999.25    15.6224    17.7567    -999.25   234.2574  2617.1875  3567.9939   154.5122    -999.25     0.0000    -999.25     1.3404   350.9433    83.0000    75.0000    85.0000     0.0000
 2711.3484    13.5274    -999.25    15.3028    15.9407   267.0000   231.2828    -999.25  3455.3509   154.3589    -999.25    -999.25     1.0000     1.3411   351.1501    83.0000    75.0000    79.3333     0.0000
 2711.5008    12.2732    15.5204    14.9067    13.9693    -999.25   230.2481    -999.25  3457.6054   154.8301    -999.25    -999.25    -999.25     1.3413   351.2191    83.0000    75.0000    50.6163    31.9182
 2711.6532    12.1538    -999.25    15.3841    14.9069    -999.25   237.3278    -999.25  3562.7440   154.5000    -999.25     0.0000    -999.25     1.3405   351.0122    83.0000    75.0000    50.0000    35.0000
 2711.8056    12.0273    16.5724    15.3709    16.1262    -999.25   239.3035  2617.1875  3562.7440   154.4889    -999.25     0.0000    -999.25     1.3407   351.0812    83.0000    75.0000    50.0000    35.0000
 2711.9580    11.9882    -999.25    14.9516    13.6796    -999.25   234.0446  2617.1875  3561.8406   154.6931   164.0000     0.0000     0.0000     1.3411   351.2191    83.0000    68.0682    50.0000    41.9318
 2712.1104    12.0846    19.9352    15.5032    16.6660   162.0000   238.9556    -999.25  3561.2438   154.6750   129.0000    -999.25     0.0000     1.3416   351.3570    83.0000    65.0000    50.0000    45.0000
 2712.2628    12.1192    -999.25    15.8338    13.9474    -999.25   240.9829  2617.1875  3561.2438   154.1464   149.0000     0.0000    -999.25     1.3413   351.2880    83.0000    65.0000    50.0000    45.0000
 2712.4152    12.0694    13.5200    15.8625    16.2855   159.0000   240.2260  2617.1875  3561.2438   154.4070    -999.25     0.0000     0.0000     1.3407   351.1501    83.0000    65.0000    50.0000    45.0000
 2712.5676    12.0221    -999.25    15.3944    18.2365   237.0000   240.1822    -999.25  3561.2438   155.1395   197.0000    -999.25     0.0000     1.3406   351.1501    83.0000    65.0000    50.0000    45.0000
 2712.7200    12.0537    17.6588    14.9408    17.2423    -999.25   241.1343  2617.1875  3561.2438   153.6000   110.0000     0.0000     0.0000     1.3411   351.2880    83.0000    65.0000    50.0000    45.0000
 2712.8724    11.9731    16.5724    15.8017    16.3098   252.0000   240.2793  2656.2500  3561.2438   154.6626    -999.25     0.0000    -999.25     1.3418   351.4949    83.0000    65.0000    50.0000    45.0000
 2713.0248    13.0253    -999.25    15.7174    17.2868   267.0000   239.6596    -999.25  3561.2438   154.7411    94.0000    -999.25     0.0000     1.3410   351.2880    83.0000    65.0000    50.0000    45.0000
 2713.1772    12.9978    -999.25    15.4803    15.7127   252.0000   240.2408  2695.3125  3561.2438   154.7619    92.0000     0.0000     0.0000     1.3404   351.1501    83.0000    65.0000    50.0000    45.0000
 2713.3296    13.2135    17.6588    15.1236    19.0183    -999.25   240.8942  2656.2500  3561.2438   154.0000    -999.25     0.0000    -999.25     1.3419   351.5638    83.0000    65.0000    50.0000    45.0000
 2713.4820    13.4920    -999.25    14.9418    16.1418   249.0000   240.2375    -999.25  3561.2438   155.2957   192.0000    -999.25     0.0000     1.3413   351.4259    83.0000    65.0000    50.0000    45.0000
